{"version":1,"tile":"9/444/203","count":16,"reports":[{"id":"weathernews2621","name":"こちら何もナシです、何も無いのが心苦しいですね。被災された皆さんに応援の気持ちを送ります、頑張って下さい！ 03-12 07:43:58","text":"こちら何もナシです、何も無いのが心苦しいですね。被災された皆さんに応援の気持ちを送ります、頑張って下さい！ 03-12 07:43:58","label":"こちら何もナシです、何も無いのが心苦しいですね。被災された皆さんに応援の気持ちを...","desc":"<p class=\"tweettext\">こちら何もナシです、何も無いのが心苦しいですね。被災された皆さんに応援の気持ちを送ります、頑張って下さい！</p><p class=\"time\">03-12 07:43:58</p>","lon":132.55896,"lat":34.49618,"img":"megaphone.png"},{"id":"weathernews2909","name":"おはようございます。昨日から大変なことになっおりテレビでみながら心痛みます。被害に遭われた方頑張ってください。広島は天気はいいですがまだ津波注意報がでてます。 ...","text":"おはようございます。昨日から大変なことになっおりテレビでみながら心痛みます。被害に遭われた方頑張ってください。広島は天気はいいですがまだ津波注意報がでてます。 03-12 07:56:56","label":"おはようございます。昨日から大変なことになっおりテレビでみながら心痛みます。被害...","desc":"<p class=\"tweettext\">おはようございます。昨日から大変なことになっおりテレビでみながら心痛みます。被害に遭われた方頑張ってください。広島は天気はいいですがまだ津波注意報がでてます。</p><p class=\"time\">03-12 07:56:56</p>","lon":132.395,"lat":34.37944,"img":"megaphone.png"},{"id":"weathernews2947","name":"私達は見ているだけで何もできない。それが心を苦しめます。私達には何が出来るのだろう。励ますしかないのか。この地震は日本全体が関わっていかないといけない 03-1...","text":"私達は見ているだけで何もできない。それが心を苦しめます。私達には何が出来るのだろう。励ますしかないのか。この地震は日本全体が関わっていかないといけない 03-12 07:58:26","label":"私達は見ているだけで何もできない。それが心を苦しめます。私達には何が出来るのだろ...","desc":"<p class=\"tweettext\">私達は見ているだけで何もできない。それが心を苦しめます。私達には何が出来るのだろう。励ますしかないのか。この地震は日本全体が関わっていかないといけない</p><p class=\"time\">03-12 07:58:26</p>","lon":132.45532,"lat":34.38524,"img":"megaphone.png"},{"id":"weathernews3040","name":"電話が出来ません×昨日の夜は、電波が悪くﾒｰﾙもできない状況でした。 03-12 08:01:20","text":"電話が出来ません×昨日の夜は、電波が悪くﾒｰﾙもできない状況でした。 03-12 08:01:20","label":"電話が出来ません×昨日の夜は、電波が悪くﾒｰﾙもできない状況でした。 03-12...","desc":"<p class=\"tweettext\">電話が出来ません×昨日の夜は、電波が悪くﾒｰﾙもできない状況でした。</p><p class=\"time\">03-12 08:01:20</p>","lon":132.86583,"lat":34.80389,"img":"megaphone.png"},{"id":"weathernews4148","name":"全く揺れなかった。地震の少ない広島は大地震があれば建物の破壊も酷いでしょうしパニックになるでしょう。被害の酷さを訴えるばかりで、身を守る意識が低いです。 03-...","text":"全く揺れなかった。地震の少ない広島は大地震があれば建物の破壊も酷いでしょうしパニックになるでしょう。被害の酷さを訴えるばかりで、身を守る意識が低いです。 03-12 09:17:37","label":"全く揺れなかった。地震の少ない広島は大地震があれば建物の破壊も酷いでしょうしパニ...","desc":"<p class=\"tweettext\">全く揺れなかった。地震の少ない広島は大地震があれば建物の破壊も酷いでしょうしパニックになるでしょう。被害の酷さを訴えるばかりで、身を守る意識が低いです。</p><p class=\"time\">03-12 09:17:37</p>","lon":132.5414,"lat":34.46861,"img":"megaphone.png"},{"id":"weathernews4234","name":"ニュースを見なければ、この災害に気付かなかったであろうほど、いつも通りに過ごせています。揺れもありませんでした。昨日の午前までは当たり前に生きていた人が、何百人...","text":"ニュースを見なければ、この災害に気付かなかったであろうほど、いつも通りに過ごせています。揺れもありませんでした。昨日の午前までは当たり前に生きていた人が、何百人もいっぺんに亡くなるという事実に、また津波の映像に、大変ショックを受けています。どんなに恐ろしい思いで亡くなっていったかと思うと…。ひとごととは、とても思えません。遠く離れた広島からでもできることを、また呼び掛けてください。できる限り協力します。 03-12 09:27:30","label":"ニュースを見なければ、この災害に気付かなかったであろうほど、いつも通りに過ごせて...","desc":"<p class=\"tweettext\">ニュースを見なければ、この災害に気付かなかったであろうほど、いつも通りに過ごせています。揺れもありませんでした。昨日の午前までは当たり前に生きていた人が、何百人もいっぺんに亡くなるという事実に、また津波の映像に、大変ショックを受けています。どんなに恐ろしい思いで亡くなっていったかと思うと…。ひとごととは、とても思えません。遠く離れた広島からでもできることを、また呼び掛けてください。できる限り協力します。</p><p class=\"time\">03-12 09:27:30</p>","lon":132.35101,"lat":34.3606,"img":"megaphone.png"},{"id":"weathernews4359","name":"こちらはまったく影響ありません。広島市内に家族が病院に先週から居て、津波が太田川を通じて入ってくるかと思いましたが大丈夫でした。広島は災害が少ないのが幸いです。...","text":"こちらはまったく影響ありません。広島市内に家族が病院に先週から居て、津波が太田川を通じて入ってくるかと思いましたが大丈夫でした。広島は災害が少ないのが幸いです。とは言うものの、いざとなった時の個人の意識が薄いため、為す術が無いと思われます。 03-12 09:42:01","label":"こちらはまったく影響ありません。広島市内に家族が病院に先週から居て、津波が太田川...","desc":"<p class=\"tweettext\">こちらはまったく影響ありません。広島市内に家族が病院に先週から居て、津波が太田川を通じて入ってくるかと思いましたが大丈夫でした。広島は災害が少ないのが幸いです。とは言うものの、いざとなった時の個人の意識が薄いため、為す術が無いと思われます。</p><p class=\"time\">03-12 09:42:01</p>","lon":132.3797,"lat":34.46331,"img":"megaphone.png"},{"id":"weathernews4538","name":"全く揺れもないです。山に近いので津波の心配もありません。行方不明になっている方がいる中、生きていてくれてありがとうございます。ありきたりな言葉しか思いつかないけ...","text":"全く揺れもないです。山に近いので津波の心配もありません。行方不明になっている方がいる中、生きていてくれてありがとうございます。ありきたりな言葉しか思いつかないけど…。 03-12 10:00:36","label":"全く揺れもないです。山に近いので津波の心配もありません。行方不明になっている方が...","desc":"<p class=\"tweettext\">全く揺れもないです。山に近いので津波の心配もありません。行方不明になっている方がいる中、生きていてくれてありがとうございます。ありきたりな言葉しか思いつかないけど…。</p><p class=\"time\">03-12 10:00:36</p>","lon":132.45778,"lat":34.47889,"img":"megaphone.png"},{"id":"weathernews4546","name":"全く影響なし。たった今横浜の叔母から無事だという電話が来て、家に着いたとのこと。 03-12 10:01:46","text":"全く影響なし。たった今横浜の叔母から無事だという電話が来て、家に着いたとのこと。 03-12 10:01:46","label":"全く影響なし。たった今横浜の叔母から無事だという電話が来て、家に着いたとのこと。...","desc":"<p class=\"tweettext\">全く影響なし。たった今横浜の叔母から無事だという電話が来て、家に着いたとのこと。</p><p class=\"time\">03-12 10:01:46</p>","lon":132.42084,"lat":34.4725,"img":"megaphone.png"},{"id":"weathernews5542","name":"一切揺れはなく､停電もないです。少しでも皆さんの被害が少なくすむことを祈るばかりです。ﾒｰﾙは何時間も前のものが順番ぐちゃぐちゃで不定期に届きました。 03-1...","text":"一切揺れはなく､停電もないです。少しでも皆さんの被害が少なくすむことを祈るばかりです。ﾒｰﾙは何時間も前のものが順番ぐちゃぐちゃで不定期に届きました。 03-12 12:42:32","label":"一切揺れはなく､停電もないです。少しでも皆さんの被害が少なくすむことを祈るばかり...","desc":"<p class=\"tweettext\">一切揺れはなく､停電もないです。少しでも皆さんの被害が少なくすむことを祈るばかりです。ﾒｰﾙは何時間も前のものが順番ぐちゃぐちゃで不定期に届きました。</p><p class=\"time\">03-12 12:42:32</p>","lon":132.79668,"lat":34.46194,"img":"megaphone.png"},{"id":"weathernews5751","name":"ちょうど昼食中だったのですが揺れは全く感じられませんでした とても人事だとは思えず震える１日を過ごしました 千葉の親戚もテレビやタンスがたおれはしたけど無事だと...","text":"ちょうど昼食中だったのですが揺れは全く感じられませんでした とても人事だとは思えず震える１日を過ごしました 千葉の親戚もテレビやタンスがたおれはしたけど無事だと連絡をうけました 何か被災地のお役に立てることがあればとみんなで考えています 03-12 13:12:18","label":"ちょうど昼食中だったのですが揺れは全く感じられませんでした とても人事だとは思え...","desc":"<p class=\"tweettext\">ちょうど昼食中だったのですが揺れは全く感じられませんでした  とても人事だとは思えず震える１日を過ごしました  千葉の親戚もテレビやタンスがたおれはしたけど無事だと連絡をうけました  何か被災地のお役に立てることがあればとみんなで考えています </p><p class=\"time\">03-12 13:12:18</p>","lon":132.43436,"lat":34.39396,"img":"megaphone.png"},{"id":"weathernews6474","name":"現在海老園の海岸に波の影響はありません。穏やかです。 03-12 13:54:48","text":"現在海老園の海岸に波の影響はありません。穏やかです。 03-12 13:54:48","label":"現在海老園の海岸に波の影響はありません。穏やかです。 03-12 13:54:4...","desc":"<p class=\"tweettext\">現在海老園の海岸に波の影響はありません。穏やかです。</p><p class=\"time\">03-12 13:54:48</p>","lon":132.35556,"lat":34.35639,"img":"megaphone.png"},{"id":"weathernews8528","name":"広島だから、直接の被害はなかったものの携帯の電波障害はかなり悪かったです。周りにも聞くと、４〜５時間はなかなか電話やメールができなかったみたいです。 03-12...","text":"広島だから、直接の被害はなかったものの携帯の電波障害はかなり悪かったです。周りにも聞くと、４〜５時間はなかなか電話やメールができなかったみたいです。 03-12 18:31:24","label":"広島だから、直接の被害はなかったものの携帯の電波障害はかなり悪かったです。周りに...","desc":"<p class=\"tweettext\">広島だから、直接の被害はなかったものの携帯の電波障害はかなり悪かったです。周りにも聞くと、４〜５時間はなかなか電話やメールができなかったみたいです。</p><p class=\"time\">03-12 18:31:24</p>","lon":132.46222,"lat":34.40972,"img":"megaphone.png"},{"id":"weathernews8769","name":"岩手県への電話が全く通じない。特に陸前高田市、住田町をなんとかしてほしい。緊急回線などすぐにもうけてほしい。いとこの安否が全くとれない。陸前高田市と大船渡市なの...","text":"岩手県への電話が全く通じない。特に陸前高田市、住田町をなんとかしてほしい。緊急回線などすぐにもうけてほしい。いとこの安否が全くとれない。陸前高田市と大船渡市なので本間に不安である。 03-12 19:37:57","label":"岩手県への電話が全く通じない。特に陸前高田市、住田町をなんとかしてほしい。緊急回...","desc":"<p class=\"tweettext\">岩手県への電話が全く通じない。特に陸前高田市、住田町をなんとかしてほしい。緊急回線などすぐにもうけてほしい。いとこの安否が全くとれない。陸前高田市と大船渡市なので本間に不安である。</p><p class=\"time\">03-12 19:37:57</p>","lon":132.47694,"lat":34.45722,"img":"megaphone.png"},{"id":"weathernews8892","name":"電波が混雑したのかわからないが電話をかけようとしたら『しばらくお待ちください』となり電話がなかなか使用出来なかった！ 03-12 20:11:33","text":"電波が混雑したのかわからないが電話をかけようとしたら『しばらくお待ちください』となり電話がなかなか使用出来なかった！ 03-12 20:11:33","label":"電波が混雑したのかわからないが電話をかけようとしたら『しばらくお待ちください』と...","desc":"<p class=\"tweettext\">電波が混雑したのかわからないが電話をかけようとしたら『しばらくお待ちください』となり電話がなかなか使用出来なかった！</p><p class=\"time\">03-12 20:11:33</p>","lon":132.47154,"lat":34.45193,"img":"megaphone.png"},{"id":"weathernews9056","name":"TV でﾆｭｰｽを見ていますが、本当に人事ではないと感じます。あまり普段と変わらない生活をしている自分と比べると凄く複雑な気持ちになりました。だから節電を心がけ...","text":"TV でﾆｭｰｽを見ていますが、本当に人事ではないと感じます。あまり普段と変わらない生活をしている自分と比べると凄く複雑な気持ちになりました。だから節電を心がけています。また、いつどこで地震が起きるか分からないので、食料の確保や避難方法などの確認をしていこうと思います。 03-12 20:50:58","label":"TV でﾆｭｰｽを見ていますが、本当に人事ではないと感じます。あまり普段と変わら...","desc":"<p class=\"tweettext\">TV でﾆｭｰｽを見ていますが、本当に人事ではないと感じます。あまり普段と変わらない生活をしている自分と比べると凄く複雑な気持ちになりました。だから節電を心がけています。また、いつどこで地震が起きるか分からないので、食料の確保や避難方法などの確認をしていこうと思います。</p><p class=\"time\">03-12 20:50:58</p>","lon":132.44896,"lat":34.37597,"img":"megaphone.png"}]}