{"version":1,"tile":"9/446/205","count":11,"reports":[{"id":"weathernews460","name":"対岸の住民は一部避難。自分は家で待機。 03-12 02:57:20","text":"対岸の住民は一部避難。自分は家で待機。 03-12 02:57:20","desc":"<p class=\"tweettext\">対岸の住民は一部避難。自分は家で待機。</p><p class=\"time\">03-12 02:57:20</p>","lon":133.72083,"lat":33.55497,"img":"megaphone.png"},{"id":"weathernews471","name":"大津波警報が出ていますが被害なし。 03-12 03:02:45","text":"大津波警報が出ていますが被害なし。 03-12 03:02:45","desc":"<p class=\"tweettext\">大津波警報が出ていますが被害なし。</p><p class=\"time\">03-12 03:02:45</p>","lon":133.9054,"lat":33.50096,"img":"megaphone.png"},{"id":"weathernews1418","name":"ここ高知県は大津波警報がいまだに出ている。今日は静かだ。 03-12 06:40:41","text":"ここ高知県は大津波警報がいまだに出ている。今日は静かだ。 03-12 06:40:41","desc":"<p class=\"tweettext\">ここ高知県は大津波警報がいまだに出ている。今日は静かだ。</p><p class=\"time\">03-12 06:40:41</p>","lon":133.63486,"lat":33.5816,"img":"megaphone.png"},{"id":"weathernews3173","name":"特に被害はないです。でも、昨日深夜に大津波警報になり、沿岸にある自宅の周りが一瞬あわただしくなり、いつでも避難できるように衣服に着替えて眠りました。目が覚めて、...","text":"特に被害はないです。でも、昨日深夜に大津波警報になり、沿岸にある自宅の周りが一瞬あわただしくなり、いつでも避難できるように衣服に着替えて眠りました。目が覚めて、自分が生きてる事のありがたみを感じてます。私に出来ることを考えたいと思ってます。 03-12 08:05:58","desc":"<p class=\"tweettext\">特に被害はないです。でも、昨日深夜に大津波警報になり、沿岸にある自宅の周りが一瞬あわただしくなり、いつでも避難できるように衣服に着替えて眠りました。目が覚めて、自分が生きてる事のありがたみを感じてます。私に出来ることを考えたいと思ってます。</p><p class=\"time\">03-12 08:05:58</p>","lon":134.03749,"lat":33.38361,"img":"megaphone.png"},{"id":"weathernews4738","name":"全く揺れはなし。余震もなし。津波の被害は海岸沿いの地域のみ。電気、水道、ガス通じます。 03-12 10:25:09","text":"全く揺れはなし。余震もなし。津波の被害は海岸沿いの地域のみ。電気、水道、ガス通じます。 03-12 10:25:09","desc":"<p class=\"tweettext\">全く揺れはなし。余震もなし。津波の被害は海岸沿いの地域のみ。電気、水道、ガス通じます。</p><p class=\"time\">03-12 10:25:09</p>","lon":133.71333,"lat":33.58861,"img":"megaphone.png"},{"id":"weathernews4766","name":"川に津波がきてます 03-12 10:31:11","text":"川に津波がきてます 03-12 10:31:11","desc":"<p class=\"tweettext\">川に津波がきてます</p><p class=\"time\">03-12 10:31:11</p>","lon":133.75626,"lat":33.52424,"img":"megaphone.png"},{"id":"weathernews5462","name":"地震があった時仕事中でしたでも、 がずっと鳴り止まないのがとても不安だったのですが仕事が終わって を開いてびっくりしました54件もの地震情報 に連絡入れるにも連...","text":"地震があった時仕事中でしたでも、 がずっと鳴り止まないのがとても不安だったのですが仕事が終わって を開いてびっくりしました54件もの地震情報 に連絡入れるにも連絡が取れず帰るにもバスが止まってとても困りました、幸いに相棒が まで乗せて帰ってくれたけどこれが実際に起こっていたらと考えたらとても背筋が凍りつきました 03-12 12:26:28","desc":"<p class=\"tweettext\">地震があった時仕事中でしたでも、 がずっと鳴り止まないのがとても不安だったのですが仕事が終わって を開いてびっくりしました54件もの地震情報 に連絡入れるにも連絡が取れず帰るにもバスが止まってとても困りました、幸いに相棒が まで乗せて帰ってくれたけどこれが実際に起こっていたらと考えたらとても背筋が凍りつきました</p><p class=\"time\">03-12 12:26:28</p>","lon":134.08849,"lat":33.33388,"img":"megaphone.png"},{"id":"weathernews6048","name":"大津波警報有り、被害無し。 03-12 13:30:19","text":"大津波警報有り、被害無し。 03-12 13:30:19","desc":"<p class=\"tweettext\">大津波警報有り、被害無し。</p><p class=\"time\">03-12 13:30:19</p>","lon":134.06108,"lat":33.36585,"img":"megaphone.png"},{"id":"weathernews6471","name":"地震もなく津波の恐れもなし 03-12 13:54:38","text":"地震もなく津波の恐れもなし 03-12 13:54:38","desc":"<p class=\"tweettext\">地震もなく津波の恐れもなし</p><p class=\"time\">03-12 13:54:38</p>","lon":133.61667,"lat":33.55861,"img":"megaphone.png"},{"id":"weathernews7484","name":"自宅周辺は特に被害なし。落ち着いて事態を見守りたいと思います。 03-12 15:13:58","text":"自宅周辺は特に被害なし。落ち着いて事態を見守りたいと思います。 03-12 15:13:58","desc":"<p class=\"tweettext\">自宅周辺は特に被害なし。落ち着いて事態を見守りたいと思います。</p><p class=\"time\">03-12 15:13:58</p>","lon":133.61098,"lat":33.52757,"img":"megaphone.png"},{"id":"weathernews7562","name":"異常ありません!!! 03-12 15:24:35","text":"異常ありません!!! 03-12 15:24:35","desc":"<p class=\"tweettext\">異常ありません!!!</p><p class=\"time\">03-12 15:24:35</p>","lon":133.65306,"lat":33.53361,"img":"megaphone.png"}]}