{"version":1,"tile":"9/448/203","count":248,"reports":[{"id":"weathernews79","name":"めまいがしてｲｵﾝの店員さんが、地震と言ったので看板を見ると揺れていた 03-12 01:20:59","text":"めまいがしてｲｵﾝの店員さんが、地震と言ったので看板を見ると揺れていた 03-12 01:20:59","label":"めまいがしてｲｵﾝの店員さんが、地震と言ったので看板を見ると揺れていた 03-1...","desc":"<p class=\"tweettext\">めまいがしてｲｵﾝの店員さんが、地震と言ったので看板を見ると揺れていた</p><p class=\"time\">03-12 01:20:59</p>","lon":135.57568,"lat":34.69271,"img":"megaphone.png"},{"id":"weathernews152","name":"地震のメールが4時間遅れで今01:すぎに入って来ました？びっくりしてますＡＭ01時過ぎに21時頃のメールがどんどん今入って来ます？ 03-12 01:37:20","text":"地震のメールが4時間遅れで今01:すぎに入って来ました？びっくりしてますＡＭ01時過ぎに21時頃のメールがどんどん今入って来ます？ 03-12 01:37:20","label":"地震のメールが4時間遅れで今01:すぎに入って来ました？びっくりしてますＡＭ01...","desc":"<p class=\"tweettext\">地震のメールが4時間遅れで今01:すぎに入って来ました？びっくりしてますＡＭ01時過ぎに21時頃のメールがどんどん今入って来ます？</p><p class=\"time\">03-12 01:37:20</p>","lon":135.50639,"lat":34.60361,"img":"megaphone.png"},{"id":"weathernews157","name":"こちらの地域は震度3でしたが、ビル10Ｆだと横揺れ酷く、長く続き気持ちわるくなりました 03-12 01:38:09","text":"こちらの地域は震度3でしたが、ビル10Ｆだと横揺れ酷く、長く続き気持ちわるくなりました 03-12 01:38:09","label":"こちらの地域は震度3でしたが、ビル10Ｆだと横揺れ酷く、長く続き気持ちわるくなり...","desc":"<p class=\"tweettext\">こちらの地域は震度3でしたが、ビル10Ｆだと横揺れ酷く、長く続き気持ちわるくなりました</p><p class=\"time\">03-12 01:38:09</p>","lon":135.50671,"lat":34.62453,"img":"megaphone.png"},{"id":"weathernews358","name":"揺れは震度３以下で物が倒れることはなく、ほとんど移動もなかったですが地震の影響からか、通話は大丈夫ですがメールが不通に３０分〜１時間のタイムラグが発生しています...","text":"揺れは震度３以下で物が倒れることはなく、ほとんど移動もなかったですが地震の影響からか、通話は大丈夫ですがメールが不通に３０分〜１時間のタイムラグが発生しています多分センター止まりなのでしょう 03-12 02:27:56","label":"揺れは震度３以下で物が倒れることはなく、ほとんど移動もなかったですが地震の影響か...","desc":"<p class=\"tweettext\">揺れは震度３以下で物が倒れることはなく、ほとんど移動もなかったですが地震の影響からか、通話は大丈夫ですがメールが不通に３０分〜１時間のタイムラグが発生しています多分センター止まりなのでしょう</p><p class=\"time\">03-12 02:27:56</p>","lon":135.50194,"lat":34.58139,"img":"megaphone.png"},{"id":"weathernews373","name":"めまいのような揺れでしたが、テーブルの上のコップの水は全く揺れていませんでした。 03-12 02:30:40","text":"めまいのような揺れでしたが、テーブルの上のコップの水は全く揺れていませんでした。 03-12 02:30:40","label":"めまいのような揺れでしたが、テーブルの上のコップの水は全く揺れていませんでした。...","desc":"<p class=\"tweettext\">めまいのような揺れでしたが、テーブルの上のコップの水は全く揺れていませんでした。</p><p class=\"time\">03-12 02:30:40</p>","lon":135.31444,"lat":34.40832,"img":"megaphone.png"},{"id":"weathernews1018","name":"私の勤める会社が尼崎なのですが、当時目眩と錯覚するような揺れが長く続き社内も騒然としました。その前日に気になる事があったのでリポートとしてお伝えします。10日の...","text":"私の勤める会社が尼崎なのですが、当時目眩と錯覚するような揺れが長く続き社内も騒然としました。その前日に気になる事があったのでリポートとしてお伝えします。10日の夕方、帰宅途中に気づいたのですが会社の近くを流れる川の水位が異様に高かったんです。まとまった雨も降ってないのに水位がいつもより1メートルぐらい高かったのでおかしいね〜と話してたところでした。会社の方の話では11日の出勤時も水位は高かったそうです。11日の夕方にはいつもの水位に戻ってました。 地震と何か関係あったのでしょうか。 03-12 05:44:43","label":"私の勤める会社が尼崎なのですが、当時目眩と錯覚するような揺れが長く続き社内も騒然...","desc":"<p class=\"tweettext\">私の勤める会社が尼崎なのですが、当時目眩と錯覚するような揺れが長く続き社内も騒然としました。その前日に気になる事があったのでリポートとしてお伝えします。10日の夕方、帰宅途中に気づいたのですが会社の近くを流れる川の水位が異様に高かったんです。まとまった雨も降ってないのに水位がいつもより1メートルぐらい高かったのでおかしいね〜と話してたところでした。会社の方の話では11日の出勤時も水位は高かったそうです。11日の夕方にはいつもの水位に戻ってました。 地震と何か関係あったのでしょうか。</p><p class=\"time\">03-12 05:44:43</p>","lon":135.28313,"lat":34.7159,"img":"megaphone.png"},{"id":"weathernews1152","name":"ひどいめまいのような体感。壁をみると大判のカレンダーがゆれていて、地震だと解る。この程度の揺れは普段はグラッだけで終わるのに、グラグラグラグラ…と３０秒程度続い...","text":"ひどいめまいのような体感。壁をみると大判のカレンダーがゆれていて、地震だと解る。この程度の揺れは普段はグラッだけで終わるのに、グラグラグラグラ…と３０秒程度続いたので、一応屋外へ出た。 03-12 06:15:21","label":"ひどいめまいのような体感。壁をみると大判のカレンダーがゆれていて、地震だと解る。...","desc":"<p class=\"tweettext\">ひどいめまいのような体感。壁をみると大判のカレンダーがゆれていて、地震だと解る。この程度の揺れは普段はグラッだけで終わるのに、グラグラグラグラ…と３０秒程度続いたので、一応屋外へ出た。</p><p class=\"time\">03-12 06:15:21</p>","lon":135.50217,"lat":34.69395,"img":"megaphone.png"},{"id":"weathernews1225","name":"被害なし。地震発生時(11日14時50分ごろ)震度1〜2程度のゆっくりした揺れが2分以上続き、その後体に感じる余震はなし。 03-12 06:21:27","text":"被害なし。地震発生時(11日14時50分ごろ)震度1〜2程度のゆっくりした揺れが2分以上続き、その後体に感じる余震はなし。 03-12 06:21:27","label":"被害なし。地震発生時(11日14時50分ごろ)震度1〜2程度のゆっくりした揺れが...","desc":"<p class=\"tweettext\">被害なし。地震発生時(11日14時50分ごろ)震度1〜2程度のゆっくりした揺れが2分以上続き、その後体に感じる余震はなし。</p><p class=\"time\">03-12 06:21:27</p>","lon":135.52937,"lat":34.7941,"img":"megaphone.png"},{"id":"weathernews1482","name":"11日14時30分頃、ゆっくりとした揺れを感じました。6階建の6階にいました。かなり長い時間続いていました。 03-12 06:47:39","text":"11日14時30分頃、ゆっくりとした揺れを感じました。6階建の6階にいました。かなり長い時間続いていました。 03-12 06:47:39","label":"11日14時30分頃、ゆっくりとした揺れを感じました。6階建の6階にいました。か...","desc":"<p class=\"tweettext\">11日14時30分頃、ゆっくりとした揺れを感じました。6階建の6階にいました。かなり長い時間続いていました。</p><p class=\"time\">03-12 06:47:39</p>","lon":135.38959,"lat":34.78479,"img":"megaphone.png"},{"id":"weathernews1520","name":"私は15階に住んでます。11日の最初の揺れの時も、さっきの長野の時も、電気が大きくユラユラと。部屋にはかなり高い本棚がズラリと並んでおり、それもゆっくり揺れてい...","text":"私は15階に住んでます。11日の最初の揺れの時も、さっきの長野の時も、電気が大きくユラユラと。部屋にはかなり高い本棚がズラリと並んでおり、それもゆっくり揺れていて怖かったです。ペットも感知してカタまってました。高層階の地震対策がわかりません。ペットにもどうしてやったらよいか分かりません。もう地震イヤだ。被災された方々のためにも、早く早くおさまって欲しいです。 03-12 06:52:34","label":"私は15階に住んでます。11日の最初の揺れの時も、さっきの長野の時も、電気が大き...","desc":"<p class=\"tweettext\">私は15階に住んでます。11日の最初の揺れの時も、さっきの長野の時も、電気が大きくユラユラと。部屋にはかなり高い本棚がズラリと並んでおり、それもゆっくり揺れていて怖かったです。ペットも感知してカタまってました。高層階の地震対策がわかりません。ペットにもどうしてやったらよいか分かりません。もう地震イヤだ。被災された方々のためにも、早く早くおさまって欲しいです。</p><p class=\"time\">03-12 06:52:34</p>","lon":135.52917,"lat":34.70667,"img":"megaphone.png"},{"id":"weathernews1545","name":"初めはゆっくりとした揺れでしたが、強い地震が何度か来ました。昨日 スポーツジム水泳行きましたが、あの時の強い地震で波避けがすべて飛んで、緊急避難すると話聞きまし...","text":"初めはゆっくりとした揺れでしたが、強い地震が何度か来ました。昨日 スポーツジム水泳行きましたが、あの時の強い地震で波避けがすべて飛んで、緊急避難すると話聞きました。昨日の８・８巨大地震の後の強い地震でも、立つ事すら出来ませんでした。慌ててしまいましたけど、冷静に情報確認して行動しました。僕の は木造なので、見えない所はダメージは受けています。ヘルメット・懐中電灯・水は最低限必要です。濃霧も発生しています！ 03-12 06:54:29","label":"初めはゆっくりとした揺れでしたが、強い地震が何度か来ました。昨日 スポーツジム水...","desc":"<p class=\"tweettext\">初めはゆっくりとした揺れでしたが、強い地震が何度か来ました。昨日 スポーツジム水泳行きましたが、あの時の強い地震で波避けがすべて飛んで、緊急避難すると話聞きました。昨日の８・８巨大地震の後の強い地震でも、立つ事すら出来ませんでした。慌ててしまいましたけど、冷静に情報確認して行動しました。僕の は木造なので、見えない所はダメージは受けています。ヘルメット・懐中電灯・水は最低限必要です。濃霧も発生しています！</p><p class=\"time\">03-12 06:54:29</p>","lon":135.62248,"lat":34.69722,"img":"megaphone.png"},{"id":"weathernews1563","name":"長い間揺れを感じたものの、被害はありませんでした。が、阪神淡路大震災を経験したためか、昨夜は怖くてほとんど寝ることができませんでした。被災地の様子をテレビで見る...","text":"長い間揺れを感じたものの、被害はありませんでした。が、阪神淡路大震災を経験したためか、昨夜は怖くてほとんど寝ることができませんでした。被災地の様子をテレビで見るたびに心が痛みます。 03-12 06:55:59","label":"長い間揺れを感じたものの、被害はありませんでした。が、阪神淡路大震災を経験したた...","desc":"<p class=\"tweettext\">長い間揺れを感じたものの、被害はありませんでした。が、阪神淡路大震災を経験したためか、昨夜は怖くてほとんど寝ることができませんでした。被災地の様子をテレビで見るたびに心が痛みます。</p><p class=\"time\">03-12 06:55:59</p>","lon":135.19536,"lat":34.69046,"img":"megaphone.png"},{"id":"weathernews1572","name":"まったく大丈夫揺れわ感じなかった 03-12 06:56:38","text":"まったく大丈夫揺れわ感じなかった 03-12 06:56:38","label":"まったく大丈夫揺れわ感じなかった 03-12 06:56:38","desc":"<p class=\"tweettext\">まったく大丈夫揺れわ感じなかった</p><p class=\"time\">03-12 06:56:38</p>","lon":135.33,"lat":34.75889,"img":"megaphone.png"},{"id":"weathernews1593","name":"揺れは酷くなかったけど、少し揺れた 03-12 06:57:47","text":"揺れは酷くなかったけど、少し揺れた 03-12 06:57:47","label":"揺れは酷くなかったけど、少し揺れた 03-12 06:57:47","desc":"<p class=\"tweettext\">揺れは酷くなかったけど、少し揺れた</p><p class=\"time\">03-12 06:57:47</p>","lon":135.52556,"lat":34.73667,"img":"megaphone.png"},{"id":"weathernews1620","name":"32階建てのビルの7階にいました。急にめまいがして、船酔いのような感じがしました。ミシミシとフロアのパーテーションや窓枠が鳴り出し、だんだんと揺れが大きくなり、...","text":"32階建てのビルの7階にいました。急にめまいがして、船酔いのような感じがしました。ミシミシとフロアのパーテーションや窓枠が鳴り出し、だんだんと揺れが大きくなり、3分以上たったあとおさまっていきました。揺れの程度は、職員が一ヶ所に集まってくるくらいでしたが、揺れが長かったため少し怖かったです。物が落ちたり、壊れたりの被害はありませんでした。。揺れている間に時計をみたら、14:51頃でした。 03-12 06:59:43","label":"32階建てのビルの7階にいました。急にめまいがして、船酔いのような感じがしました...","desc":"<p class=\"tweettext\">32階建てのビルの7階にいました。急にめまいがして、船酔いのような感じがしました。ミシミシとフロアのパーテーションや窓枠が鳴り出し、だんだんと揺れが大きくなり、3分以上たったあとおさまっていきました。揺れの程度は、職員が一ヶ所に集まってくるくらいでしたが、揺れが長かったため少し怖かったです。物が落ちたり、壊れたりの被害はありませんでした。。揺れている間に時計をみたら、14:51頃でした。</p><p class=\"time\">03-12 06:59:43</p>","lon":135.19536,"lat":34.69046,"img":"megaphone.png"},{"id":"weathernews1647","name":"現在、揺れ等の被害無し。 03-12 07:01:51","text":"現在、揺れ等の被害無し。 03-12 07:01:51","label":"現在、揺れ等の被害無し。 03-12 07:01:51","desc":"<p class=\"tweettext\">現在、揺れ等の被害無し。</p><p class=\"time\">03-12 07:01:51</p>","lon":135.61722,"lat":34.57,"img":"megaphone.png"},{"id":"weathernews1700","name":"おはよう ございます。昨日 最初の地震発生時は奈良 大和郡山市で建物の2階にいましたが ゆっくりした横揺れで長い時間揺れていました。今朝は地震ﾒ‐ﾙが朝から多数...","text":"おはよう ございます。昨日 最初の地震発生時は奈良 大和郡山市で建物の2階にいましたが ゆっくりした横揺れで長い時間揺れていました。今朝は地震ﾒ‐ﾙが朝から多数着信しています。 いったいどうなるんでしょう！とても不安です。今朝の空は少し白っぽく太陽が顔を見せました。体感は少し寒いです。地震早く治まって下さい 。 03-12 07:05:04","label":"おはよう ございます。昨日 最初の地震発生時は奈良 大和郡山市で建物の2階にいま...","desc":"<p class=\"tweettext\">おはよう ございます。昨日 最初の地震発生時は奈良 大和郡山市で建物の2階にいましたが ゆっくりした横揺れで長い時間揺れていました。今朝は地震ﾒ‐ﾙが朝から多数着信しています。 いったいどうなるんでしょう！とても不安です。今朝の空は少し白っぽく太陽が顔を見せました。体感は少し寒いです。地震早く治まって下さい 。</p><p class=\"time\">03-12 07:05:04</p>","lon":135.60146,"lat":34.6216,"img":"megaphone.png"},{"id":"weathernews1723","name":"揺れは小さかったが長い間揺れが続いた 03-12 07:06:35","text":"揺れは小さかったが長い間揺れが続いた 03-12 07:06:35","label":"揺れは小さかったが長い間揺れが続いた 03-12 07:06:35","desc":"<p class=\"tweettext\">揺れは小さかったが長い間揺れが続いた</p><p class=\"time\">03-12 07:06:35</p>","lon":135.54343,"lat":34.70127,"img":"megaphone.png"},{"id":"weathernews1813","name":"なんか最初はめまいがおこったのかなって思ってたのですがそれは地震でした。ゆっくりと横に揺れ三半規管がやられる地震でした。また東京に電話しましたが全然つながらなか...","text":"なんか最初はめまいがおこったのかなって思ってたのですがそれは地震でした。ゆっくりと横に揺れ三半規管がやられる地震でした。また東京に電話しましたが全然つながらなかったす。 03-12 07:10:14","label":"なんか最初はめまいがおこったのかなって思ってたのですがそれは地震でした。ゆっくり...","desc":"<p class=\"tweettext\">なんか最初はめまいがおこったのかなって思ってたのですがそれは地震でした。ゆっくりと横に揺れ三半規管がやられる地震でした。また東京に電話しましたが全然つながらなかったす。</p><p class=\"time\">03-12 07:10:14</p>","lon":135.3709,"lat":34.46053,"img":"megaphone.png"},{"id":"weathernews1893","name":"このへんは異常なし 03-12 07:13:20","text":"このへんは異常なし 03-12 07:13:20","label":"このへんは異常なし 03-12 07:13:20","desc":"<p class=\"tweettext\">このへんは異常なし</p><p class=\"time\">03-12 07:13:20</p>","lon":135.55943,"lat":34.47361,"img":"megaphone.png"},{"id":"weathernews1949","name":"今のところ被害なし。揺れも感じませんでした。 03-12 07:15:15","text":"今のところ被害なし。揺れも感じませんでした。 03-12 07:15:15","label":"今のところ被害なし。揺れも感じませんでした。 03-12 07:15:15","desc":"<p class=\"tweettext\">今のところ被害なし。揺れも感じませんでした。</p><p class=\"time\">03-12 07:15:15</p>","lon":135.32529,"lat":34.3775,"img":"megaphone.png"},{"id":"weathernews2015","name":"最大の揺れを東北で観測したとき、大阪市内中心部でもゆっくりと揺れました。ただ、知り合いの話だとホテルの上層階では、相当揺れたそうです。場所により相当揺れの違いが...","text":"最大の揺れを東北で観測したとき、大阪市内中心部でもゆっくりと揺れました。ただ、知り合いの話だとホテルの上層階では、相当揺れたそうです。場所により相当揺れの違いがありました。地下鉄など地下街では揺れを感じないとも聞きました。電話やメールが輻輳し、つなごうとしている間にバッテリーが切れてしまい、情報の入手が難しくなりました。予備のバッテリーが必要です。ツイッターでの情報が一番速いのですが、デマや誤解も入っています。 03-12 07:17:29","label":"最大の揺れを東北で観測したとき、大阪市内中心部でもゆっくりと揺れました。ただ、知...","desc":"<p class=\"tweettext\">最大の揺れを東北で観測したとき、大阪市内中心部でもゆっくりと揺れました。ただ、知り合いの話だとホテルの上層階では、相当揺れたそうです。場所により相当揺れの違いがありました。地下鉄など地下街では揺れを感じないとも聞きました。電話やメールが輻輳し、つなごうとしている間にバッテリーが切れてしまい、情報の入手が難しくなりました。予備のバッテリーが必要です。ツイッターでの情報が一番速いのですが、デマや誤解も入っています。</p><p class=\"time\">03-12 07:17:29</p>","lon":135.52473,"lat":34.6534,"img":"megaphone.png"},{"id":"weathernews2106","name":"この地震で、たくさんの方が亡くなられて、地震、津波の恐ろしさを感じました。早くおさまってもらいたいです。亡くなられたかたのご冥福をお祈りします。 03-12 0...","text":"この地震で、たくさんの方が亡くなられて、地震、津波の恐ろしさを感じました。早くおさまってもらいたいです。亡くなられたかたのご冥福をお祈りします。 03-12 07:21:09","label":"この地震で、たくさんの方が亡くなられて、地震、津波の恐ろしさを感じました。早くお...","desc":"<p class=\"tweettext\">この地震で、たくさんの方が亡くなられて、地震、津波の恐ろしさを感じました。早くおさまってもらいたいです。亡くなられたかたのご冥福をお祈りします。</p><p class=\"time\">03-12 07:21:09</p>","lon":135.43275,"lat":34.49833,"img":"megaphone.png"},{"id":"weathernews2107","name":"仙台空港で夫が地震に会った。直後、津波後、１８時に一応の無事と簡単な状況連絡メールがSMSで届いたがこちらからの返信は届いていない。直後：大地震だがどうにか無事...","text":"仙台空港で夫が地震に会った。直後、津波後、１８時に一応の無事と簡単な状況連絡メールがSMSで届いたがこちらからの返信は届いていない。直後：大地震だがどうにか無事。今日は帰れない。津波後：津波がきたが、空港建物の上階に避難した。死傷者も多い模様。空港は破滅した。１８時頃：仙台空港は水没中。空港建物に雑魚寝で泊まる。連絡がつかないのが不安 03-12 07:21:11","label":"仙台空港で夫が地震に会った。直後、津波後、１８時に一応の無事と簡単な状況連絡メー...","desc":"<p class=\"tweettext\">仙台空港で夫が地震に会った。直後、津波後、１８時に一応の無事と簡単な状況連絡メールがSMSで届いたがこちらからの返信は届いていない。直後：大地震だがどうにか無事。今日は帰れない。津波後：津波がきたが、空港建物の上階に避難した。死傷者も多い模様。空港は破滅した。１８時頃：仙台空港は水没中。空港建物に雑魚寝で泊まる。連絡がつかないのが不安</p><p class=\"time\">03-12 07:21:11</p>","lon":135.44305,"lat":34.79806,"img":"megaphone.png"},{"id":"weathernews2114","name":"この地震で、たくさんの方が亡くなられて、地震、津波の恐ろしさを感じました。早くおさまってもらいたいです。亡くなられたかたのご冥福をお祈りします。 03-12 0...","text":"この地震で、たくさんの方が亡くなられて、地震、津波の恐ろしさを感じました。早くおさまってもらいたいです。亡くなられたかたのご冥福をお祈りします。 03-12 07:21:44","label":"この地震で、たくさんの方が亡くなられて、地震、津波の恐ろしさを感じました。早くお...","desc":"<p class=\"tweettext\">この地震で、たくさんの方が亡くなられて、地震、津波の恐ろしさを感じました。早くおさまってもらいたいです。亡くなられたかたのご冥福をお祈りします。</p><p class=\"time\">03-12 07:21:44</p>","lon":135.43275,"lat":34.49833,"img":"megaphone.png"},{"id":"weathernews2128","name":"おはようございます。地震があった時、職場の３階にいましたが、ゆっくりした揺れだった為か全く地震に気付かず、周りの人が騒いでるのを聞いて知ったぐらいです。案外、歩...","text":"おはようございます。地震があった時、職場の３階にいましたが、ゆっくりした揺れだった為か全く地震に気付かず、周りの人が騒いでるのを聞いて知ったぐらいです。案外、歩いていると分からない物なんですね 03-12 07:22:16","label":"おはようございます。地震があった時、職場の３階にいましたが、ゆっくりした揺れだっ...","desc":"<p class=\"tweettext\">おはようございます。地震があった時、職場の３階にいましたが、ゆっくりした揺れだった為か全く地震に気付かず、周りの人が騒いでるのを聞いて知ったぐらいです。案外、歩いていると分からない物なんですね </p><p class=\"time\">03-12 07:22:16</p>","lon":135.64951,"lat":34.82764,"img":"megaphone.png"},{"id":"weathernews2179","name":"めまいがしたかと思う揺れでした。その後も余震のたびに、わずかに仏壇の吊り下がっている飾りや、遺影の額縁が揺れました。座っていたり横になっていたりすると、揺れなの...","text":"めまいがしたかと思う揺れでした。その後も余震のたびに、わずかに仏壇の吊り下がっている飾りや、遺影の額縁が揺れました。座っていたり横になっていたりすると、揺れなのかめまいなのか不明なことが続きました。auですが昨日夕方に出されたメールが、朝7時に届きました。 03-12 07:24:06","label":"めまいがしたかと思う揺れでした。その後も余震のたびに、わずかに仏壇の吊り下がって...","desc":"<p class=\"tweettext\">めまいがしたかと思う揺れでした。その後も余震のたびに、わずかに仏壇の吊り下がっている飾りや、遺影の額縁が揺れました。座っていたり横になっていたりすると、揺れなのかめまいなのか不明なことが続きました。auですが昨日夕方に出されたメールが、朝7時に届きました。</p><p class=\"time\">03-12 07:24:06</p>","lon":135.62119,"lat":34.63382,"img":"megaphone.png"},{"id":"weathernews2264","name":"当方マンションの一階、家には妻がいたが、揺れはほとんど感じなかったよう。 03-12 07:27:28","text":"当方マンションの一階、家には妻がいたが、揺れはほとんど感じなかったよう。 03-12 07:27:28","label":"当方マンションの一階、家には妻がいたが、揺れはほとんど感じなかったよう。 03-...","desc":"<p class=\"tweettext\">当方マンションの一階、家には妻がいたが、揺れはほとんど感じなかったよう。</p><p class=\"time\">03-12 07:27:28</p>","lon":135.49918,"lat":34.80361,"img":"megaphone.png"},{"id":"weathernews2317","name":"震度は分かりませんがそこそこ激しく揺れました。一応、周りの被害はなさそうです。 03-12 07:30:12","text":"震度は分かりませんがそこそこ激しく揺れました。一応、周りの被害はなさそうです。 03-12 07:30:12","label":"震度は分かりませんがそこそこ激しく揺れました。一応、周りの被害はなさそうです。 ...","desc":"<p class=\"tweettext\">震度は分かりませんがそこそこ激しく揺れました。一応、周りの被害はなさそうです。</p><p class=\"time\">03-12 07:30:12</p>","lon":135.65862,"lat":34.81917,"img":"megaphone.png"},{"id":"weathernews2328","name":"こちらは、大丈夫です 03-12 07:30:26","text":"こちらは、大丈夫です 03-12 07:30:26","label":"こちらは、大丈夫です 03-12 07:30:26","desc":"<p class=\"tweettext\">こちらは、大丈夫です </p><p class=\"time\">03-12 07:30:26</p>","lon":135.6964,"lat":34.51889,"img":"megaphone.png"},{"id":"weathernews2338","name":"揺れ幅が大きく長かった。強さはなかった。皆一瞬めまいを起こしたのかと思った。周辺に人的物的被害なし。 03-12 07:30:54","text":"揺れ幅が大きく長かった。強さはなかった。皆一瞬めまいを起こしたのかと思った。周辺に人的物的被害なし。 03-12 07:30:54","label":"揺れ幅が大きく長かった。強さはなかった。皆一瞬めまいを起こしたのかと思った。周辺...","desc":"<p class=\"tweettext\">揺れ幅が大きく長かった。強さはなかった。皆一瞬めまいを起こしたのかと思った。周辺に人的物的被害なし。</p><p class=\"time\">03-12 07:30:54</p>","lon":135.54768,"lat":34.69969,"img":"megaphone.png"},{"id":"weathernews2420","name":"3月11日15時頃は、7階建ての7階で、事務作業をしておりました。〔本震〕宮城でＭ8を記録した地震では、一人のスタッフが、何か揺れてる？と発言し地震に気付きまし...","text":"3月11日15時頃は、7階建ての7階で、事務作業をしておりました。〔本震〕宮城でＭ8を記録した地震では、一人のスタッフが、何か揺れてる？と発言し地震に気付きました。ゆっくりした横揺れが長く続き、会社のブラインドが横（南北方向で）揺れていました。みんな、ハイテンションで、インターネットを見たりワンセグを見たり。揺れが小さかったので、誰一人外に逃げ出た者はいません。あのあと、もし大きな揺れが来たら逃げ遅れてただろうと思います。〔余震〕体に感じるものが1時間以内に3回はありました。自分が揺れているのか地震なのか分からないような、ゆっくりしためまいのような感覚です。（ブラインドは東西方向に揺れたので違うプレートかも知れません）乗り物酔いのような感じで座っていると気分が悪くなりました。〔総合〕大阪西区は、歩いていると感じないレベルの揺れです。閉鎖されたビルの中では、外が見えないので、少しめまいかな、フラフラするなと自分の体調不良と間違う人達が多かったです。モノが落ちるなどの被害は一切ありませんでした。※東京に本社があるので、連絡を取ったりテレビニュースを見た家族から連絡が入って被害の大きさを知りました。本社ビルは損傷があったため、全員帰宅したようです。 03-12 07:34:51","label":"3月11日15時頃は、7階建ての7階で、事務作業をしておりました。〔本震〕宮城で...","desc":"<p class=\"tweettext\">3月11日15時頃は、7階建ての7階で、事務作業をしておりました。〔本震〕宮城でＭ8を記録した地震では、一人のスタッフが、何か揺れてる？と発言し地震に気付きました。ゆっくりした横揺れが長く続き、会社のブラインドが横（南北方向で）揺れていました。みんな、ハイテンションで、インターネットを見たりワンセグを見たり。揺れが小さかったので、誰一人外に逃げ出た者はいません。あのあと、もし大きな揺れが来たら逃げ遅れてただろうと思います。〔余震〕体に感じるものが1時間以内に3回はありました。自分が揺れているのか地震なのか分からないような、ゆっくりしためまいのような感覚です。（ブラインドは東西方向に揺れたので違うプレートかも知れません）乗り物酔いのような感じで座っていると気分が悪くなりました。〔総合〕大阪西区は、歩いていると感じないレベルの揺れです。閉鎖されたビルの中では、外が見えないので、少しめまいかな、フラフラするなと自分の体調不良と間違う人達が多かったです。モノが落ちるなどの被害は一切ありませんでした。※東京に本社があるので、連絡を取ったりテレビニュースを見た家族から連絡が入って被害の大きさを知りました。本社ビルは損傷があったため、全員帰宅したようです。</p><p class=\"time\">03-12 07:34:51</p>","lon":135.49174,"lat":34.63785,"img":"megaphone.png"},{"id":"weathernews2432","name":"今回の地震には関係ないのですが、大震災を経験した者として、一言伝えたくてこの場を利用させていただきました。どうか地震に負けず、頑張って下さい。お子さんがいらっし...","text":"今回の地震には関係ないのですが、大震災を経験した者として、一言伝えたくてこの場を利用させていただきました。どうか地震に負けず、頑張って下さい。お子さんがいらっしゃる方はどうかお子さんとずっと一緒にいてあげて下さい。手を握って抱きしめてあげて下さい。見た目よりも、すごくすごく精神的に傷ついています。一日も早い復興を遠くからですが、お祈りしています。 03-12 07:35:09","label":"今回の地震には関係ないのですが、大震災を経験した者として、一言伝えたくてこの場を...","desc":"<p class=\"tweettext\">今回の地震には関係ないのですが、大震災を経験した者として、一言伝えたくてこの場を利用させていただきました。どうか地震に負けず、頑張って下さい。お子さんがいらっしゃる方はどうかお子さんとずっと一緒にいてあげて下さい。手を握って抱きしめてあげて下さい。見た目よりも、すごくすごく精神的に傷ついています。一日も早い復興を遠くからですが、お祈りしています。</p><p class=\"time\">03-12 07:35:09</p>","lon":135.27638,"lat":34.72083,"img":"megaphone.png"},{"id":"weathernews2442","name":"椅子に座っていたらゆっくりとした横揺れが続きました。当初、私は自分の体調が悪くて目眩がしているのかと思っていました。同席していた人も同じように感じたそうです。揺...","text":"椅子に座っていたらゆっくりとした横揺れが続きました。当初、私は自分の体調が悪くて目眩がしているのかと思っていました。同席していた人も同じように感じたそうです。揺れは2〜4分くらい続いたと思います。被災された方々の無事を祈っています。南海地震への備えが必要だと感じました。 03-12 07:35:34","label":"椅子に座っていたらゆっくりとした横揺れが続きました。当初、私は自分の体調が悪くて...","desc":"<p class=\"tweettext\">椅子に座っていたらゆっくりとした横揺れが続きました。当初、私は自分の体調が悪くて目眩がしているのかと思っていました。同席していた人も同じように感じたそうです。揺れは2〜4分くらい続いたと思います。被災された方々の無事を祈っています。南海地震への備えが必要だと感じました。</p><p class=\"time\">03-12 07:35:34</p>","lon":135.52771,"lat":34.65924,"img":"megaphone.png"},{"id":"weathernews2473","name":"地震が起こる2日前.飼っているハムスタ−2匹が暴れていました 03-12 07:37:07","text":"地震が起こる2日前.飼っているハムスタ−2匹が暴れていました 03-12 07:37:07","label":"地震が起こる2日前.飼っているハムスタ−2匹が暴れていました 03-12 07:...","desc":"<p class=\"tweettext\">地震が起こる2日前.飼っているハムスタ−2匹が暴れていました </p><p class=\"time\">03-12 07:37:07</p>","lon":135.5239,"lat":34.60194,"img":"megaphone.png"},{"id":"weathernews2503","name":"メールが届くのが遅い。本来17時に来てるはずのメールが3時にきたり。あんまり役に立たないですねいつもこの天気予報を頼りにしてる中２男子 03-12 07:38:...","text":"メールが届くのが遅い。本来17時に来てるはずのメールが3時にきたり。あんまり役に立たないですねいつもこの天気予報を頼りにしてる中２男子 03-12 07:38:14","label":"メールが届くのが遅い。本来17時に来てるはずのメールが3時にきたり。あんまり役に...","desc":"<p class=\"tweettext\">メールが届くのが遅い。本来17時に来てるはずのメールが3時にきたり。あんまり役に立たないですねいつもこの天気予報を頼りにしてる中２男子</p><p class=\"time\">03-12 07:38:14</p>","lon":135.57278,"lat":34.82528,"img":"megaphone.png"},{"id":"weathernews2517","name":"会社が中央区にありますがブラインドの紐が横に揺れていました 03-12 07:39:09","text":"会社が中央区にありますがブラインドの紐が横に揺れていました 03-12 07:39:09","label":"会社が中央区にありますがブラインドの紐が横に揺れていました 03-12 07:3...","desc":"<p class=\"tweettext\">会社が中央区にありますがブラインドの紐が横に揺れていました</p><p class=\"time\">03-12 07:39:09</p>","lon":135.03223,"lat":34.66917,"img":"megaphone.png"},{"id":"weathernews2528","name":"得に変わりはない 03-12 07:39:36","text":"得に変わりはない 03-12 07:39:36","label":"得に変わりはない 03-12 07:39:36","desc":"<p class=\"tweettext\">得に変わりはない </p><p class=\"time\">03-12 07:39:36</p>","lon":135.14194,"lat":34.74778,"img":"megaphone.png"},{"id":"weathernews2574","name":"現場で仕事をしていたんですが、大型の船に乗っているような感じの揺れを感じました。 03-12 07:41:43","text":"現場で仕事をしていたんですが、大型の船に乗っているような感じの揺れを感じました。 03-12 07:41:43","label":"現場で仕事をしていたんですが、大型の船に乗っているような感じの揺れを感じました。...","desc":"<p class=\"tweettext\">現場で仕事をしていたんですが、大型の船に乗っているような感じの揺れを感じました。</p><p class=\"time\">03-12 07:41:43</p>","lon":135.58597,"lat":34.69354,"img":"megaphone.png"},{"id":"weathernews2584","name":"室内の物干し竿が落ちそうになるくらい揺れた。 03-12 07:42:20","text":"室内の物干し竿が落ちそうになるくらい揺れた。 03-12 07:42:20","label":"室内の物干し竿が落ちそうになるくらい揺れた。 03-12 07:42:20","desc":"<p class=\"tweettext\">室内の物干し竿が落ちそうになるくらい揺れた。</p><p class=\"time\">03-12 07:42:20</p>","lon":135.53389,"lat":34.5775,"img":"megaphone.png"},{"id":"weathernews2608","name":"３階建てビルの３階で、ゆったりとした揺れを感じました。中には気分が悪くなる人もいました。その他被害はありません。 03-12 07:43:30","text":"３階建てビルの３階で、ゆったりとした揺れを感じました。中には気分が悪くなる人もいました。その他被害はありません。 03-12 07:43:30","label":"３階建てビルの３階で、ゆったりとした揺れを感じました。中には気分が悪くなる人もい...","desc":"<p class=\"tweettext\">３階建てビルの３階で、ゆったりとした揺れを感じました。中には気分が悪くなる人もいました。その他被害はありません。</p><p class=\"time\">03-12 07:43:30</p>","lon":135.48875,"lat":34.78403,"img":"megaphone.png"},{"id":"weathernews2633","name":"2時46分当時 を視ていて、地震速報が流れたかと、思ったら瞬間、グラッと来て、揺れがだんだん大きくなりました。 これはちょっとヤバイと思い、寝ていた犬を抱きかか...","text":"2時46分当時 を視ていて、地震速報が流れたかと、思ったら瞬間、グラッと来て、揺れがだんだん大きくなりました。 これはちょっとヤバイと思い、寝ていた犬を抱きかかえ廊下の物が無い通路にでました。 我家は13Ｆマンションの５Ｆです。 阪神大震災の時は崩れ落ちるように感じました。しかし、今回はそこまでの揺れではありませんが、あの時以来の強い揺れでした。 阪神大震災を経験しているにもかかわらず、相変わらず、食器棚、本棚には何もしてません。(;_;) 只、強い揺れの時は何処が一番安全で、その場所に避難する事を考えていたので、今回そこに行きました。 一昨日は桜プロジェクトから頂いたバンダナの使い方 を、ルンルン気分で打っていたのに、まさか翌日にこんな を打っているとは夢にも思いませんでした。 一人でも多くの命が助かる事を願ってやみません。 自分に今、何かできることはない考えています。 03-12 07:44:29","label":"2時46分当時 を視ていて、地震速報が流れたかと、思ったら瞬間、グラッと来て、揺...","desc":"<p class=\"tweettext\">2時46分当時 を視ていて、地震速報が流れたかと、思ったら瞬間、グラッと来て、揺れがだんだん大きくなりました。 これはちょっとヤバイと思い、寝ていた犬を抱きかかえ廊下の物が無い通路にでました。 我家は13Ｆマンションの５Ｆです。 阪神大震災の時は崩れ落ちるように感じました。しかし、今回はそこまでの揺れではありませんが、あの時以来の強い揺れでした。 阪神大震災を経験しているにもかかわらず、相変わらず、食器棚、本棚には何もしてません。(;_;) 只、強い揺れの時は何処が一番安全で、その場所に避難する事を考えていたので、今回そこに行きました。 一昨日は桜プロジェクトから頂いたバンダナの使い方 を、ルンルン気分で打っていたのに、まさか翌日にこんな を打っているとは夢にも思いませんでした。 一人でも多くの命が助かる事を願ってやみません。 自分に今、何かできることはない考えています。</p><p class=\"time\">03-12 07:44:29</p>","lon":135.60834,"lat":34.60778,"img":"megaphone.png"},{"id":"weathernews2634","name":"電話不通 03-12 07:44:29","text":"電話不通 03-12 07:44:29","label":"電話不通 03-12 07:44:29","desc":"<p class=\"tweettext\">電話不通</p><p class=\"time\">03-12 07:44:29</p>","lon":135.4825,"lat":34.48667,"img":"megaphone.png"},{"id":"weathernews2650","name":"昨日の４時たまたまテレビをつけたら、恐ろしい津波が。逃げまどう車をいとも簡単に飲み込んで行く黒い濁流。あの中には沢山の命が有ったのだと思うと涙の前に吐き気がして...","text":"昨日の４時たまたまテレビをつけたら、恐ろしい津波が。逃げまどう車をいとも簡単に飲み込んで行く黒い濁流。あの中には沢山の命が有ったのだと思うと涙の前に吐き気がしてきました。半日過ぎて今何故か勝手に涙が出ます。怖かったです。 03-12 07:45:18","label":"昨日の４時たまたまテレビをつけたら、恐ろしい津波が。逃げまどう車をいとも簡単に飲...","desc":"<p class=\"tweettext\">昨日の４時たまたまテレビをつけたら、恐ろしい津波が。逃げまどう車をいとも簡単に飲み込んで行く黒い濁流。あの中には沢山の命が有ったのだと思うと涙の前に吐き気がしてきました。半日過ぎて今何故か勝手に涙が出ます。怖かったです。</p><p class=\"time\">03-12 07:45:18</p>","lon":135.48601,"lat":34.67621,"img":"megaphone.png"},{"id":"weathernews2675","name":"新大阪駅より北西の位置にある会社(ビルの６階)ではかなり長い間ゆっくりとした揺れを感じました。 念のためビルの外に出ましたが、向かいにある大きなビルからも沢山の...","text":"新大阪駅より北西の位置にある会社(ビルの６階)ではかなり長い間ゆっくりとした揺れを感じました。 念のためビルの外に出ましたが、向かいにある大きなビルからも沢山の人が出てきてました。 今の会社に長年勤めてますが、あんなに長い揺れは初めてです！ 03-12 07:46:31","label":"新大阪駅より北西の位置にある会社(ビルの６階)ではかなり長い間ゆっくりとした揺れ...","desc":"<p class=\"tweettext\">新大阪駅より北西の位置にある会社(ビルの６階)ではかなり長い間ゆっくりとした揺れを感じました。    念のためビルの外に出ましたが、向かいにある大きなビルからも沢山の人が出てきてました。            今の会社に長年勤めてますが、あんなに長い揺れは初めてです！</p><p class=\"time\">03-12 07:46:31</p>","lon":135.48415,"lat":34.71903,"img":"megaphone.png"},{"id":"weathernews2709","name":"大きな横揺れで建物は軋みました。エスカレーターは封鎖されはっきりいって逃げ場無しの状態…今回就活で大阪に来たのですが、東京に行っていたらと思うとぞっとします。。...","text":"大きな横揺れで建物は軋みました。エスカレーターは封鎖されはっきりいって逃げ場無しの状態…今回就活で大阪に来たのですが、東京に行っていたらと思うとぞっとします。。 03-12 07:47:59","label":"大きな横揺れで建物は軋みました。エスカレーターは封鎖されはっきりいって逃げ場無し...","desc":"<p class=\"tweettext\">大きな横揺れで建物は軋みました。エスカレーターは封鎖されはっきりいって逃げ場無しの状態…今回就活で大阪に来たのですが、東京に行っていたらと思うとぞっとします。。</p><p class=\"time\">03-12 07:47:59</p>","lon":135.50217,"lat":34.69395,"img":"megaphone.png"},{"id":"weathernews2952","name":"こちらのほうは、全然被害はありません。昨日少しだけ、震度３の地震があっただけです。 03-12 07:58:39","text":"こちらのほうは、全然被害はありません。昨日少しだけ、震度３の地震があっただけです。 03-12 07:58:39","label":"こちらのほうは、全然被害はありません。昨日少しだけ、震度３の地震があっただけです...","desc":"<p class=\"tweettext\">こちらのほうは、全然被害はありません。昨日少しだけ、震度３の地震があっただけです。</p><p class=\"time\">03-12 07:58:39</p>","lon":135.47859,"lat":34.60333,"img":"megaphone.png"},{"id":"weathernews2988","name":"昨日の１５時前後震度３で２０分ほど断続的に揺れてたいましたね。ソフトバンクの人にメールを送るのがしばらく困難でした。 03-12 07:59:47","text":"昨日の１５時前後震度３で２０分ほど断続的に揺れてたいましたね。ソフトバンクの人にメールを送るのがしばらく困難でした。 03-12 07:59:47","label":"昨日の１５時前後震度３で２０分ほど断続的に揺れてたいましたね。ソフトバンクの人に...","desc":"<p class=\"tweettext\">昨日の１５時前後震度３で２０分ほど断続的に揺れてたいましたね。ソフトバンクの人にメールを送るのがしばらく困難でした。</p><p class=\"time\">03-12 07:59:47</p>","lon":135.64523,"lat":34.79522,"img":"megaphone.png"},{"id":"weathernews3036","name":"会社の3階にいましたが、ゆっくり揺れてはじめは多くの人がめまいかな？と思ったようです。長い間、1分くらいは揺れていたようです。9日は出張で東京品川にいましたが、...","text":"会社の3階にいましたが、ゆっくり揺れてはじめは多くの人がめまいかな？と思ったようです。長い間、1分くらいは揺れていたようです。9日は出張で東京品川にいましたが、昼に同じような揺れがありました。 03-12 08:01:08","label":"会社の3階にいましたが、ゆっくり揺れてはじめは多くの人がめまいかな？と思ったよう...","desc":"<p class=\"tweettext\">会社の3階にいましたが、ゆっくり揺れてはじめは多くの人がめまいかな？と思ったようです。長い間、1分くらいは揺れていたようです。9日は出張で東京品川にいましたが、昼に同じような揺れがありました。</p><p class=\"time\">03-12 08:01:08</p>","lon":135.51988,"lat":34.65722,"img":"megaphone.png"},{"id":"weathernews3049","name":"昨日、昼すぎ、大阪も揺れました。大きな揺れでは無いものの、阪神大震災を思い出しました。夜になってから、SoftBankだけﾒｪﾙが出来ない時間が少しありました。...","text":"昨日、昼すぎ、大阪も揺れました。大きな揺れでは無いものの、阪神大震災を思い出しました。夜になってから、SoftBankだけﾒｪﾙが出来ない時間が少しありました。(23時頃) 03-12 08:01:43","label":"昨日、昼すぎ、大阪も揺れました。大きな揺れでは無いものの、阪神大震災を思い出しま...","desc":"<p class=\"tweettext\">昨日、昼すぎ、大阪も揺れました。大きな揺れでは無いものの、阪神大震災を思い出しました。夜になってから、SoftBankだけﾒｪﾙが出来ない時間が少しありました。(23時頃)</p><p class=\"time\">03-12 08:01:43</p>","lon":135.5175,"lat":34.665,"img":"megaphone.png"},{"id":"weathernews3068","name":"昨日の地震発生時、ゆらゆらと船酔いな感じで体感。 03-12 08:02:22","text":"昨日の地震発生時、ゆらゆらと船酔いな感じで体感。 03-12 08:02:22","label":"昨日の地震発生時、ゆらゆらと船酔いな感じで体感。 03-12 08:02:22","desc":"<p class=\"tweettext\">昨日の地震発生時、ゆらゆらと船酔いな感じで体感。</p><p class=\"time\">03-12 08:02:22</p>","lon":135.47314,"lat":34.79286,"img":"megaphone.png"},{"id":"weathernews3069","name":"始めはゆさゆさ揺れてました。徐々に、まあるく揺れてきました。その揺れは１〜２分揺れ続きました。 03-12 08:02:24","text":"始めはゆさゆさ揺れてました。徐々に、まあるく揺れてきました。その揺れは１〜２分揺れ続きました。 03-12 08:02:24","label":"始めはゆさゆさ揺れてました。徐々に、まあるく揺れてきました。その揺れは１〜２分揺...","desc":"<p class=\"tweettext\">始めはゆさゆさ揺れてました。徐々に、まあるく揺れてきました。その揺れは１〜２分揺れ続きました。</p><p class=\"time\">03-12 08:02:24</p>","lon":135.46532,"lat":34.80388,"img":"megaphone.png"},{"id":"weathernews3100","name":"震度 並の地震がありましたが僕等に被害はありませんでした。 03-12 08:03:31","text":"震度 並の地震がありましたが僕等に被害はありませんでした。 03-12 08:03:31","label":"震度 並の地震がありましたが僕等に被害はありませんでした。 03-12 08:0...","desc":"<p class=\"tweettext\">震度 並の地震がありましたが僕等に被害はありませんでした。</p><p class=\"time\">03-12 08:03:31</p>","lon":135.61555,"lat":34.76222,"img":"megaphone.png"},{"id":"weathernews3112","name":"揺れは何か揺れてるな位にしか感じませんでしたでもテレビをつけてみたらびっくり早く事が静まってほしいものですまたこの度亡くなられた方へのご冥福を祈ります 03-1...","text":"揺れは何か揺れてるな位にしか感じませんでしたでもテレビをつけてみたらびっくり早く事が静まってほしいものですまたこの度亡くなられた方へのご冥福を祈ります 03-12 08:03:46","label":"揺れは何か揺れてるな位にしか感じませんでしたでもテレビをつけてみたらびっくり早く...","desc":"<p class=\"tweettext\">揺れは何か揺れてるな位にしか感じませんでしたでもテレビをつけてみたらびっくり早く事が静まってほしいものですまたこの度亡くなられた方へのご冥福を祈ります</p><p class=\"time\">03-12 08:03:46</p>","lon":135.55499,"lat":34.83917,"img":"megaphone.png"},{"id":"weathernews3139","name":"東京の身内が心配で、ドコモの災害掲示板を使おうとしたが、17時時点で都内はｉモードに繋がらない、とネットに書き込みがあり、あてにならないと思いました。結局18時...","text":"東京の身内が心配で、ドコモの災害掲示板を使おうとしたが、17時時点で都内はｉモードに繋がらない、とネットに書き込みがあり、あてにならないと思いました。結局18時前にメールで連絡が取れました。 03-12 08:04:37","label":"東京の身内が心配で、ドコモの災害掲示板を使おうとしたが、17時時点で都内はｉモー...","desc":"<p class=\"tweettext\">東京の身内が心配で、ドコモの災害掲示板を使おうとしたが、17時時点で都内はｉモードに繋がらない、とネットに書き込みがあり、あてにならないと思いました。結局18時前にメールで連絡が取れました。</p><p class=\"time\">03-12 08:04:37</p>","lon":135.61472,"lat":34.85138,"img":"megaphone.png"},{"id":"weathernews3165","name":"昨日の地震！ 毎日、仕事で尼崎に行っていますが、揺れを感じました。横揺れでした。 03-12 08:05:34","text":"昨日の地震！ 毎日、仕事で尼崎に行っていますが、揺れを感じました。横揺れでした。 03-12 08:05:34","label":"昨日の地震！ 毎日、仕事で尼崎に行っていますが、揺れを感じました。横揺れでした。...","desc":"<p class=\"tweettext\"> 昨日の地震！ 毎日、仕事で尼崎に行っていますが、揺れを感じました。横揺れでした。</p><p class=\"time\">03-12 08:05:34</p>","lon":135.36528,"lat":34.70222,"img":"megaphone.png"},{"id":"weathernews3188","name":"12階にいました｡かなり長い時間弱い横揺れがありました。ﾊﾝｶﾞｰに吊るされていたパジャマ等が揺れていました｡エレベーターが緊急停止｡最初､『めまい』と勘違いさ...","text":"12階にいました｡かなり長い時間弱い横揺れがありました。ﾊﾝｶﾞｰに吊るされていたパジャマ等が揺れていました｡エレベーターが緊急停止｡最初､『めまい』と勘違いされた人が多かったようです｡来店客も従業員も全員床にしゃがみこみ､揺れが収まるまで待機しました。 03-12 08:06:29","label":"12階にいました｡かなり長い時間弱い横揺れがありました。ﾊﾝｶﾞｰに吊るされてい...","desc":"<p class=\"tweettext\">12階にいました｡かなり長い時間弱い横揺れがありました。ﾊﾝｶﾞｰに吊るされていたパジャマ等が揺れていました｡エレベーターが緊急停止｡最初､『めまい』と勘違いされた人が多かったようです｡来店客も従業員も全員床にしゃがみこみ､揺れが収まるまで待機しました。</p><p class=\"time\">03-12 08:06:29</p>","lon":135.50217,"lat":34.69395,"img":"megaphone.png"},{"id":"weathernews3212","name":"当時 写真のようにケストレルの紐が揺れてたのを見て実際の揺れを感じ始めました。私は特に被害もなく余震も感じません。現在家族、親類、安全確認が取れています。阪神淡...","text":"当時 写真のようにケストレルの紐が揺れてたのを見て実際の揺れを感じ始めました。私は特に被害もなく余震も感じません。現在家族、親類、安全確認が取れています。阪神淡路大震災と比べると情報量は違いますが…当時も余震の回数はかなりありました。一番違うのは余震の震源地の範囲が広すぎます。活断層型とプレート型の違いでしょうか…不安な夜をすごされた方が多いと思いますが、決して諦めないよう、ご近所さんや周りの方と協力しあって頑張りましょう。 03-12 08:07:33","label":"当時 写真のようにケストレルの紐が揺れてたのを見て実際の揺れを感じ始めました。私...","desc":"<p class=\"tweettext\">当時 写真のようにケストレルの紐が揺れてたのを見て実際の揺れを感じ始めました。私は特に被害もなく余震も感じません。現在家族、親類、安全確認が取れています。阪神淡路大震災と比べると情報量は違いますが…当時も余震の回数はかなりありました。一番違うのは余震の震源地の範囲が広すぎます。活断層型とプレート型の違いでしょうか…不安な夜をすごされた方が多いと思いますが、決して諦めないよう、ご近所さんや周りの方と協力しあって頑張りましょう。</p><p class=\"time\">03-12 08:07:33</p>","lon":135.53979,"lat":34.75514,"img":"megaphone.png"},{"id":"weathernews3305","name":"マンションの14階に住んでいます。照明器具や洗濯物が揺れ…震災を思い出す位怖かったですまさか此処まで揺れが来るとは驚いています。 03-12 08:12:13","text":"マンションの14階に住んでいます。照明器具や洗濯物が揺れ…震災を思い出す位怖かったですまさか此処まで揺れが来るとは驚いています。 03-12 08:12:13","label":"マンションの14階に住んでいます。照明器具や洗濯物が揺れ…震災を思い出す位怖かっ...","desc":"<p class=\"tweettext\">マンションの14階に住んでいます。照明器具や洗濯物が揺れ…震災を思い出す位怖かったですまさか此処まで揺れが来るとは驚いています。</p><p class=\"time\">03-12 08:12:13</p>","lon":135.20557,"lat":34.88028,"img":"megaphone.png"},{"id":"weathernews3348","name":"自宅の被害なし。昨日は保育園も緊急お迎えの連絡もなく無事。会社が大阪市中央区谷町のビルの八階で古い建物なのでミシミシいって怖かったです。一時、ビルの外に避難しま...","text":"自宅の被害なし。昨日は保育園も緊急お迎えの連絡もなく無事。会社が大阪市中央区谷町のビルの八階で古い建物なのでミシミシいって怖かったです。一時、ビルの外に避難しました。 03-12 08:14:47","label":"自宅の被害なし。昨日は保育園も緊急お迎えの連絡もなく無事。会社が大阪市中央区谷町...","desc":"<p class=\"tweettext\">自宅の被害なし。昨日は保育園も緊急お迎えの連絡もなく無事。会社が大阪市中央区谷町のビルの八階で古い建物なのでミシミシいって怖かったです。一時、ビルの外に避難しました。</p><p class=\"time\">03-12 08:14:47</p>","lon":135.48111,"lat":34.77604,"img":"megaphone.png"},{"id":"weathernews3377","name":"今回の地震は自宅である市営団地のエレベーターのなかで体験しました。エレベーターが左右に大きく揺れましたが、途中で止まることなく1階まで下りることができましたが、...","text":"今回の地震は自宅である市営団地のエレベーターのなかで体験しました。エレベーターが左右に大きく揺れましたが、途中で止まることなく1階まで下りることができましたが、ものすごく怖かったです。揺れがおさまってから、階段で自宅のある階まで上がりました。自宅にいた母に地震を感じたのかを聞いてみると、天井の蛍光灯の傘が激しく揺れてすぐにテレビとラジオを付けて情報の確認をして宮城県が震度7である事を知ったと言っていました。 03-12 08:16:06","label":"今回の地震は自宅である市営団地のエレベーターのなかで体験しました。エレベーターが...","desc":"<p class=\"tweettext\">今回の地震は自宅である市営団地のエレベーターのなかで体験しました。エレベーターが左右に大きく揺れましたが、途中で止まることなく1階まで下りることができましたが、ものすごく怖かったです。揺れがおさまってから、階段で自宅のある階まで上がりました。自宅にいた母に地震を感じたのかを聞いてみると、天井の蛍光灯の傘が激しく揺れてすぐにテレビとラジオを付けて情報の確認をして宮城県が震度7である事を知ったと言っていました。</p><p class=\"time\">03-12 08:16:06</p>","lon":135.55888,"lat":34.73056,"img":"megaphone.png"},{"id":"weathernews3421","name":"昨日、津波を確認しました。私は尼崎市、武庫川の下流近くに住んでいます。３時くらいに横揺れを５分程、感じました。２階のベランダから川が見えるのですが、午後５時くら...","text":"昨日、津波を確認しました。私は尼崎市、武庫川の下流近くに住んでいます。３時くらいに横揺れを５分程、感じました。２階のベランダから川が見えるのですが、午後５時くらいから、川の水位が３〜４ ほど下がり、６時半にザザッと音を立てながら、逆流していきました。今も、小規模ですがたまに逆流があります。 03-12 08:18:48","label":"昨日、津波を確認しました。私は尼崎市、武庫川の下流近くに住んでいます。３時くらい...","desc":"<p class=\"tweettext\">昨日、津波を確認しました。私は尼崎市、武庫川の下流近くに住んでいます。３時くらいに横揺れを５分程、感じました。２階のベランダから川が見えるのですが、午後５時くらいから、川の水位が３〜４ ほど下がり、６時半にザザッと音を立てながら、逆流していきました。今も、小規模ですがたまに逆流があります。</p><p class=\"time\">03-12 08:18:48</p>","lon":135.37917,"lat":34.70972,"img":"megaphone.png"},{"id":"weathernews3473","name":"初めは私自身が目眩でも起こしているのかな…と思いましたが、様子が違う事に気付き慌ててストーブの火を消しました。地震当時、古いビルの５階にいましたが大阪でも２回揺...","text":"初めは私自身が目眩でも起こしているのかな…と思いましたが、様子が違う事に気付き慌ててストーブの火を消しました。地震当時、古いビルの５階にいましたが大阪でも２回揺れを感じました。大きく回るような感じの揺れ方…怖くて鳥肌が立ちました。 03-12 08:21:51","label":"初めは私自身が目眩でも起こしているのかな…と思いましたが、様子が違う事に気付き慌...","desc":"<p class=\"tweettext\">初めは私自身が目眩でも起こしているのかな…と思いましたが、様子が違う事に気付き慌ててストーブの火を消しました。地震当時、古いビルの５階にいましたが大阪でも２回揺れを感じました。大きく回るような感じの揺れ方…怖くて鳥肌が立ちました。</p><p class=\"time\">03-12 08:21:51</p>","lon":135.48601,"lat":34.67621,"img":"megaphone.png"},{"id":"weathernews3474","name":"発生当時、電車の中だったので地震に気がつきませんでした。地震発生から5分くらいたってから地震の事を知り、北関東の親戚に安否の確認をしましたが、なかなか電話がつな...","text":"発生当時、電車の中だったので地震に気がつきませんでした。地震発生から5分くらいたってから地震の事を知り、北関東の親戚に安否の確認をしましたが、なかなか電話がつながりません。12日になってから分かったことですが、親戚みんな「災害伝言板」の存在を知らなかったようです。171番や伝言板の周知を徹底する事が必要だと感じました。 03-12 08:21:52","label":"発生当時、電車の中だったので地震に気がつきませんでした。地震発生から5分くらいた...","desc":"<p class=\"tweettext\">発生当時、電車の中だったので地震に気がつきませんでした。地震発生から5分くらいたってから地震の事を知り、北関東の親戚に安否の確認をしましたが、なかなか電話がつながりません。12日になってから分かったことですが、親戚みんな「災害伝言板」の存在を知らなかったようです。171番や伝言板の周知を徹底する事が必要だと感じました。</p><p class=\"time\">03-12 08:21:52</p>","lon":135.53917,"lat":34.79306,"img":"megaphone.png"},{"id":"weathernews3543","name":"運送会社の１階倉庫で作業中に地震。即、ストーブを消しじっと様子見。大きな横揺れがしばらく続いた。その後はニュースで状況確認。被害はなかったが阪神大震災の体験から...","text":"運送会社の１階倉庫で作業中に地震。即、ストーブを消しじっと様子見。大きな横揺れがしばらく続いた。その後はニュースで状況確認。被害はなかったが阪神大震災の体験から皆が恐怖を感じ、女性からは悲鳴も起きた。寝屋川市の自宅でも物が落ちるなどの被害はなし。 03-12 08:25:55","label":"運送会社の１階倉庫で作業中に地震。即、ストーブを消しじっと様子見。大きな横揺れが...","desc":"<p class=\"tweettext\">運送会社の１階倉庫で作業中に地震。即、ストーブを消しじっと様子見。大きな横揺れがしばらく続いた。その後はニュースで状況確認。被害はなかったが阪神大震災の体験から皆が恐怖を感じ、女性からは悲鳴も起きた。寝屋川市の自宅でも物が落ちるなどの被害はなし。</p><p class=\"time\">03-12 08:25:55</p>","lon":135.60094,"lat":34.67941,"img":"megaphone.png"},{"id":"weathernews3587","name":"少し揺れた程度で被害はありません。東北地方の方々にお見舞い申し上げます。義援金で協力させて頂きます。 03-12 08:28:44","text":"少し揺れた程度で被害はありません。東北地方の方々にお見舞い申し上げます。義援金で協力させて頂きます。 03-12 08:28:44","label":"少し揺れた程度で被害はありません。東北地方の方々にお見舞い申し上げます。義援金で...","desc":"<p class=\"tweettext\">少し揺れた程度で被害はありません。東北地方の方々にお見舞い申し上げます。義援金で協力させて頂きます。</p><p class=\"time\">03-12 08:28:44</p>","lon":135.51219,"lat":34.81213,"img":"megaphone.png"},{"id":"weathernews3655","name":"慰めるよりはげましあって 03-12 08:33:41","text":"慰めるよりはげましあって 03-12 08:33:41","label":"慰めるよりはげましあって 03-12 08:33:41","desc":"<p class=\"tweettext\">慰めるよりはげましあって</p><p class=\"time\">03-12 08:33:41</p>","lon":135.60857,"lat":34.31641,"img":"megaphone.png"},{"id":"weathernews3672","name":"高層マンションの二階です。強い横揺れが二回、室内の落下物はありませんでしたが、しばらく玄関の扉をあけたまま外廊下に退避しました。 03-12 08:35:56","text":"高層マンションの二階です。強い横揺れが二回、室内の落下物はありませんでしたが、しばらく玄関の扉をあけたまま外廊下に退避しました。 03-12 08:35:56","label":"高層マンションの二階です。強い横揺れが二回、室内の落下物はありませんでしたが、し...","desc":"<p class=\"tweettext\">高層マンションの二階です。強い横揺れが二回、室内の落下物はありませんでしたが、しばらく玄関の扉をあけたまま外廊下に退避しました。</p><p class=\"time\">03-12 08:35:56</p>","lon":135.52969,"lat":34.71638,"img":"megaphone.png"},{"id":"weathernews3690","name":"いま埼玉の兄と地震の状況を連絡とりました、いま余震がありました、電気は使えてます、ガスは止まってます、 水は使えます、電話はソフトバンクモバイルが繋がりやすいで...","text":"いま埼玉の兄と地震の状況を連絡とりました、いま余震がありました、電気は使えてます、ガスは止まってます、 水は使えます、電話はソフトバンクモバイルが繋がりやすいです、電車も運行再開してます。 03-12 08:37:18","label":"いま埼玉の兄と地震の状況を連絡とりました、いま余震がありました、電気は使えてます...","desc":"<p class=\"tweettext\">いま埼玉の兄と地震の状況を連絡とりました、いま余震がありました、電気は使えてます、ガスは止まってます、 水は使えます、電話はソフトバンクモバイルが繋がりやすいです、電車も運行再開してます。</p><p class=\"time\">03-12 08:37:18</p>","lon":135.05779,"lat":34.62806,"img":"megaphone.png"},{"id":"weathernews3715","name":"オフィスビル内の壁と天井が剥がれましたミシッと言う音と共に横揺れが２分〜３分続きました 03-12 08:38:44","text":"オフィスビル内の壁と天井が剥がれましたミシッと言う音と共に横揺れが２分〜３分続きました 03-12 08:38:44","label":"オフィスビル内の壁と天井が剥がれましたミシッと言う音と共に横揺れが２分〜３分続き...","desc":"<p class=\"tweettext\">オフィスビル内の壁と天井が剥がれましたミシッと言う音と共に横揺れが２分〜３分続きました</p><p class=\"time\">03-12 08:38:44</p>","lon":135.50217,"lat":34.69395,"img":"megaphone.png"},{"id":"weathernews3752","name":"昨日の昼3時頃地震がきてまた昼4時頃に余震がきて 怖かったです。 03-12 08:41:19","text":"昨日の昼3時頃地震がきてまた昼4時頃に余震がきて 怖かったです。 03-12 08:41:19","label":"昨日の昼3時頃地震がきてまた昼4時頃に余震がきて 怖かったです。 03-12 0...","desc":"<p class=\"tweettext\">昨日の昼3時頃地震がきてまた昼4時頃に余震がきて 怖かったです。</p><p class=\"time\">03-12 08:41:19</p>","lon":135.59444,"lat":34.71167,"img":"megaphone.png"},{"id":"weathernews3759","name":"地震直後は電灯の揺れが激しかった。長野県等でも地震があったのでいつ起こるかわからないので不安感です。天気の状況と関係があると思うので注意したいです。 03-12...","text":"地震直後は電灯の揺れが激しかった。長野県等でも地震があったのでいつ起こるかわからないので不安感です。天気の状況と関係があると思うので注意したいです。 03-12 08:41:46","label":"地震直後は電灯の揺れが激しかった。長野県等でも地震があったのでいつ起こるかわから...","desc":"<p class=\"tweettext\">地震直後は電灯の揺れが激しかった。長野県等でも地震があったのでいつ起こるかわからないので不安感です。天気の状況と関係があると思うので注意したいです。</p><p class=\"time\">03-12 08:41:46</p>","lon":135.51642,"lat":34.55024,"img":"megaphone.png"},{"id":"weathernews3808","name":"30人ほどが一室に集まっていてめまいのように感じた人もいましたがかなり長く揺れていたのでじきに皆建物が揺れているとわかりました大阪城の木も揺れていました避難する...","text":"30人ほどが一室に集まっていてめまいのように感じた人もいましたがかなり長く揺れていたのでじきに皆建物が揺れているとわかりました大阪城の木も揺れていました避難するほどの揺れは感じませんでしたのでその場に皆が揺れる前と同じように留まりました前の経験から振度は３ぐらいかと思いました。携帯でニュース速報を捉えた方が岩手が震源地で振度は７と告げ皆が動揺しました。 03-12 08:45:23","label":"30人ほどが一室に集まっていてめまいのように感じた人もいましたがかなり長く揺れて...","desc":"<p class=\"tweettext\">30人ほどが一室に集まっていてめまいのように感じた人もいましたがかなり長く揺れていたのでじきに皆建物が揺れているとわかりました大阪城の木も揺れていました避難するほどの揺れは感じませんでしたのでその場に皆が揺れる前と同じように留まりました前の経験から振度は３ぐらいかと思いました。携帯でニュース速報を捉えた方が岩手が震源地で振度は７と告げ皆が動揺しました。</p><p class=\"time\">03-12 08:45:23</p>","lon":135.50967,"lat":34.68117,"img":"megaphone.png"},{"id":"weathernews3958","name":"長時間の揺れで死ぬのを覚悟してました。 これからは高い建物の外に出て広い公園に避難したいと考えます。 03-12 08:57:54","text":"長時間の揺れで死ぬのを覚悟してました。 これからは高い建物の外に出て広い公園に避難したいと考えます。 03-12 08:57:54","label":"長時間の揺れで死ぬのを覚悟してました。 これからは高い建物の外に出て広い公園に避...","desc":"<p class=\"tweettext\">長時間の揺れで死ぬのを覚悟してました。 これからは高い建物の外に出て広い公園に避難したいと考えます。</p><p class=\"time\">03-12 08:57:54</p>","lon":135.45306,"lat":34.70306,"img":"megaphone.png"},{"id":"weathernews3961","name":"11日午後２時５０分頃マンション７階建て震度３の横揺れが数分続きました、あの阪神淡路震災を思い出しましたね。 03-12 08:58:17","text":"11日午後２時５０分頃マンション７階建て震度３の横揺れが数分続きました、あの阪神淡路震災を思い出しましたね。 03-12 08:58:17","label":"11日午後２時５０分頃マンション７階建て震度３の横揺れが数分続きました、あの阪神...","desc":"<p class=\"tweettext\">11日午後２時５０分頃マンション７階建て震度３の横揺れが数分続きました、あの阪神淡路震災を思い出しましたね。</p><p class=\"time\">03-12 08:58:17</p>","lon":135.5444,"lat":34.70942,"img":"megaphone.png"},{"id":"weathernews3972","name":"阪神淡路大震災を経験したものとして言わさせください。震災の時、ヘリの爆音でテレビ、ラジオの声が聞こえなくなるのはご存知ですか？ 助けの声も掻き消されます。低空で...","text":"阪神淡路大震災を経験したものとして言わさせください。震災の時、ヘリの爆音でテレビ、ラジオの声が聞こえなくなるのはご存知ですか？ 助けの声も掻き消されます。低空で撮ったり、ホバーリングしないようお願いします。 03-12 08:59:14","label":"阪神淡路大震災を経験したものとして言わさせください。震災の時、ヘリの爆音でテレビ...","desc":"<p class=\"tweettext\">阪神淡路大震災を経験したものとして言わさせください。震災の時、ヘリの爆音でテレビ、ラジオの声が聞こえなくなるのはご存知ですか？ 助けの声も掻き消されます。低空で撮ったり、ホバーリングしないようお願いします。</p><p class=\"time\">03-12 08:59:14</p>","lon":135.16544,"lat":34.68061,"img":"megaphone.png"},{"id":"weathernews3984","name":"はじめは地震だと思わず自身のめまいだと思うような揺れだった。揺れている時間が長く、なかなかおさまらなかったので会社の事務所に居る全員で一旦外へ非難。揺れがおさま...","text":"はじめは地震だと思わず自身のめまいだと思うような揺れだった。揺れている時間が長く、なかなかおさまらなかったので会社の事務所に居る全員で一旦外へ非難。揺れがおさまってから屋内に戻ったが、東京、名古屋の事業所の固定電話とＦＡＸが不通。東京、名古屋の所属社員全ての携帯電話も不通。メールは時差があったようだがやりとりが出来た。 03-12 09:00:34","label":"はじめは地震だと思わず自身のめまいだと思うような揺れだった。揺れている時間が長く...","desc":"<p class=\"tweettext\">はじめは地震だと思わず自身のめまいだと思うような揺れだった。揺れている時間が長く、なかなかおさまらなかったので会社の事務所に居る全員で一旦外へ非難。揺れがおさまってから屋内に戻ったが、東京、名古屋の事業所の固定電話とＦＡＸが不通。東京、名古屋の所属社員全ての携帯電話も不通。メールは時差があったようだがやりとりが出来た。</p><p class=\"time\">03-12 09:00:34</p>","lon":135.57423,"lat":34.70441,"img":"megaphone.png"},{"id":"weathernews4082","name":"とにかくひどいと思いました。宮城県周辺を中心に沢山の被害が出ており、死者200人以上、不明者660人以上となっている。宮城県は一夜明けると、町が瓦礫の山となって...","text":"とにかくひどいと思いました。宮城県周辺を中心に沢山の被害が出ており、死者200人以上、不明者660人以上となっている。宮城県は一夜明けると、町が瓦礫の山となっており、一変した雰囲気となっている。地元の現地の人は生き抜く為、積極的に食糧を住民にわけあったりとお互いに協力している。管首相もヘリで現地の様子を直接伺い適切な対応をするという。 03-12 09:10:30","label":"とにかくひどいと思いました。宮城県周辺を中心に沢山の被害が出ており、死者200人...","desc":"<p class=\"tweettext\">とにかくひどいと思いました。宮城県周辺を中心に沢山の被害が出ており、死者200人以上、不明者660人以上となっている。宮城県は一夜明けると、町が瓦礫の山となっており、一変した雰囲気となっている。地元の現地の人は生き抜く為、積極的に食糧を住民にわけあったりとお互いに協力している。管首相もヘリで現地の様子を直接伺い適切な対応をするという。</p><p class=\"time\">03-12 09:10:30</p>","lon":135.66553,"lat":34.81394,"img":"megaphone.png"},{"id":"weathernews4103","name":"みなさん大変だとおもいますが寒いですから体をきをつけて頑張ってください 03-12 09:12:29","text":"みなさん大変だとおもいますが寒いですから体をきをつけて頑張ってください 03-12 09:12:29","label":"みなさん大変だとおもいますが寒いですから体をきをつけて頑張ってください 03-1...","desc":"<p class=\"tweettext\">みなさん大変だとおもいますが寒いですから体をきをつけて頑張ってください</p><p class=\"time\">03-12 09:12:29</p>","lon":135.01193,"lat":34.66167,"img":"megaphone.png"},{"id":"weathernews4119","name":"震災にあわれた全ての方に、頑張ってください希望なくさないで私はこの世に神様はおられると信じていますずっとずっと祈ってます祈ることしか私にはできません、はがゆいで...","text":"震災にあわれた全ての方に、頑張ってください希望なくさないで私はこの世に神様はおられると信じていますずっとずっと祈ってます祈ることしか私にはできません、はがゆいですでも、どうかどうか頑張って生きてください必ず光はさします体大丈夫ですか、寒い中身も心も傷ついて自分が生まれ育った街が村が変わり果てた姿をどんな思いでみてられるのかなと想ったら胸が張り裂けそうで泣けてきますでも、頑張って頑張って心よりお祈りしています 03-12 09:14:41","label":"震災にあわれた全ての方に、頑張ってください希望なくさないで私はこの世に神様はおら...","desc":"<p class=\"tweettext\">震災にあわれた全ての方に、頑張ってください希望なくさないで私はこの世に神様はおられると信じていますずっとずっと祈ってます祈ることしか私にはできません、はがゆいですでも、どうかどうか頑張って生きてください必ず光はさします体大丈夫ですか、寒い中身も心も傷ついて自分が生まれ育った街が村が変わり果てた姿をどんな思いでみてられるのかなと想ったら胸が張り裂けそうで泣けてきますでも、頑張って頑張って心よりお祈りしています</p><p class=\"time\">03-12 09:14:41</p>","lon":135.51492,"lat":34.61987,"img":"megaphone.png"},{"id":"weathernews4122","name":"中学校の体育館で音楽発表会中に地震があったのですが、発表しているｸﾗｽは立っていたので揺れが強くなった時はふらついて、立っているのもやっとだったと思います。私は...","text":"中学校の体育館で音楽発表会中に地震があったのですが、発表しているｸﾗｽは立っていたので揺れが強くなった時はふらついて、立っているのもやっとだったと思います。私は椅子に座っていたのですが、座っていても結構揺れを感じました。去年耐震工事をしたばかりの体育館でしたが、揺れは結構ありました。まだまだ他の地域では地震が続いているので、恐いです。 03-12 09:15:04","label":"中学校の体育館で音楽発表会中に地震があったのですが、発表しているｸﾗｽは立ってい...","desc":"<p class=\"tweettext\">中学校の体育館で音楽発表会中に地震があったのですが、発表しているｸﾗｽは立っていたので揺れが強くなった時はふらついて、立っているのもやっとだったと思います。私は椅子に座っていたのですが、座っていても結構揺れを感じました。去年耐震工事をしたばかりの体育館でしたが、揺れは結構ありました。まだまだ他の地域では地震が続いているので、恐いです。</p><p class=\"time\">03-12 09:15:04</p>","lon":135.564,"lat":34.73757,"img":"megaphone.png"},{"id":"weathernews4127","name":"ここは、少しゆれただけです！大丈夫です!! 03-12 09:15:27","text":"ここは、少しゆれただけです！大丈夫です!! 03-12 09:15:27","label":"ここは、少しゆれただけです！大丈夫です!! 03-12 09:15:27","desc":"<p class=\"tweettext\">ここは、少しゆれただけです！大丈夫です!!</p><p class=\"time\">03-12 09:15:27</p>","lon":135.46478,"lat":34.57965,"img":"megaphone.png"},{"id":"weathernews4134","name":"皆さん津波大丈夫ですか？ 私たちは、ぜんせん大丈夫でした めっちゃ、怖い 03-12 09:16:19","text":"皆さん津波大丈夫ですか？ 私たちは、ぜんせん大丈夫でした めっちゃ、怖い 03-12 09:16:19","label":"皆さん津波大丈夫ですか？ 私たちは、ぜんせん大丈夫でした めっちゃ、怖い 03-...","desc":"<p class=\"tweettext\">皆さん津波大丈夫ですか？  私たちは、ぜんせん大丈夫でした めっちゃ、怖い          </p><p class=\"time\">03-12 09:16:19</p>","lon":135.01111,"lat":34.79278,"img":"megaphone.png"},{"id":"weathernews4146","name":"ここは、少しゆれただけです！大丈夫です!! 03-12 09:17:25","text":"ここは、少しゆれただけです！大丈夫です!! 03-12 09:17:25","label":"ここは、少しゆれただけです！大丈夫です!! 03-12 09:17:25","desc":"<p class=\"tweettext\">ここは、少しゆれただけです！大丈夫です!!</p><p class=\"time\">03-12 09:17:25</p>","lon":135.46478,"lat":34.57965,"img":"megaphone.png"},{"id":"weathernews4156","name":"職場ビルの4階で 体感しました。最初は 貧血かなと思いましたが ゆっくりと 長い間揺れていて 怖かったです。帰宅後 東北 関東で 大変なことになっているのを 知...","text":"職場ビルの4階で 体感しました。最初は 貧血かなと思いましたが ゆっくりと 長い間揺れていて 怖かったです。帰宅後 東北 関東で 大変なことになっているのを 知り 驚きました。 03-12 09:18:14","label":"職場ビルの4階で 体感しました。最初は 貧血かなと思いましたが ゆっくりと 長い...","desc":"<p class=\"tweettext\">職場ビルの4階で 体感しました。最初は 貧血かなと思いましたが ゆっくりと 長い間揺れていて 怖かったです。帰宅後 東北 関東で 大変なことになっているのを 知り 驚きました。</p><p class=\"time\">03-12 09:18:14</p>","lon":135.44556,"lat":34.71083,"img":"megaphone.png"},{"id":"weathernews4183","name":"11日14時50分頃、2階のリビングで昼寝してる次男と居たのですが、すごい揺れました。ベランダ越しに外を見ると電線も揺れて、景色ごと動いてたので気分悪くなりまし...","text":"11日14時50分頃、2階のリビングで昼寝してる次男と居たのですが、すごい揺れました。ベランダ越しに外を見ると電線も揺れて、景色ごと動いてたので気分悪くなりました。阪神大震災を思い出しました 03-12 09:21:51","label":"11日14時50分頃、2階のリビングで昼寝してる次男と居たのですが、すごい揺れま...","desc":"<p class=\"tweettext\">11日14時50分頃、2階のリビングで昼寝してる次男と居たのですが、すごい揺れました。ベランダ越しに外を見ると電線も揺れて、景色ごと動いてたので気分悪くなりました。阪神大震災を思い出しました </p><p class=\"time\">03-12 09:21:51</p>","lon":135.54584,"lat":34.64639,"img":"megaphone.png"},{"id":"weathernews4196","name":"自分は揺れなどは感じてなかったんですが、家族みんなが船に乗っている見たいなゆらゆらした揺れを感じた見たいです。大阪市内でも、電話などの通信が悪くなりました。 0...","text":"自分は揺れなどは感じてなかったんですが、家族みんなが船に乗っている見たいなゆらゆらした揺れを感じた見たいです。大阪市内でも、電話などの通信が悪くなりました。 03-12 09:23:21","label":"自分は揺れなどは感じてなかったんですが、家族みんなが船に乗っている見たいなゆらゆ...","desc":"<p class=\"tweettext\">自分は揺れなどは感じてなかったんですが、家族みんなが船に乗っている見たいなゆらゆらした揺れを感じた見たいです。大阪市内でも、電話などの通信が悪くなりました。</p><p class=\"time\">03-12 09:23:21</p>","lon":135.5025,"lat":34.59639,"img":"megaphone.png"},{"id":"weathernews4217","name":"昨夜、8時ごろ、家の食器棚に吊るしている コーヒーカップ４個が揺れました。家はマンション１１階です。関西まで影響があるとは！寝室を落下物ないようあわてて片付けま...","text":"昨夜、8時ごろ、家の食器棚に吊るしている コーヒーカップ４個が揺れました。家はマンション１１階です。関西まで影響があるとは！寝室を落下物ないようあわてて片付けました。 03-12 09:25:38","label":"昨夜、8時ごろ、家の食器棚に吊るしている コーヒーカップ４個が揺れました。家はマ...","desc":"<p class=\"tweettext\">昨夜、8時ごろ、家の食器棚に吊るしている コーヒーカップ４個が揺れました。家はマンション１１階です。関西まで影響があるとは！寝室を落下物ないようあわてて片付けました。</p><p class=\"time\">03-12 09:25:38</p>","lon":135.29161,"lat":34.72102,"img":"megaphone.png"},{"id":"weathernews4239","name":"震度２ と小さかったため、気づかなかった 03-12 09:27:49","text":"震度２ と小さかったため、気づかなかった 03-12 09:27:49","label":"震度２ と小さかったため、気づかなかった 03-12 09:27:49","desc":"<p class=\"tweettext\">震度２ と小さかったため、気づかなかった</p><p class=\"time\">03-12 09:27:49</p>","lon":135.62872,"lat":34.57923,"img":"megaphone.png"},{"id":"weathernews4276","name":"私は大阪でしたので被害どころか揺れを感じたのは数えるほどでしたが、テレビやネットで被害などが明らかになる度に胸が痛みます。私に何か出来ることはないのでしょうか？...","text":"私は大阪でしたので被害どころか揺れを感じたのは数えるほどでしたが、テレビやネットで被害などが明らかになる度に胸が痛みます。私に何か出来ることはないのでしょうか？こういった大災害が起こる度に自分の無力さを嫌と言うほど感じさせられます。しかし日本が協力すれば必ず復興できます！頑張りましょう！！ 03-12 09:32:47","label":"私は大阪でしたので被害どころか揺れを感じたのは数えるほどでしたが、テレビやネット...","desc":"<p class=\"tweettext\">私は大阪でしたので被害どころか揺れを感じたのは数えるほどでしたが、テレビやネットで被害などが明らかになる度に胸が痛みます。私に何か出来ることはないのでしょうか？こういった大災害が起こる度に自分の無力さを嫌と言うほど感じさせられます。しかし日本が協力すれば必ず復興できます！頑張りましょう！！</p><p class=\"time\">03-12 09:32:47</p>","lon":135.63972,"lat":34.73998,"img":"megaphone.png"},{"id":"weathernews4363","name":"皇帝のフレアで町が大変です 03-12 09:42:33","text":"皇帝のフレアで町が大変です 03-12 09:42:33","label":"皇帝のフレアで町が大変です 03-12 09:42:33","desc":"<p class=\"tweettext\">皇帝のフレアで町が大変です </p><p class=\"time\">03-12 09:42:33</p>","lon":135.34444,"lat":34.81194,"img":"megaphone.png"},{"id":"weathernews4380","name":"ちょうど震災のあったとき友達とかバラバラの所に居たのですが、みんな「始め地震とは思わず自分自身がひどいめまいをしてると思って、回りをみたら違う地震やと思った」と...","text":"ちょうど震災のあったとき友達とかバラバラの所に居たのですが、みんな「始め地震とは思わず自分自身がひどいめまいをしてると思って、回りをみたら違う地震やと思った」と同じ事を言っていて、今までに感じた事のない地震だったように思います。さらに今朝空を半分に割るような雲が出てました。なんか怖いですね。 03-12 09:43:42","label":"ちょうど震災のあったとき友達とかバラバラの所に居たのですが、みんな「始め地震とは...","desc":"<p class=\"tweettext\">ちょうど震災のあったとき友達とかバラバラの所に居たのですが、みんな「始め地震とは思わず自分自身がひどいめまいをしてると思って、回りをみたら違う地震やと思った」と同じ事を言っていて、今までに感じた事のない地震だったように思います。さらに今朝空を半分に割るような雲が出てました。なんか怖いですね。</p><p class=\"time\">03-12 09:43:42</p>","lon":135.55444,"lat":34.56167,"img":"megaphone.png"},{"id":"weathernews4400","name":"ビル９階にいたのですごく揺れました。複数回の揺れで車酔いみたいになりました。 03-12 09:45:24","text":"ビル９階にいたのですごく揺れました。複数回の揺れで車酔いみたいになりました。 03-12 09:45:24","label":"ビル９階にいたのですごく揺れました。複数回の揺れで車酔いみたいになりました。 0...","desc":"<p class=\"tweettext\">ビル９階にいたのですごく揺れました。複数回の揺れで車酔いみたいになりました。</p><p class=\"time\">03-12 09:45:24</p>","lon":135.48083,"lat":34.62056,"img":"megaphone.png"},{"id":"weathernews4412","name":"奇声を止めて 03-12 09:46:50","text":"奇声を止めて 03-12 09:46:50","label":"奇声を止めて 03-12 09:46:50","desc":"<p class=\"tweettext\">奇声を止めて</p><p class=\"time\">03-12 09:46:50</p>","lon":135.34444,"lat":34.81194,"img":"megaphone.png"},{"id":"weathernews4420","name":"ゆらゆらと船に揺られているような感覚を覚えました。長い時間じゃなかったのですが、この揺れが続くのか不安を感じました。 03-12 09:47:30","text":"ゆらゆらと船に揺られているような感覚を覚えました。長い時間じゃなかったのですが、この揺れが続くのか不安を感じました。 03-12 09:47:30","label":"ゆらゆらと船に揺られているような感覚を覚えました。長い時間じゃなかったのですが、...","desc":"<p class=\"tweettext\">ゆらゆらと船に揺られているような感覚を覚えました。長い時間じゃなかったのですが、この揺れが続くのか不安を感じました。</p><p class=\"time\">03-12 09:47:30</p>","lon":135.48569,"lat":34.60285,"img":"megaphone.png"},{"id":"weathernews4558","name":"阪神大震災を経験した尼崎市です。地震かなと最初は感じましたが、かすかな横揺れで自分が目眩を起こしたのかなとも思いましたが横揺れが長く続いたので、やはり地震だとわ...","text":"阪神大震災を経験した尼崎市です。地震かなと最初は感じましたが、かすかな横揺れで自分が目眩を起こしたのかなとも思いましたが横揺れが長く続いたので、やはり地震だとわかり、すぐにテレビをつけ震源地が東北の宮城県であった事にビックリ！しました、こんなに遠く離れた兵庫県の尼崎市まで揺れるとは、そして後で尼崎市の震度が３だった事に２度ビックリ！しました。また東南海大地震を誘発するんじゃないかとも心配でなかなか昨夜は寝れませんでした。被災された方々を心から案じております。頑張って下さい。 03-12 10:03:15","label":"阪神大震災を経験した尼崎市です。地震かなと最初は感じましたが、かすかな横揺れで自...","desc":"<p class=\"tweettext\">阪神大震災を経験した尼崎市です。地震かなと最初は感じましたが、かすかな横揺れで自分が目眩を起こしたのかなとも思いましたが横揺れが長く続いたので、やはり地震だとわかり、すぐにテレビをつけ震源地が東北の宮城県であった事にビックリ！しました、こんなに遠く離れた兵庫県の尼崎市まで揺れるとは、そして後で尼崎市の震度が３だった事に２度ビックリ！しました。また東南海大地震を誘発するんじゃないかとも心配でなかなか昨夜は寝れませんでした。被災された方々を心から案じております。頑張って下さい。</p><p class=\"time\">03-12 10:03:15</p>","lon":135.41472,"lat":34.74326,"img":"megaphone.png"},{"id":"weathernews4574","name":"横揺れや縦揺れではなく 回るような揺れでした。 飼ってたアロワナが水槽中で、暴れだし、それから５分もたたない内に死にました。 03-12 10:05:47","text":"横揺れや縦揺れではなく 回るような揺れでした。 飼ってたアロワナが水槽中で、暴れだし、それから５分もたたない内に死にました。 03-12 10:05:47","label":"横揺れや縦揺れではなく 回るような揺れでした。 飼ってたアロワナが水槽中で、暴れ...","desc":"<p class=\"tweettext\">横揺れや縦揺れではなく 回るような揺れでした。 飼ってたアロワナが水槽中で、暴れだし、それから５分もたたない内に死にました。</p><p class=\"time\">03-12 10:05:47</p>","lon":135.63499,"lat":34.72722,"img":"megaphone.png"},{"id":"weathernews4626","name":"まずは被災された皆さんに心よりお見舞い申し上げます。当方は大阪なので大丈夫ですが、阪神大震災の経験から停電復旧時の通電火災と混乱に乗じての犯罪にご注意下さい。阪...","text":"まずは被災された皆さんに心よりお見舞い申し上げます。当方は大阪なので大丈夫ですが、阪神大震災の経験から停電復旧時の通電火災と混乱に乗じての犯罪にご注意下さい。阪神大震災では通電火災や半壊家屋などへの侵入窃盗、夜間の路上犯罪が発生しておりました。特に夜間の女性の外出には充分ご注意下さい あとデマには惑わされず公的情報に従って下さいね これ以上被害が出ないことをお祈り申し上げます 03-12 10:12:45","label":"まずは被災された皆さんに心よりお見舞い申し上げます。当方は大阪なので大丈夫ですが...","desc":"<p class=\"tweettext\">まずは被災された皆さんに心よりお見舞い申し上げます。当方は大阪なので大丈夫ですが、阪神大震災の経験から停電復旧時の通電火災と混乱に乗じての犯罪にご注意下さい。阪神大震災では通電火災や半壊家屋などへの侵入窃盗、夜間の路上犯罪が発生しておりました。特に夜間の女性の外出には充分ご注意下さい あとデマには惑わされず公的情報に従って下さいね これ以上被害が出ないことをお祈り申し上げます </p><p class=\"time\">03-12 10:12:45</p>","lon":135.57034,"lat":34.51201,"img":"megaphone.png"},{"id":"weathernews4639","name":"先ほど犬の散歩に出たら〃兵庫瀬戸内海そばで津波警報が出て船は走ってません。千葉県には電車うごいてます。ドコモも電話が繋がりはじめてます。 03-12 10:14...","text":"先ほど犬の散歩に出たら〃兵庫瀬戸内海そばで津波警報が出て船は走ってません。千葉県には電車うごいてます。ドコモも電話が繋がりはじめてます。 03-12 10:14:27","label":"先ほど犬の散歩に出たら〃兵庫瀬戸内海そばで津波警報が出て船は走ってません。千葉県...","desc":"<p class=\"tweettext\">先ほど犬の散歩に出たら〃兵庫瀬戸内海そばで津波警報が出て船は走ってません。千葉県には電車うごいてます。ドコモも電話が繋がりはじめてます。</p><p class=\"time\">03-12 10:14:27</p>","lon":135.05779,"lat":34.62806,"img":"megaphone.png"},{"id":"weathernews4649","name":"私は自宅にいたのですが、マンションの最上階の１２階にいたので、ものすごく揺れを感じました。まるで船に乗っているように酔いを感じました。 03-12 10:15:...","text":"私は自宅にいたのですが、マンションの最上階の１２階にいたので、ものすごく揺れを感じました。まるで船に乗っているように酔いを感じました。 03-12 10:15:21","label":"私は自宅にいたのですが、マンションの最上階の１２階にいたので、ものすごく揺れを感...","desc":"<p class=\"tweettext\">私は自宅にいたのですが、マンションの最上階の１２階にいたので、ものすごく揺れを感じました。まるで船に乗っているように酔いを感じました。</p><p class=\"time\">03-12 10:15:21</p>","lon":135.47,"lat":34.66278,"img":"megaphone.png"},{"id":"weathernews4671","name":"発生時は、２階に居て、フラフラ目眩かな？という感じでした。昨夜は、メールの受信も遅れていました。。一夜明け、通常に戻っています。 03-12 10:17:48","text":"発生時は、２階に居て、フラフラ目眩かな？という感じでした。昨夜は、メールの受信も遅れていました。。一夜明け、通常に戻っています。 03-12 10:17:48","label":"発生時は、２階に居て、フラフラ目眩かな？という感じでした。昨夜は、メールの受信も...","desc":"<p class=\"tweettext\">発生時は、２階に居て、フラフラ目眩かな？という感じでした。昨夜は、メールの受信も遅れていました。。一夜明け、通常に戻っています。</p><p class=\"time\">03-12 10:17:48</p>","lon":135.36945,"lat":34.45417,"img":"megaphone.png"},{"id":"weathernews4740","name":"救援物資を送られる方へ。一次的には飲料水、食料品、毛布、紙おむつ（含介護用）、簡易トイレ、カセットコンロ、衣類などが必要ですが、送られる場合は中身をなるべく混ぜ...","text":"救援物資を送られる方へ。一次的には飲料水、食料品、毛布、紙おむつ（含介護用）、簡易トイレ、カセットコンロ、衣類などが必要ですが、送られる場合は中身をなるべく混ぜず、何が入っているかをわかりやすくしてください。現地に入るボランティアはほとんどが初めてかつ被災者からの要求の多さに戸惑います。手数を減らす為にもご協力ください。また、被災後一週間を過ぎたら二次救援に移行しますので、物資ではなく募金の形で行政に必要ものを購入、割り振りしてもらった方が良いと思います。 03-12 10:25:49","label":"救援物資を送られる方へ。一次的には飲料水、食料品、毛布、紙おむつ（含介護用）、簡...","desc":"<p class=\"tweettext\">救援物資を送られる方へ。一次的には飲料水、食料品、毛布、紙おむつ（含介護用）、簡易トイレ、カセットコンロ、衣類などが必要ですが、送られる場合は中身をなるべく混ぜず、何が入っているかをわかりやすくしてください。現地に入るボランティアはほとんどが初めてかつ被災者からの要求の多さに戸惑います。手数を減らす為にもご協力ください。また、被災後一週間を過ぎたら二次救援に移行しますので、物資ではなく募金の形で行政に必要ものを購入、割り振りしてもらった方が良いと思います。</p><p class=\"time\">03-12 10:25:49</p>","lon":135.41736,"lat":34.75118,"img":"megaphone.png"},{"id":"weathernews4750","name":"8階建てビルの7階で勤務中でした。最初はたちくらみかと思っていましたが、窓のブラインドが左右に音を立てて揺れだし異常を察知。横揺れで回転しているような気持ち悪さ...","text":"8階建てビルの7階で勤務中でした。最初はたちくらみかと思っていましたが、窓のブラインドが左右に音を立てて揺れだし異常を察知。横揺れで回転しているような気持ち悪さでした。14：50頃に揺れを感じてから長い時間ビルが揺れていました。何度か小さい余震も大阪まで届いていたようです。被災地の皆様の御冥福、復旧を心からお祈り申し上げます。 03-12 10:27:33","label":"8階建てビルの7階で勤務中でした。最初はたちくらみかと思っていましたが、窓のブラ...","desc":"<p class=\"tweettext\">8階建てビルの7階で勤務中でした。最初はたちくらみかと思っていましたが、窓のブラインドが左右に音を立てて揺れだし異常を察知。横揺れで回転しているような気持ち悪さでした。14：50頃に揺れを感じてから長い時間ビルが揺れていました。何度か小さい余震も大阪まで届いていたようです。被災地の皆様の御冥福、復旧を心からお祈り申し上げます。</p><p class=\"time\">03-12 10:27:33</p>","lon":135.48415,"lat":34.71903,"img":"megaphone.png"},{"id":"weathernews4781","name":"発生当時はビルの８階にいました。初めは目眩？と思いましたが、観葉植物が動いていたから地震だとわかりました。三陸沖、中越、次はどこで起きるのだろうと、とても不安で...","text":"発生当時はビルの８階にいました。初めは目眩？と思いましたが、観葉植物が動いていたから地震だとわかりました。三陸沖、中越、次はどこで起きるのだろうと、とても不安です。これ以上、被害が拡大しない事をただ祈るのみです。 03-12 10:32:29","label":"発生当時はビルの８階にいました。初めは目眩？と思いましたが、観葉植物が動いていた...","desc":"<p class=\"tweettext\">発生当時はビルの８階にいました。初めは目眩？と思いましたが、観葉植物が動いていたから地震だとわかりました。三陸沖、中越、次はどこで起きるのだろうと、とても不安です。これ以上、被害が拡大しない事をただ祈るのみです。</p><p class=\"time\">03-12 10:32:29</p>","lon":135.69749,"lat":34.68833,"img":"megaphone.png"},{"id":"weathernews4825","name":"瞳大丈夫 03-12 10:36:40","text":"瞳大丈夫 03-12 10:36:40","label":"瞳大丈夫 03-12 10:36:40","desc":"<p class=\"tweettext\">瞳大丈夫</p><p class=\"time\">03-12 10:36:40</p>","lon":135.5294,"lat":34.74126,"img":"megaphone.png"},{"id":"weathernews4867","name":"一度目は少し長め、船上のように横揺れ。物が落ちるほどではありませんでした。二回目はわずかに感じるほどで、時間も短かったです。地面、道路、建物等に破損は見られませ...","text":"一度目は少し長め、船上のように横揺れ。物が落ちるほどではありませんでした。二回目はわずかに感じるほどで、時間も短かったです。地面、道路、建物等に破損は見られません、渋滞も起こってないようです。 03-12 10:43:27","label":"一度目は少し長め、船上のように横揺れ。物が落ちるほどではありませんでした。二回目...","desc":"<p class=\"tweettext\">一度目は少し長め、船上のように横揺れ。物が落ちるほどではありませんでした。二回目はわずかに感じるほどで、時間も短かったです。地面、道路、建物等に破損は見られません、渋滞も起こってないようです。</p><p class=\"time\">03-12 10:43:27</p>","lon":135.60094,"lat":34.67941,"img":"megaphone.png"},{"id":"weathernews4939","name":"今回の大地震で被災された方､心からお見舞い申し上げます｡大阪では少し揺れたぐらいで被害はありません｡ただ､南海地震も言われてますので､他人事ではないと痛感してま...","text":"今回の大地震で被災された方､心からお見舞い申し上げます｡大阪では少し揺れたぐらいで被害はありません｡ただ､南海地震も言われてますので､他人事ではないと痛感してます｡今日は､避難袋の中身をﾁｪｯｸしたいと思います｡ 03-12 10:53:53","label":"今回の大地震で被災された方､心からお見舞い申し上げます｡大阪では少し揺れたぐらい...","desc":"<p class=\"tweettext\">今回の大地震で被災された方､心からお見舞い申し上げます｡大阪では少し揺れたぐらいで被害はありません｡ただ､南海地震も言われてますので､他人事ではないと痛感してます｡今日は､避難袋の中身をﾁｪｯｸしたいと思います｡</p><p class=\"time\">03-12 10:53:53</p>","lon":135.42349,"lat":34.48369,"img":"megaphone.png"},{"id":"weathernews4946","name":"私の勤務しているＳＭＢＣ(三井住友)グループでは、当日まさに、地震のビデオを、災害対策研修で見ていました。職場には、ヘルメットと安全靴が、各人毎に用意されていま...","text":"私の勤務しているＳＭＢＣ(三井住友)グループでは、当日まさに、地震のビデオを、災害対策研修で見ていました。職場には、ヘルメットと安全靴が、各人毎に用意されています。東京本社では、揺れ始めた時には、各人がきちんと対応できたと報告がありました。知的・身体障害者が多数勤務している部署なので、日頃からの訓練の経験が役立ったと思います。普段からの準備が如何に大切かを実感しました。 03-12 10:54:49","label":"私の勤務しているＳＭＢＣ(三井住友)グループでは、当日まさに、地震のビデオを、災...","desc":"<p class=\"tweettext\">私の勤務しているＳＭＢＣ(三井住友)グループでは、当日まさに、地震のビデオを、災害対策研修で見ていました。職場には、ヘルメットと安全靴が、各人毎に用意されています。東京本社では、揺れ始めた時には、各人がきちんと対応できたと報告がありました。知的・身体障害者が多数勤務している部署なので、日頃からの訓練の経験が役立ったと思います。普段からの準備が如何に大切かを実感しました。</p><p class=\"time\">03-12 10:54:49</p>","lon":135.5025,"lat":34.64722,"img":"megaphone.png"},{"id":"weathernews4956","name":"一夜明けて、あまりの状況に、言葉もありません。亡くなられた方の御冥福をお祈りいたします。震源の範囲が、新潟や長野など、広がってきています。西日本の方も、油断しな...","text":"一夜明けて、あまりの状況に、言葉もありません。亡くなられた方の御冥福をお祈りいたします。震源の範囲が、新潟や長野など、広がってきています。西日本の方も、油断しないで、イザという時の準備を。 03-12 10:55:50","label":"一夜明けて、あまりの状況に、言葉もありません。亡くなられた方の御冥福をお祈りいた...","desc":"<p class=\"tweettext\">一夜明けて、あまりの状況に、言葉もありません。亡くなられた方の御冥福をお祈りいたします。震源の範囲が、新潟や長野など、広がってきています。西日本の方も、油断しないで、イザという時の準備を。</p><p class=\"time\">03-12 10:55:50</p>","lon":135.60313,"lat":34.82854,"img":"megaphone.png"},{"id":"weathernews4983","name":"ぐるぐる回る様な軽い揺れが一回。余震は体感なし。気分が悪くなる様な揺れ。その後、関東地方への電話、メールが不通となる。 03-12 10:59:52","text":"ぐるぐる回る様な軽い揺れが一回。余震は体感なし。気分が悪くなる様な揺れ。その後、関東地方への電話、メールが不通となる。 03-12 10:59:52","label":"ぐるぐる回る様な軽い揺れが一回。余震は体感なし。気分が悪くなる様な揺れ。その後、...","desc":"<p class=\"tweettext\">ぐるぐる回る様な軽い揺れが一回。余震は体感なし。気分が悪くなる様な揺れ。その後、関東地方への電話、メールが不通となる。</p><p class=\"time\">03-12 10:59:52</p>","lon":135.55779,"lat":34.6175,"img":"megaphone.png"},{"id":"weathernews5019","name":"長く弱い横揺れを感じた。目眩かと思ったが天井から吊るしてある電気が揺れていた。テレビをつけて地震とわかり、東北の被害を見て阪神大震災の記憶がよみがえり、怖くなっ...","text":"長く弱い横揺れを感じた。目眩かと思ったが天井から吊るしてある電気が揺れていた。テレビをつけて地震とわかり、東北の被害を見て阪神大震災の記憶がよみがえり、怖くなった。しばらくは何があるかわからないので、避難グッズ(ラジオ、懐中電灯、水、食料、子供のおむつやミルク等)を用意し、避難場所や避難経路などを家族と話し合っておいた。津波注意報が出ているので海岸などには近寄らないようにしたい。 03-12 11:05:50","label":"長く弱い横揺れを感じた。目眩かと思ったが天井から吊るしてある電気が揺れていた。テ...","desc":"<p class=\"tweettext\">長く弱い横揺れを感じた。目眩かと思ったが天井から吊るしてある電気が揺れていた。テレビをつけて地震とわかり、東北の被害を見て阪神大震災の記憶がよみがえり、怖くなった。しばらくは何があるかわからないので、避難グッズ(ラジオ、懐中電灯、水、食料、子供のおむつやミルク等)を用意し、避難場所や避難経路などを家族と話し合っておいた。津波注意報が出ているので海岸などには近寄らないようにしたい。</p><p class=\"time\">03-12 11:05:50</p>","lon":135.33611,"lat":34.73972,"img":"megaphone.png"},{"id":"weathernews5052","name":"私は10階に住んでるのですが 凄く揺れて怖かったです エレベーター乗れるのか 凄く不安です 政治家は日本全国の建物の耐震性を見ないと いけないと思います 今後 ...","text":"私は10階に住んでるのですが 凄く揺れて怖かったです エレベーター乗れるのか 凄く不安です 政治家は日本全国の建物の耐震性を見ないと いけないと思います 今後 地震が起こっても最小限で済む様に 03-12 11:11:30","label":"私は10階に住んでるのですが 凄く揺れて怖かったです エレベーター乗れるのか 凄...","desc":"<p class=\"tweettext\">私は10階に住んでるのですが 凄く揺れて怖かったです エレベーター乗れるのか 凄く不安です 政治家は日本全国の建物の耐震性を見ないと いけないと思います 今後 地震が起こっても最小限で済む様に</p><p class=\"time\">03-12 11:11:30</p>","lon":135.49916,"lat":34.6065,"img":"megaphone.png"},{"id":"weathernews5057","name":"こちらはあまり被害がなく、いつもと同じですでも宮城県から離れている大阪でも少し揺れましたぐるぐる回ってる感じでした津波も大阪湾の方に来ていたみたいです仙台の津波...","text":"こちらはあまり被害がなく、いつもと同じですでも宮城県から離れている大阪でも少し揺れましたぐるぐる回ってる感じでした津波も大阪湾の方に来ていたみたいです仙台の津波の様子はニュースでみました 03-12 11:12:15","label":"こちらはあまり被害がなく、いつもと同じですでも宮城県から離れている大阪でも少し揺...","desc":"<p class=\"tweettext\">こちらはあまり被害がなく、いつもと同じですでも宮城県から離れている大阪でも少し揺れましたぐるぐる回ってる感じでした津波も大阪湾の方に来ていたみたいです仙台の津波の様子はニュースでみました</p><p class=\"time\">03-12 11:12:15</p>","lon":135.42349,"lat":34.48369,"img":"megaphone.png"},{"id":"weathernews5075","name":"揺れ無し 被害ありません 03-12 11:15:29","text":"揺れ無し 被害ありません 03-12 11:15:29","label":"揺れ無し 被害ありません 03-12 11:15:29","desc":"<p class=\"tweettext\">揺れ無し 被害ありません</p><p class=\"time\">03-12 11:15:29</p>","lon":135.37361,"lat":34.79374,"img":"megaphone.png"},{"id":"weathernews5077","name":"自宅のマンション８階で寝転んでいると自分が揺れているような感覚の横揺れが。とても長く感じ、コップの氷が揺れていました。北海道、東北、関西地方の方のご無事をお祈り...","text":"自宅のマンション８階で寝転んでいると自分が揺れているような感覚の横揺れが。とても長く感じ、コップの氷が揺れていました。北海道、東北、関西地方の方のご無事をお祈りしています 03-12 11:15:42","label":"自宅のマンション８階で寝転んでいると自分が揺れているような感覚の横揺れが。とても...","desc":"<p class=\"tweettext\">自宅のマンション８階で寝転んでいると自分が揺れているような感覚の横揺れが。とても長く感じ、コップの氷が揺れていました。北海道、東北、関西地方の方のご無事をお祈りしています</p><p class=\"time\">03-12 11:15:42</p>","lon":135.50166,"lat":34.71056,"img":"megaphone.png"},{"id":"weathernews5105","name":"昨日からずっとと言うか前から異常に感じていました。阪神淡路大震災の時も地震が起こる前の夜の満月が異常に燃えているように朱色でした。井戸水もぬるま湯よりお風呂のよ...","text":"昨日からずっとと言うか前から異常に感じていました。阪神淡路大震災の時も地震が起こる前の夜の満月が異常に燃えているように朱色でした。井戸水もぬるま湯よりお風呂のようになったことを覚えてます。今度は東北地方の地震です。普段カラスは飛んで来ないけど…何故、こんなに東から西にと思ったのです。今回の震度２で感じましたが、とにかく、忍耐強く頑張って下さい。水分と糖分を取って頑張って下さい。 03-12 11:19:50","label":"昨日からずっとと言うか前から異常に感じていました。阪神淡路大震災の時も地震が起こ...","desc":"<p class=\"tweettext\">昨日からずっとと言うか前から異常に感じていました。阪神淡路大震災の時も地震が起こる前の夜の満月が異常に燃えているように朱色でした。井戸水もぬるま湯よりお風呂のようになったことを覚えてます。今度は東北地方の地震です。普段カラスは飛んで来ないけど…何故、こんなに東から西にと思ったのです。今回の震度２で感じましたが、とにかく、忍耐強く頑張って下さい。水分と糖分を取って頑張って下さい。</p><p class=\"time\">03-12 11:19:50</p>","lon":135.32399,"lat":34.73677,"img":"megaphone.png"},{"id":"weathernews5108","name":"今回の地震で被害に合われた方 大変ですね…頑張って下さい。大阪は大丈夫です。昨日は天気が変やったけど…あれは地震のせいかしら… 03-12 11:20:36","text":"今回の地震で被害に合われた方 大変ですね…頑張って下さい。大阪は大丈夫です。昨日は天気が変やったけど…あれは地震のせいかしら… 03-12 11:20:36","label":"今回の地震で被害に合われた方 大変ですね…頑張って下さい。大阪は大丈夫です。昨日...","desc":"<p class=\"tweettext\">今回の地震で被害に合われた方 大変ですね…頑張って下さい。大阪は大丈夫です。昨日は天気が変やったけど…あれは地震のせいかしら…</p><p class=\"time\">03-12 11:20:36</p>","lon":135.47028,"lat":34.75917,"img":"megaphone.png"},{"id":"weathernews5109","name":"特設サイトの左下の方からGoogleEarthでリポートや状況が見えるそうです。 03-12 11:20:38","text":"特設サイトの左下の方からGoogleEarthでリポートや状況が見えるそうです。 03-12 11:20:38","label":"特設サイトの左下の方からGoogleEarthでリポートや状況が見えるそうです。...","desc":"<p class=\"tweettext\"> 特設サイトの左下の方からGoogleEarthでリポートや状況が見えるそうです。</p><p class=\"time\">03-12 11:20:38</p>","lon":135.53773,"lat":34.75354,"img":"megaphone.png"},{"id":"weathernews5141","name":"大阪は大丈夫!! 03-12 11:27:01","text":"大阪は大丈夫!! 03-12 11:27:01","label":"大阪は大丈夫!! 03-12 11:27:01","desc":"<p class=\"tweettext\">大阪は大丈夫!!</p><p class=\"time\">03-12 11:27:01</p>","lon":135.53911,"lat":34.70783,"img":"megaphone.png"},{"id":"weathernews5189","name":"めまいかなって思うような振幅の大きな横揺れを感じました。今回の地震はとにかく範囲が広い上に津波の被害が大きいですね。あちこちで地震が誘発されてるみたいで不気味で...","text":"めまいかなって思うような振幅の大きな横揺れを感じました。今回の地震はとにかく範囲が広い上に津波の被害が大きいですね。あちこちで地震が誘発されてるみたいで不気味です。 03-12 11:35:52","label":"めまいかなって思うような振幅の大きな横揺れを感じました。今回の地震はとにかく範囲...","desc":"<p class=\"tweettext\">めまいかなって思うような振幅の大きな横揺れを感じました。今回の地震はとにかく範囲が広い上に津波の被害が大きいですね。あちこちで地震が誘発されてるみたいで不気味です。</p><p class=\"time\">03-12 11:35:52</p>","lon":135.42937,"lat":34.46174,"img":"megaphone.png"},{"id":"weathernews5199","name":"当時、僕は尼崎に住んでましたが、阪神大震災が起こり凄い揺れで起きました。ちょうど夜明け前で家の中は真っ暗で、明るくなるにつれて家具やタンスが倒れていて自宅も半壊...","text":"当時、僕は尼崎に住んでましたが、阪神大震災が起こり凄い揺れで起きました。ちょうど夜明け前で家の中は真っ暗で、明るくなるにつれて家具やタンスが倒れていて自宅も半壊情態でした。今回の地震も、忘れる事ができません。 03-12 11:37:48","label":"当時、僕は尼崎に住んでましたが、阪神大震災が起こり凄い揺れで起きました。ちょうど...","desc":"<p class=\"tweettext\">当時、僕は尼崎に住んでましたが、阪神大震災が起こり凄い揺れで起きました。ちょうど夜明け前で家の中は真っ暗で、明るくなるにつれて家具やタンスが倒れていて自宅も半壊情態でした。今回の地震も、忘れる事ができません。</p><p class=\"time\">03-12 11:37:48</p>","lon":135.39053,"lat":34.87822,"img":"megaphone.png"},{"id":"weathernews5251","name":"昨日、地震時間に、乗り物酔いのように感じる揺れがありました。それ以外の影響はありません。被災地の被害がこれ以上拡大しませんように。 03-12 11:47:21","text":"昨日、地震時間に、乗り物酔いのように感じる揺れがありました。それ以外の影響はありません。被災地の被害がこれ以上拡大しませんように。 03-12 11:47:21","label":"昨日、地震時間に、乗り物酔いのように感じる揺れがありました。それ以外の影響はあり...","desc":"<p class=\"tweettext\">昨日、地震時間に、乗り物酔いのように感じる揺れがありました。それ以外の影響はありません。被災地の被害がこれ以上拡大しませんように。</p><p class=\"time\">03-12 11:47:21</p>","lon":135.51556,"lat":34.59917,"img":"megaphone.png"},{"id":"weathernews5331","name":"第一報が入った時にメール確認してると目眩の様な揺れが襲ってきました。ﾋﾞﾙの３階なのでゆっくりと5分程ゆれました。 03-12 12:02:15","text":"第一報が入った時にメール確認してると目眩の様な揺れが襲ってきました。ﾋﾞﾙの３階なのでゆっくりと5分程ゆれました。 03-12 12:02:15","label":"第一報が入った時にメール確認してると目眩の様な揺れが襲ってきました。ﾋﾞﾙの３階...","desc":"<p class=\"tweettext\">第一報が入った時にメール確認してると目眩の様な揺れが襲ってきました。ﾋﾞﾙの３階なのでゆっくりと5分程ゆれました。</p><p class=\"time\">03-12 12:02:15</p>","lon":135.47649,"lat":34.57307,"img":"megaphone.png"},{"id":"weathernews5347","name":"北区（梅田）の会社にいた際に地震の揺れを感じました。ビルの15階にいたので、横揺れが1分以上続き、警報も鳴った状態でした。その後も何度かに余震がありましたが、特...","text":"北区（梅田）の会社にいた際に地震の揺れを感じました。ビルの15階にいたので、横揺れが1分以上続き、警報も鳴った状態でした。その後も何度かに余震がありましたが、特に被害はなかったのです。今回、東北・関東の広い範囲での被害ですが、少しでも早く復旧されることを願っています。また何かお役に立てることがあれば、させていただきたいです。 03-12 12:05:43","label":"北区（梅田）の会社にいた際に地震の揺れを感じました。ビルの15階にいたので、横揺...","desc":"<p class=\"tweettext\">北区（梅田）の会社にいた際に地震の揺れを感じました。ビルの15階にいたので、横揺れが1分以上続き、警報も鳴った状態でした。その後も何度かに余震がありましたが、特に被害はなかったのです。今回、東北・関東の広い範囲での被害ですが、少しでも早く復旧されることを願っています。また何かお役に立てることがあれば、させていただきたいです。</p><p class=\"time\">03-12 12:05:43</p>","lon":135.50917,"lat":34.63028,"img":"megaphone.png"},{"id":"weathernews5386","name":"昨日は、大阪府南部震度３の揺れは気付かず済みました。ただ、昨日の天候が朝から変で…霧雨が降ったり止んだり，強風に気温も低く…気象病の目眩，頭痛等が多発で…持病人...","text":"昨日は、大阪府南部震度３の揺れは気付かず済みました。ただ、昨日の天候が朝から変で…霧雨が降ったり止んだり，強風に気温も低く…気象病の目眩，頭痛等が多発で…持病人は世話をかけてはいけないので、外出は控えました。ナマズのような五感？体感？に、敏感な日でした。報道特番を見てると、深夜３時〜４時に長野県まで揺れたらしく…夜明けに来た阪神淡路を思い出し眠れず、６時過ぎに寝ました。 03-12 12:12:50","label":"昨日は、大阪府南部震度３の揺れは気付かず済みました。ただ、昨日の天候が朝から変で...","desc":"<p class=\"tweettext\">昨日は、大阪府南部震度３の揺れは気付かず済みました。ただ、昨日の天候が朝から変で…霧雨が降ったり止んだり，強風に気温も低く…気象病の目眩，頭痛等が多発で…持病人は世話をかけてはいけないので、外出は控えました。ナマズのような五感？体感？に、敏感な日でした。報道特番を見てると、深夜３時〜４時に長野県まで揺れたらしく…夜明けに来た阪神淡路を思い出し眠れず、６時過ぎに寝ました。</p><p class=\"time\">03-12 12:12:50</p>","lon":135.62222,"lat":34.57583,"img":"megaphone.png"},{"id":"weathernews5444","name":"被害は無かったですが、旦那さんが今月6日ごろに地震雲と思われるものの写真を撮っていました。 北東から南西に流れていたので、宮崎県がヤバいと思っていたそうです。 ...","text":"被害は無かったですが、旦那さんが今月6日ごろに地震雲と思われるものの写真を撮っていました。 北東から南西に流れていたので、宮崎県がヤバいと思っていたそうです。 03-12 12:22:45","label":"被害は無かったですが、旦那さんが今月6日ごろに地震雲と思われるものの写真を撮って...","desc":"<p class=\"tweettext\">被害は無かったですが、旦那さんが今月6日ごろに地震雲と思われるものの写真を撮っていました。  北東から南西に流れていたので、宮崎県がヤバいと思っていたそうです。</p><p class=\"time\">03-12 12:22:45</p>","lon":135.605,"lat":34.35888,"img":"megaphone.png"},{"id":"weathernews5456","name":"その時、梅田の会社ﾋﾞﾙにいたのですが、ゆっくり長く横揺れし、船酔いににた感じの具合の悪さでした。小学校にいた子供は校庭に避難したそうです。プールの水があふれた...","text":"その時、梅田の会社ﾋﾞﾙにいたのですが、ゆっくり長く横揺れし、船酔いににた感じの具合の悪さでした。小学校にいた子供は校庭に避難したそうです。プールの水があふれたといってました。近くのWTCではエレベーターに閉じ込められた人もいたとか。消防車のサイレンが聞こえていたということです。津波による被害はありません。被災された方にお見舞い申し上げます。 03-12 12:25:07","label":"その時、梅田の会社ﾋﾞﾙにいたのですが、ゆっくり長く横揺れし、船酔いににた感じの...","desc":"<p class=\"tweettext\">その時、梅田の会社ﾋﾞﾙにいたのですが、ゆっくり長く横揺れし、船酔いににた感じの具合の悪さでした。小学校にいた子供は校庭に避難したそうです。プールの水があふれたといってました。近くのWTCではエレベーターに閉じ込められた人もいたとか。消防車のサイレンが聞こえていたということです。津波による被害はありません。被災された方にお見舞い申し上げます。</p><p class=\"time\">03-12 12:25:07</p>","lon":135.42673,"lat":34.63207,"img":"megaphone.png"},{"id":"weathernews5528","name":"私は高層ビルの19Fで仕事中でした地上より大きく揺れるのでビックリしました高層階用のEVが使えなくなった程度で停電などはありませんでした一刻も早い救出･復旧を願...","text":"私は高層ビルの19Fで仕事中でした地上より大きく揺れるのでビックリしました高層階用のEVが使えなくなった程度で停電などはありませんでした一刻も早い救出･復旧を願います 03-12 12:40:12","label":"私は高層ビルの19Fで仕事中でした地上より大きく揺れるのでビックリしました高層階...","desc":"<p class=\"tweettext\">私は高層ビルの19Fで仕事中でした地上より大きく揺れるのでビックリしました高層階用のEVが使えなくなった程度で停電などはありませんでした一刻も早い救出･復旧を願います</p><p class=\"time\">03-12 12:40:12</p>","lon":135.53307,"lat":34.67639,"img":"megaphone.png"},{"id":"weathernews5534","name":"津波の影響も少なくて、外傷はないかんじでした。吊り下げていた電気がグラグラと揺れる感じで、外にいたら気づかないくらいでした。 03-12 12:41:21","text":"津波の影響も少なくて、外傷はないかんじでした。吊り下げていた電気がグラグラと揺れる感じで、外にいたら気づかないくらいでした。 03-12 12:41:21","label":"津波の影響も少なくて、外傷はないかんじでした。吊り下げていた電気がグラグラと揺れ...","desc":"<p class=\"tweettext\">津波の影響も少なくて、外傷はないかんじでした。吊り下げていた電気がグラグラと揺れる感じで、外にいたら気づかないくらいでした。</p><p class=\"time\">03-12 12:41:21</p>","lon":135.18472,"lat":34.68917,"img":"megaphone.png"},{"id":"weathernews5616","name":"神戸市在住の者です。16年前の経験で余計なことかと思いますが、一つだけアドバイスをさせて下さい。余り頑張らないで下さい！『自分がしないといけない！』と頑張りすぎ...","text":"神戸市在住の者です。16年前の経験で余計なことかと思いますが、一つだけアドバイスをさせて下さい。余り頑張らないで下さい！『自分がしないといけない！』と頑張りすぎて体調を崩したり、過労死した人が神戸では、沢山いました。だから、余り頑張らないで下さい。後、回りの皆さんも、『頑張れ』とは言わないであげて下さい。 03-12 12:54:10","label":"神戸市在住の者です。16年前の経験で余計なことかと思いますが、一つだけアドバイス...","desc":"<p class=\"tweettext\">神戸市在住の者です。16年前の経験で余計なことかと思いますが、一つだけアドバイスをさせて下さい。余り頑張らないで下さい！『自分がしないといけない！』と頑張りすぎて体調を崩したり、過労死した人が神戸では、沢山いました。だから、余り頑張らないで下さい。後、回りの皆さんも、『頑張れ』とは言わないであげて下さい。</p><p class=\"time\">03-12 12:54:10</p>","lon":135.16766,"lat":34.65769,"img":"megaphone.png"},{"id":"weathernews5627","name":"見たところ被害無し被災者の皆さん、頑張って(｀∩´ゞ 03-12 12:58:17","text":"見たところ被害無し被災者の皆さん、頑張って(｀∩´ゞ 03-12 12:58:17","label":"見たところ被害無し被災者の皆さん、頑張って(｀∩´ゞ 03-12 12:58:1...","desc":"<p class=\"tweettext\">見たところ被害無し被災者の皆さん、頑張って(｀∩´ゞ</p><p class=\"time\">03-12 12:58:17</p>","lon":135.4791,"lat":34.69791,"img":"megaphone.png"},{"id":"weathernews5680","name":"被害はなし、被災地の方、大変でしょうが頑張って下さい。 03-12 13:06:39","text":"被害はなし、被災地の方、大変でしょうが頑張って下さい。 03-12 13:06:39","label":"被害はなし、被災地の方、大変でしょうが頑張って下さい。 03-12 13:06:...","desc":"<p class=\"tweettext\">被害はなし、被災地の方、大変でしょうが頑張って下さい。</p><p class=\"time\">03-12 13:06:39</p>","lon":135.6507,"lat":34.8144,"img":"megaphone.png"},{"id":"weathernews5687","name":"体育館のなかの道具や旗などが揺れて子供たちが騒いだ 03-12 13:07:13","text":"体育館のなかの道具や旗などが揺れて子供たちが騒いだ 03-12 13:07:13","label":"体育館のなかの道具や旗などが揺れて子供たちが騒いだ 03-12 13:07:13","desc":"<p class=\"tweettext\">体育館のなかの道具や旗などが揺れて子供たちが騒いだ</p><p class=\"time\">03-12 13:07:13</p>","lon":135.38861,"lat":34.49653,"img":"megaphone.png"},{"id":"weathernews5691","name":"香芝市は、今のところ揺れ等被害はありません。 03-12 13:07:33","text":"香芝市は、今のところ揺れ等被害はありません。 03-12 13:07:33","label":"香芝市は、今のところ揺れ等被害はありません。 03-12 13:07:33","desc":"<p class=\"tweettext\">香芝市は、今のところ揺れ等被害はありません。</p><p class=\"time\">03-12 13:07:33</p>","lon":135.69006,"lat":34.55771,"img":"megaphone.png"},{"id":"weathernews5718","name":"全く分からなかった 03-12 13:10:19","text":"全く分からなかった 03-12 13:10:19","label":"全く分からなかった 03-12 13:10:19","desc":"<p class=\"tweettext\">全く分からなかった</p><p class=\"time\">03-12 13:10:19</p>","lon":135.51083,"lat":34.70861,"img":"megaphone.png"},{"id":"weathernews5774","name":"津波警報が出ているので、南海加太線･和歌山港線が運転見合わせ､南海フェリーが運休だそう｡頑張らずに､無理をなさらないで下さいね 03-12 13:13:52","text":"津波警報が出ているので、南海加太線･和歌山港線が運転見合わせ､南海フェリーが運休だそう｡頑張らずに､無理をなさらないで下さいね 03-12 13:13:52","label":"津波警報が出ているので、南海加太線･和歌山港線が運転見合わせ､南海フェリーが運休...","desc":"<p class=\"tweettext\">津波警報が出ているので、南海加太線･和歌山港線が運転見合わせ､南海フェリーが運休だそう｡頑張らずに､無理をなさらないで下さいね </p><p class=\"time\">03-12 13:13:52</p>","lon":135.50281,"lat":34.66332,"img":"megaphone.png"},{"id":"weathernews5819","name":"微かに揺れていた程度でしたので、職場の方々は目眩だと錯覚していました。が、電気のヒモが長い時間揺れており、かけてる服も揺れていました。また、棚の上に置いてある箱...","text":"微かに揺れていた程度でしたので、職場の方々は目眩だと錯覚していました。が、電気のヒモが長い時間揺れており、かけてる服も揺れていました。また、棚の上に置いてある箱もかなりズレていました。長い時間揺れていたことを感じました。棚の上の物がズレて落ちやすくなっているかもしれません！一度確認を行ってください！ 03-12 13:17:14","label":"微かに揺れていた程度でしたので、職場の方々は目眩だと錯覚していました。が、電気の...","desc":"<p class=\"tweettext\">微かに揺れていた程度でしたので、職場の方々は目眩だと錯覚していました。が、電気のヒモが長い時間揺れており、かけてる服も揺れていました。また、棚の上に置いてある箱もかなりズレていました。長い時間揺れていたことを感じました。棚の上の物がズレて落ちやすくなっているかもしれません！一度確認を行ってください！</p><p class=\"time\">03-12 13:17:14</p>","lon":135.62917,"lat":34.59207,"img":"megaphone.png"},{"id":"weathernews5883","name":"仕事で尼崎にいました、揺れているので自分の体調が悪いのかと錯覚しました。帰宅したらテレビで地震の事が…。 関西も、あれから復興しました。東北の方、まだまだ予断の...","text":"仕事で尼崎にいました、揺れているので自分の体調が悪いのかと錯覚しました。帰宅したらテレビで地震の事が…。 関西も、あれから復興しました。東北の方、まだまだ予断の許されない状況でしょうが。無事に過ごされ、いち早く復旧復興される様に心からお祈りしています。 がんばれ！東北、関東！ 03-12 13:20:08","label":"仕事で尼崎にいました、揺れているので自分の体調が悪いのかと錯覚しました。帰宅した...","desc":"<p class=\"tweettext\">仕事で尼崎にいました、揺れているので自分の体調が悪いのかと錯覚しました。帰宅したらテレビで地震の事が…。       関西も、あれから復興しました。東北の方、まだまだ予断の許されない状況でしょうが。無事に過ごされ、いち早く復旧復興される様に心からお祈りしています。                                 がんばれ！東北、関東！</p><p class=\"time\">03-12 13:20:08</p>","lon":135.5267,"lat":34.62206,"img":"megaphone.png"},{"id":"weathernews5933","name":"掃除中で揺れた事に気づきませんでした 03-12 13:23:01","text":"掃除中で揺れた事に気づきませんでした 03-12 13:23:01","label":"掃除中で揺れた事に気づきませんでした 03-12 13:23:01","desc":"<p class=\"tweettext\">掃除中で揺れた事に気づきませんでした</p><p class=\"time\">03-12 13:23:01</p>","lon":135.397,"lat":34.7991,"img":"megaphone.png"},{"id":"weathernews6068","name":"体に感じる程度でした。地面がふにゃふにゃしてる感じがしました。被害はありませんでした。 03-12 13:30:56","text":"体に感じる程度でした。地面がふにゃふにゃしてる感じがしました。被害はありませんでした。 03-12 13:30:56","label":"体に感じる程度でした。地面がふにゃふにゃしてる感じがしました。被害はありませんで...","desc":"<p class=\"tweettext\">体に感じる程度でした。地面がふにゃふにゃしてる感じがしました。被害はありませんでした。</p><p class=\"time\">03-12 13:30:56</p>","lon":135.64008,"lat":34.81028,"img":"megaphone.png"},{"id":"weathernews6118","name":"8階にいたので、長い時間揺れました。阪神淡路の震災とは違う揺れでした。壁にヒビが入っていました。確か震度3だったと思いますが、それでこれだけ揺れるとは、もっと震...","text":"8階にいたので、長い時間揺れました。阪神淡路の震災とは違う揺れでした。壁にヒビが入っていました。確か震度3だったと思いますが、それでこれだけ揺れるとは、もっと震度が強いと高層ビルは恐いと思いました。 03-12 13:33:38","label":"8階にいたので、長い時間揺れました。阪神淡路の震災とは違う揺れでした。壁にヒビが...","desc":"<p class=\"tweettext\">8階にいたので、長い時間揺れました。阪神淡路の震災とは違う揺れでした。壁にヒビが入っていました。確か震度3だったと思いますが、それでこれだけ揺れるとは、もっと震度が強いと高層ビルは恐いと思いました。</p><p class=\"time\">03-12 13:33:38</p>","lon":135.4991,"lat":34.55549,"img":"megaphone.png"},{"id":"weathernews6125","name":"最初の少し長い揺れだけで 大阪は被害無しです ただ…他県には此方からメールが送れても 相手が受信も送信も出来ないという事はありました。 札幌は大丈夫だと聞いてま...","text":"最初の少し長い揺れだけで 大阪は被害無しです ただ…他県には此方からメールが送れても 相手が受信も送信も出来ないという事はありました。 札幌は大丈夫だと聞いてます。 埼玉は場所によってタンスが倒れるなどの被害があったようです。横浜ではマンションの階段が壊れていたなどの被害も聞いてます。 03-12 13:34:00","label":"最初の少し長い揺れだけで 大阪は被害無しです ただ…他県には此方からメールが送れ...","desc":"<p class=\"tweettext\">最初の少し長い揺れだけで 大阪は被害無しです ただ…他県には此方からメールが送れても 相手が受信も送信も出来ないという事はありました。 札幌は大丈夫だと聞いてます。 埼玉は場所によってタンスが倒れるなどの被害があったようです。横浜ではマンションの階段が壊れていたなどの被害も聞いてます。</p><p class=\"time\">03-12 13:34:00</p>","lon":135.54613,"lat":34.62121,"img":"megaphone.png"},{"id":"weathernews6135","name":"被害はありません。しかし、中越地方で地震が起こると小さくゆっくりとした揺れを数分にわたり感じました。なんか震源地が少しずつ西へと近づいて来ている感じで、本当に心...","text":"被害はありません。しかし、中越地方で地震が起こると小さくゆっくりとした揺れを数分にわたり感じました。なんか震源地が少しずつ西へと近づいて来ている感じで、本当に心配で怖いです。 03-12 13:34:26","label":"被害はありません。しかし、中越地方で地震が起こると小さくゆっくりとした揺れを数分...","desc":"<p class=\"tweettext\">被害はありません。しかし、中越地方で地震が起こると小さくゆっくりとした揺れを数分にわたり感じました。なんか震源地が少しずつ西へと近づいて来ている感じで、本当に心配で怖いです。</p><p class=\"time\">03-12 13:34:26</p>","lon":135.54167,"lat":34.6259,"img":"megaphone.png"},{"id":"weathernews6173","name":"東京電力に関西電力が供給するようです。被災地でない人達は節電に心掛けるなど今すぐ協力で切りことから行動しましょう。 03-12 13:37:22","text":"東京電力に関西電力が供給するようです。被災地でない人達は節電に心掛けるなど今すぐ協力で切りことから行動しましょう。 03-12 13:37:22","label":"東京電力に関西電力が供給するようです。被災地でない人達は節電に心掛けるなど今すぐ...","desc":"<p class=\"tweettext\">東京電力に関西電力が供給するようです。被災地でない人達は節電に心掛けるなど今すぐ協力で切りことから行動しましょう。</p><p class=\"time\">03-12 13:37:22</p>","lon":135.41452,"lat":34.75833,"img":"megaphone.png"},{"id":"weathernews6189","name":"物理的な被害は出ていませんが、潜在的な部分での減災報告になります。テレビ、新聞、インターネットなどのメディアはすべて今回の地震のことばかりで気分的にブルーな感じ...","text":"物理的な被害は出ていませんが、潜在的な部分での減災報告になります。テレビ、新聞、インターネットなどのメディアはすべて今回の地震のことばかりで気分的にブルーな感じです。特に今回の地震では津波被害が大きい要因となっていることもあり仕方がない感じです。しかし、子供も昨夜はあまり眠れなかったと言ってましたので、潜在的に怖い思いをしていることが分かりました。皆さんは心のケアは大丈夫ですか？ 03-12 13:37:58","label":"物理的な被害は出ていませんが、潜在的な部分での減災報告になります。テレビ、新聞、...","desc":"<p class=\"tweettext\">物理的な被害は出ていませんが、潜在的な部分での減災報告になります。テレビ、新聞、インターネットなどのメディアはすべて今回の地震のことばかりで気分的にブルーな感じです。特に今回の地震では津波被害が大きい要因となっていることもあり仕方がない感じです。しかし、子供も昨夜はあまり眠れなかったと言ってましたので、潜在的に怖い思いをしていることが分かりました。皆さんは心のケアは大丈夫ですか？</p><p class=\"time\">03-12 13:37:58</p>","lon":135.5464,"lat":34.73881,"img":"megaphone.png"},{"id":"weathernews6217","name":"テレビで国会中継をみていました、地震情報が入り国会が中断、直後ゆっくりした長いゆれを体感しました。マンションはま東向の四階です、高層の方は相当な揺れを感じたので...","text":"テレビで国会中継をみていました、地震情報が入り国会が中断、直後ゆっくりした長いゆれを体感しました。マンションはま東向の四階です、高層の方は相当な揺れを感じたのではないでしょうか‥テレビ等大阪の揺れは報道されていないようです。関西には阪神大震災の経験者が多いはずです、東北、関東地域被災者の皆様へのウェザーニュースさんのネットワークで声だけでなく具体的な支援策を計画してください。一民間人では何から、どうすれば良いのかわかりません。 03-12 13:39:26","label":"テレビで国会中継をみていました、地震情報が入り国会が中断、直後ゆっくりした長いゆ...","desc":"<p class=\"tweettext\">テレビで国会中継をみていました、地震情報が入り国会が中断、直後ゆっくりした長いゆれを体感しました。マンションはま東向の四階です、高層の方は相当な揺れを感じたのではないでしょうか‥テレビ等大阪の揺れは報道されていないようです。関西には阪神大震災の経験者が多いはずです、東北、関東地域被災者の皆様へのウェザーニュースさんのネットワークで声だけでなく具体的な支援策を計画してください。一民間人では何から、どうすれば良いのかわかりません。</p><p class=\"time\">03-12 13:39:26</p>","lon":135.50967,"lat":34.68117,"img":"megaphone.png"},{"id":"weathernews6218","name":"ここ東大阪でも地震発生から３分で揺れ始めた地震波のスピードが凄い人工衛星並みのスピード 03-12 13:39:26","text":"ここ東大阪でも地震発生から３分で揺れ始めた地震波のスピードが凄い人工衛星並みのスピード 03-12 13:39:26","label":"ここ東大阪でも地震発生から３分で揺れ始めた地震波のスピードが凄い人工衛星並みのス...","desc":"<p class=\"tweettext\">ここ東大阪でも地震発生から３分で揺れ始めた地震波のスピードが凄い人工衛星並みのスピード</p><p class=\"time\">03-12 13:39:26</p>","lon":135.58086,"lat":34.66236,"img":"megaphone.png"},{"id":"weathernews6231","name":"早く地震無くして欲しい 03-12 13:40:24","text":"早く地震無くして欲しい 03-12 13:40:24","label":"早く地震無くして欲しい 03-12 13:40:24","desc":"<p class=\"tweettext\">早く地震無くして欲しい</p><p class=\"time\">03-12 13:40:24</p>","lon":135.17331,"lat":34.6761,"img":"megaphone.png"},{"id":"weathernews6233","name":"私は子供達と図書館に居て揺れを感じました。夫は東京で義父母は茨城県なので慌てて連絡しましたが繋がらず４時過ぎに何とか安否が確認出来ました。夫は首都高速で被災。高...","text":"私は子供達と図書館に居て揺れを感じました。夫は東京で義父母は茨城県なので慌てて連絡しましたが繋がらず４時過ぎに何とか安否が確認出来ました。夫は首都高速で被災。高速を降りたらﾏﾝﾎｰﾙから水が溢れて怖かったそうです。義父母は茨城県の自宅で被災。食器が落ちて割れ部屋が散乱し電気とｶﾞｽが止まっているそうです。余震が続くので油断せずに避難して下さい。いつ建物が倒壊するのか判りません。安全が確保されるまでは周囲に物がない所に避難するか避難所に行って下さい。一人でも多くの生存者を祈っています。 03-12 13:40:32","label":"私は子供達と図書館に居て揺れを感じました。夫は東京で義父母は茨城県なので慌てて連...","desc":"<p class=\"tweettext\">私は子供達と図書館に居て揺れを感じました。夫は東京で義父母は茨城県なので慌てて連絡しましたが繋がらず４時過ぎに何とか安否が確認出来ました。夫は首都高速で被災。高速を降りたらﾏﾝﾎｰﾙから水が溢れて怖かったそうです。義父母は茨城県の自宅で被災。食器が落ちて割れ部屋が散乱し電気とｶﾞｽが止まっているそうです。余震が続くので油断せずに避難して下さい。いつ建物が倒壊するのか判りません。安全が確保されるまでは周囲に物がない所に避難するか避難所に行って下さい。一人でも多くの生存者を祈っています。</p><p class=\"time\">03-12 13:40:32</p>","lon":135.60973,"lat":34.61169,"img":"megaphone.png"},{"id":"weathernews6348","name":"これ以上の 被害が出ませんようにと 願い 祈っています 子育て世代の方の 力になれたらと思ってます ﾐﾙｸ、ｵﾑﾂ 水 服 靴など 災害地に届けられないかな…私...","text":"これ以上の 被害が出ませんようにと 願い 祈っています 子育て世代の方の 力になれたらと思ってます ﾐﾙｸ、ｵﾑﾂ 水 服 靴など 災害地に届けられないかな…私に出来る事が微力でも 全国のみんなの知恵、アイデアをだしあえば きっと 大きな力になると思います 阪神淡路大震災の経験者として…負けないで下さい 冬は必ず春になります とにかく 必要な物資、食料、暖がとれるもの､急いで被災者の元へ届け 政府、自衛隊、消防、救急関係者さま 頑張って頂きたい。 03-12 13:47:50","label":"これ以上の 被害が出ませんようにと 願い 祈っています 子育て世代の方の 力にな...","desc":"<p class=\"tweettext\">これ以上の 被害が出ませんようにと 願い 祈っています 子育て世代の方の 力になれたらと思ってます ﾐﾙｸ、ｵﾑﾂ 水 服 靴など 災害地に届けられないかな…私に出来る事が微力でも 全国のみんなの知恵、アイデアをだしあえば きっと 大きな力になると思います 阪神淡路大震災の経験者として…負けないで下さい 冬は必ず春になります とにかく 必要な物資、食料、暖がとれるもの､急いで被災者の元へ届け 政府、自衛隊、消防、救急関係者さま 頑張って頂きたい。</p><p class=\"time\">03-12 13:47:50</p>","lon":135.08305,"lat":34.69028,"img":"megaphone.png"},{"id":"weathernews6393","name":"今まで 感じた事の無い弱い横揺れが 結構長く続き そういうのが 合計３回くらいありました。地震だと気付かず、自分にめまいが起きたと感じた人が周りには 結構多かっ...","text":"今まで 感じた事の無い弱い横揺れが 結構長く続き そういうのが 合計３回くらいありました。地震だと気付かず、自分にめまいが起きたと感じた人が周りには 結構多かったです。帰宅した娘もそう 思ったと言っていました。被害は有りません。私は 仕事で使っているパソコンがフリーズし 東京へ連絡すると 東京でも同じ状況で今、大きな地震が起きたと伝えられました。 03-12 13:50:38","label":"今まで 感じた事の無い弱い横揺れが 結構長く続き そういうのが 合計３回くらいあ...","desc":"<p class=\"tweettext\">今まで 感じた事の無い弱い横揺れが 結構長く続き そういうのが 合計３回くらいありました。地震だと気付かず、自分にめまいが起きたと感じた人が周りには 結構多かったです。帰宅した娘もそう 思ったと言っていました。被害は有りません。私は 仕事で使っているパソコンがフリーズし 東京へ連絡すると 東京でも同じ状況で今、大きな地震が起きたと伝えられました。 </p><p class=\"time\">03-12 13:50:38</p>","lon":135.65479,"lat":34.86194,"img":"megaphone.png"},{"id":"weathernews6406","name":"特に震災の影響ありません! 03-12 13:51:18","text":"特に震災の影響ありません! 03-12 13:51:18","label":"特に震災の影響ありません! 03-12 13:51:18","desc":"<p class=\"tweettext\">特に震災の影響ありません!</p><p class=\"time\">03-12 13:51:18</p>","lon":135.59444,"lat":34.66806,"img":"megaphone.png"},{"id":"weathernews6511","name":"何にも、被害は有りません。 03-12 13:56:42","text":"何にも、被害は有りません。 03-12 13:56:42","label":"何にも、被害は有りません。 03-12 13:56:42","desc":"<p class=\"tweettext\">何にも、被害は有りません。</p><p class=\"time\">03-12 13:56:42</p>","lon":135.58014,"lat":34.74785,"img":"megaphone.png"},{"id":"weathernews6554","name":"立っているとき、あれ、目眩…みたいな横揺れでした。振幅も大きかった。もしかして、どこかで大きな地震？の予感があたりました。阪神淡路大震災で被災した辛い記憶が蘇り...","text":"立っているとき、あれ、目眩…みたいな横揺れでした。振幅も大きかった。もしかして、どこかで大きな地震？の予感があたりました。阪神淡路大震災で被災した辛い記憶が蘇りました。東北、関東地方の皆さん。近隣、声を掛け合って助け合い、一刻も早いライフラインの復旧をお祈りしています。何も出来ない自分が情けないです。 03-12 13:59:42","label":"立っているとき、あれ、目眩…みたいな横揺れでした。振幅も大きかった。もしかして、...","desc":"<p class=\"tweettext\">立っているとき、あれ、目眩…みたいな横揺れでした。振幅も大きかった。もしかして、どこかで大きな地震？の予感があたりました。阪神淡路大震災で被災した辛い記憶が蘇りました。東北、関東地方の皆さん。近隣、声を掛け合って助け合い、一刻も早いライフラインの復旧をお祈りしています。何も出来ない自分が情けないです。</p><p class=\"time\">03-12 13:59:42</p>","lon":135.61528,"lat":34.56936,"img":"megaphone.png"},{"id":"weathernews6576","name":"軽い揺れを感じた。少ししか揺れなかった。 03-12 14:01:16","text":"軽い揺れを感じた。少ししか揺れなかった。 03-12 14:01:16","label":"軽い揺れを感じた。少ししか揺れなかった。 03-12 14:01:16","desc":"<p class=\"tweettext\">軽い揺れを感じた。少ししか揺れなかった。</p><p class=\"time\">03-12 14:01:16</p>","lon":135.49916,"lat":34.6065,"img":"megaphone.png"},{"id":"weathernews6589","name":"阪神淡路大震災の時は、豊中市におり、揺れを経験しました。今回は、めまい、船酔いのよいな揺れがあり、テレビを見て地震とわかりました。こんなに離れているのに揺れてび...","text":"阪神淡路大震災の時は、豊中市におり、揺れを経験しました。今回は、めまい、船酔いのよいな揺れがあり、テレビを見て地震とわかりました。こんなに離れているのに揺れてびっくりしました。 03-12 14:02:09","label":"阪神淡路大震災の時は、豊中市におり、揺れを経験しました。今回は、めまい、船酔いの...","desc":"<p class=\"tweettext\">阪神淡路大震災の時は、豊中市におり、揺れを経験しました。今回は、めまい、船酔いのよいな揺れがあり、テレビを見て地震とわかりました。こんなに離れているのに揺れてびっくりしました。</p><p class=\"time\">03-12 14:02:09</p>","lon":135.50833,"lat":34.55,"img":"megaphone.png"},{"id":"weathernews6670","name":"昨日の発生時と夜にゎ多少の揺れがありましたが、今は影響なしです 03-12 14:08:41","text":"昨日の発生時と夜にゎ多少の揺れがありましたが、今は影響なしです 03-12 14:08:41","label":"昨日の発生時と夜にゎ多少の揺れがありましたが、今は影響なしです 03-12 14...","desc":"<p class=\"tweettext\">昨日の発生時と夜にゎ多少の揺れがありましたが、今は影響なしです</p><p class=\"time\">03-12 14:08:41</p>","lon":135.62582,"lat":34.7775,"img":"megaphone.png"},{"id":"weathernews6741","name":"今までに感じた地震の揺れと今回は違った。ヒドイめまいが長くしているように感じた。スイミングスクールのプールの水が、左右に大きく揺れて溢れ出ていた。 03-12 ...","text":"今までに感じた地震の揺れと今回は違った。ヒドイめまいが長くしているように感じた。スイミングスクールのプールの水が、左右に大きく揺れて溢れ出ていた。 03-12 14:12:53","label":"今までに感じた地震の揺れと今回は違った。ヒドイめまいが長くしているように感じた。...","desc":"<p class=\"tweettext\">今までに感じた地震の揺れと今回は違った。ヒドイめまいが長くしているように感じた。スイミングスクールのプールの水が、左右に大きく揺れて溢れ出ていた。</p><p class=\"time\">03-12 14:12:53</p>","lon":135.59111,"lat":34.60028,"img":"megaphone.png"},{"id":"weathernews6753","name":"建物１０階円を描くような長い時間揺れていた携帯電話は普通に繋がっていた 03-12 14:13:44","text":"建物１０階円を描くような長い時間揺れていた携帯電話は普通に繋がっていた 03-12 14:13:44","label":"建物１０階円を描くような長い時間揺れていた携帯電話は普通に繋がっていた 03-1...","desc":"<p class=\"tweettext\">建物１０階円を描くような長い時間揺れていた携帯電話は普通に繋がっていた</p><p class=\"time\">03-12 14:13:44</p>","lon":135.45557,"lat":34.66333,"img":"megaphone.png"},{"id":"weathernews6824","name":"会社のビル内でした。10階だからか、まっすぐに歩けない揺れでした。壁の一部がところどころ、破損してました。 03-12 14:18:58","text":"会社のビル内でした。10階だからか、まっすぐに歩けない揺れでした。壁の一部がところどころ、破損してました。 03-12 14:18:58","label":"会社のビル内でした。10階だからか、まっすぐに歩けない揺れでした。壁の一部がとこ...","desc":"<p class=\"tweettext\">会社のビル内でした。10階だからか、まっすぐに歩けない揺れでした。壁の一部がところどころ、破損してました。</p><p class=\"time\">03-12 14:18:58</p>","lon":135.48601,"lat":34.67621,"img":"megaphone.png"},{"id":"weathernews6825","name":"平成７年神戸にて被災した者です。 ＴＶ･ラジオ･監督官庁の情報･指示を守る。 避難場所からの外出が可能であれば、飲食物･暖を取れる物の他、軍手･スコップ･ノコギ...","text":"平成７年神戸にて被災した者です。 ＴＶ･ラジオ･監督官庁の情報･指示を守る。 避難場所からの外出が可能であれば、飲食物･暖を取れる物の他、軍手･スコップ･ノコギリ等が有れば助かります。但し、活動は日中のみ男性を中心に数人のグループを作り行動、勝手な行動は厳禁。(持って来て欲しい物等の要望を取りまとめ無理の無い範囲で活動)遅く成りましたが、被災された皆様方に心より御見舞い申し上げます。 03-12 14:18:59","label":"平成７年神戸にて被災した者です。 ＴＶ･ラジオ･監督官庁の情報･指示を守る。 避...","desc":"<p class=\"tweettext\">平成７年神戸にて被災した者です。 ＴＶ･ラジオ･監督官庁の情報･指示を守る。 避難場所からの外出が可能であれば、飲食物･暖を取れる物の他、軍手･スコップ･ノコギリ等が有れば助かります。但し、活動は日中のみ男性を中心に数人のグループを作り行動、勝手な行動は厳禁。(持って来て欲しい物等の要望を取りまとめ無理の無い範囲で活動)遅く成りましたが、被災された皆様方に心より御見舞い申し上げます。</p><p class=\"time\">03-12 14:18:59</p>","lon":135.47826,"lat":34.57597,"img":"megaphone.png"},{"id":"weathernews6828","name":"震度２〜３ 揺れは感じました。揺れはゆっくりユラユラとした感じで壁に吊ってある物が左右 に揺れ徐々に大きくなりました。 03-12 14:19:05","text":"震度２〜３ 揺れは感じました。揺れはゆっくりユラユラとした感じで壁に吊ってある物が左右 に揺れ徐々に大きくなりました。 03-12 14:19:05","label":"震度２〜３ 揺れは感じました。揺れはゆっくりユラユラとした感じで壁に吊ってある物...","desc":"<p class=\"tweettext\">震度２〜３   揺れは感じました。揺れはゆっくりユラユラとした感じで壁に吊ってある物が左右 に揺れ徐々に大きくなりました。</p><p class=\"time\">03-12 14:19:05</p>","lon":135.56113,"lat":34.71733,"img":"megaphone.png"},{"id":"weathernews6914","name":"被害はなく、とても空は晴れています。暖かいです。 03-12 14:24:38","text":"被害はなく、とても空は晴れています。暖かいです。 03-12 14:24:38","label":"被害はなく、とても空は晴れています。暖かいです。 03-12 14:24:38","desc":"<p class=\"tweettext\">被害はなく、とても空は晴れています。暖かいです。</p><p class=\"time\">03-12 14:24:38</p>","lon":135.25945,"lat":34.36222,"img":"megaphone.png"},{"id":"weathernews6963","name":"東豊浦に在宅の家族は、揺れを全然感じなかったそうです。私は東大阪市吉田下島に居ましたが、かなりの横揺れがありました。 03-12 14:28:55","text":"東豊浦に在宅の家族は、揺れを全然感じなかったそうです。私は東大阪市吉田下島に居ましたが、かなりの横揺れがありました。 03-12 14:28:55","label":"東豊浦に在宅の家族は、揺れを全然感じなかったそうです。私は東大阪市吉田下島に居ま...","desc":"<p class=\"tweettext\">東豊浦に在宅の家族は、揺れを全然感じなかったそうです。私は東大阪市吉田下島に居ましたが、かなりの横揺れがありました。</p><p class=\"time\">03-12 14:28:55</p>","lon":135.6461,"lat":34.67722,"img":"megaphone.png"},{"id":"weathernews7022","name":"こちらは大丈夫です。 03-12 14:33:38","text":"こちらは大丈夫です。 03-12 14:33:38","label":"こちらは大丈夫です。 03-12 14:33:38","desc":"<p class=\"tweettext\">こちらは大丈夫です。</p><p class=\"time\">03-12 14:33:38</p>","lon":135.50471,"lat":34.55222,"img":"megaphone.png"},{"id":"weathernews7025","name":"昨日の地震はユラユラと乗り物酔いをするような揺れを ２度感じました。子供達は学校 私は職場でした。 子供達は机の下にもぐって 安全確保したそうです。子供を持つ親...","text":"昨日の地震はユラユラと乗り物酔いをするような揺れを ２度感じました。子供達は学校 私は職場でした。 子供達は机の下にもぐって 安全確保したそうです。子供を持つ親として 被災した子供さん達が心配でなりません 本当の意味でこれからが大変だと思います。このページからなにか手を差し延べられることはないのでしょうか？ 03-12 14:33:55","label":"昨日の地震はユラユラと乗り物酔いをするような揺れを ２度感じました。子供達は学校...","desc":"<p class=\"tweettext\">昨日の地震はユラユラと乗り物酔いをするような揺れを ２度感じました。子供達は学校 私は職場でした。 子供達は机の下にもぐって 安全確保したそうです。子供を持つ親として 被災した子供さん達が心配でなりません 本当の意味でこれからが大変だと思います。このページからなにか手を差し延べられることはないのでしょうか？</p><p class=\"time\">03-12 14:33:55</p>","lon":135.59895,"lat":34.63069,"img":"megaphone.png"},{"id":"weathernews7120","name":"昨日、地震をかんじたのは数回で、以後、何事もなく、穏やかです。 被災地の方々の不安、寒さをお察しします。今、何をしたらいいかわかりませんが、混乱しているとは思い...","text":"昨日、地震をかんじたのは数回で、以後、何事もなく、穏やかです。 被災地の方々の不安、寒さをお察しします。今、何をしたらいいかわかりませんが、混乱しているとは思いますが、今を踏んばって乗り越えて欲しいと思います 03-12 14:41:07","label":"昨日、地震をかんじたのは数回で、以後、何事もなく、穏やかです。 被災地の方々の不...","desc":"<p class=\"tweettext\">昨日、地震をかんじたのは数回で、以後、何事もなく、穏やかです。  被災地の方々の不安、寒さをお察しします。今、何をしたらいいかわかりませんが、混乱しているとは思いますが、今を踏んばって乗り越えて欲しいと思います</p><p class=\"time\">03-12 14:41:07</p>","lon":135.68306,"lat":34.85819,"img":"megaphone.png"},{"id":"weathernews7144","name":"地震当時は東大阪におりました。ビルの４階におりましたが、震度３程度の横揺れを感じました。多くのかたが船酔いのような状態に陥り、吐き気等を訴えていました。その後、...","text":"地震当時は東大阪におりました。ビルの４階におりましたが、震度３程度の横揺れを感じました。多くのかたが船酔いのような状態に陥り、吐き気等を訴えていました。その後、近畿圏内であっても電話が通じなくなるなどの通話規制にかかりました。それ以外、電気がス水道どれは止まることなく、電車も通常通り運行していましたし、その後も関西では余震を感じることはありませんでした。今現在は大日におり、外に出てみましたが皆さんいつも通りの生活をしておられるように見受けられます。ただ、いつもより外出しているかたは少なく感じます。 03-12 14:42:50","label":"地震当時は東大阪におりました。ビルの４階におりましたが、震度３程度の横揺れを感じ...","desc":"<p class=\"tweettext\">地震当時は東大阪におりました。ビルの４階におりましたが、震度３程度の横揺れを感じました。多くのかたが船酔いのような状態に陥り、吐き気等を訴えていました。その後、近畿圏内であっても電話が通じなくなるなどの通話規制にかかりました。それ以外、電気がス水道どれは止まることなく、電車も通常通り運行していましたし、その後も関西では余震を感じることはありませんでした。今現在は大日におり、外に出てみましたが皆さんいつも通りの生活をしておられるように見受けられます。ただ、いつもより外出しているかたは少なく感じます。</p><p class=\"time\">03-12 14:42:50</p>","lon":135.58112,"lat":34.74972,"img":"megaphone.png"},{"id":"weathernews7176","name":"揺れはさほどでしたが、何と言っても･災害用伝言板･災害用ダイヤルの周知徹底求む！！！！周りに聞くと、「あるのは知ってたけど使い方が分からない」と多数。 03-1...","text":"揺れはさほどでしたが、何と言っても･災害用伝言板･災害用ダイヤルの周知徹底求む！！！！周りに聞くと、「あるのは知ってたけど使い方が分からない」と多数。 03-12 14:45:54","label":"揺れはさほどでしたが、何と言っても･災害用伝言板･災害用ダイヤルの周知徹底求む！...","desc":"<p class=\"tweettext\">揺れはさほどでしたが、何と言っても･災害用伝言板･災害用ダイヤルの周知徹底求む！！！！周りに聞くと、「あるのは知ってたけど使い方が分からない」と多数。</p><p class=\"time\">03-12 14:45:54</p>","lon":135.58305,"lat":34.75056,"img":"megaphone.png"},{"id":"weathernews7181","name":"異常なし 03-12 14:46:09","text":"異常なし 03-12 14:46:09","label":"異常なし 03-12 14:46:09","desc":"<p class=\"tweettext\">異常なし</p><p class=\"time\">03-12 14:46:09</p>","lon":135.18417,"lat":34.825,"img":"megaphone.png"},{"id":"weathernews7268","name":"出かけてて地震があったことすら気付かず、帰ってテレビを付けて初めてびっくりしました。自分に何ができるかって考えて、無力さに嫌気がさします。ですが、一つずつ見つけ...","text":"出かけてて地震があったことすら気付かず、帰ってテレビを付けて初めてびっくりしました。自分に何ができるかって考えて、無力さに嫌気がさします。ですが、一つずつ見つけてしたいと思います。被災地の方、一人一人みんなで支え合って気を強くもってがんばってください。こちらでもできることを探したいと思います。 03-12 14:53:42","label":"出かけてて地震があったことすら気付かず、帰ってテレビを付けて初めてびっくりしまし...","desc":"<p class=\"tweettext\">出かけてて地震があったことすら気付かず、帰ってテレビを付けて初めてびっくりしました。自分に何ができるかって考えて、無力さに嫌気がさします。ですが、一つずつ見つけてしたいと思います。被災地の方、一人一人みんなで支え合って気を強くもってがんばってください。こちらでもできることを探したいと思います。</p><p class=\"time\">03-12 14:53:42</p>","lon":135.27528,"lat":34.36083,"img":"megaphone.png"},{"id":"weathernews7277","name":"出かけてて地震があったことすら気付かず、帰ってテレビを付けて初めてびっくりしました。自分に何ができるかって考えて、無力さに嫌気がさします。ですが、一つずつ見つけ...","text":"出かけてて地震があったことすら気付かず、帰ってテレビを付けて初めてびっくりしました。自分に何ができるかって考えて、無力さに嫌気がさします。ですが、一つずつ見つけてしたいと思います。被災地の方、一人一人みんなで支え合って気を強くもってがんばってください。こちらでもできることを探したいと思います。 03-12 14:54:32","label":"出かけてて地震があったことすら気付かず、帰ってテレビを付けて初めてびっくりしまし...","desc":"<p class=\"tweettext\">出かけてて地震があったことすら気付かず、帰ってテレビを付けて初めてびっくりしました。自分に何ができるかって考えて、無力さに嫌気がさします。ですが、一つずつ見つけてしたいと思います。被災地の方、一人一人みんなで支え合って気を強くもってがんばってください。こちらでもできることを探したいと思います。</p><p class=\"time\">03-12 14:54:32</p>","lon":135.27528,"lat":34.36083,"img":"megaphone.png"},{"id":"weathernews7285","name":"２０階以上のビルで仕事をしていました。長い間大きくゆっくりと揺れていました。余震も含めると５回以上揺れたのではないでしょうか。事務所内の物損はないです。立ってら...","text":"２０階以上のビルで仕事をしていました。長い間大きくゆっくりと揺れていました。余震も含めると５回以上揺れたのではないでしょうか。事務所内の物損はないです。立ってられない状況でした。船酔いの感覚です。２階では何もなかったようです。エレベーターは全基停止。１８時頃一基復旧してました。非常階段を利用しました。非常階段の５階で壁が15センチ四方ほど剥がれ落ちていました。力がかかっていたものと思います。広域の場合、エレベーター保守業者の対応が間に合わないと思います。 03-12 14:55:10","label":"２０階以上のビルで仕事をしていました。長い間大きくゆっくりと揺れていました。余震...","desc":"<p class=\"tweettext\">２０階以上のビルで仕事をしていました。長い間大きくゆっくりと揺れていました。余震も含めると５回以上揺れたのではないでしょうか。事務所内の物損はないです。立ってられない状況でした。船酔いの感覚です。２階では何もなかったようです。エレベーターは全基停止。１８時頃一基復旧してました。非常階段を利用しました。非常階段の５階で壁が15センチ四方ほど剥がれ落ちていました。力がかかっていたものと思います。広域の場合、エレベーター保守業者の対応が間に合わないと思います。</p><p class=\"time\">03-12 14:55:10</p>","lon":135.50217,"lat":34.69395,"img":"megaphone.png"},{"id":"weathernews7304","name":"こちらは、穏やかないいお天気です。今回の地震での、津波の恐ろしさをしりました。 03-12 14:56:59","text":"こちらは、穏やかないいお天気です。今回の地震での、津波の恐ろしさをしりました。 03-12 14:56:59","label":"こちらは、穏やかないいお天気です。今回の地震での、津波の恐ろしさをしりました。 ...","desc":"<p class=\"tweettext\">こちらは、穏やかないいお天気です。今回の地震での、津波の恐ろしさをしりました。</p><p class=\"time\">03-12 14:56:59</p>","lon":135.54584,"lat":34.72194,"img":"megaphone.png"},{"id":"weathernews7334","name":"揺れの影響はない 03-12 14:59:44","text":"揺れの影響はない 03-12 14:59:44","label":"揺れの影響はない 03-12 14:59:44","desc":"<p class=\"tweettext\">揺れの影響はない</p><p class=\"time\">03-12 14:59:44</p>","lon":135.62083,"lat":34.58917,"img":"megaphone.png"},{"id":"weathernews7386","name":"長い横揺れ以外、問題なし。揺れてる時、私地震、目眩で寝込んでいたので、地震と気が付くのが遅かったです。家族は、船酔いのようで、気分が悪いと言ってました。被害を受...","text":"長い横揺れ以外、問題なし。揺れてる時、私地震、目眩で寝込んでいたので、地震と気が付くのが遅かったです。家族は、船酔いのようで、気分が悪いと言ってました。被害を受けられた方々、心からお見舞い、そしてお悔やみを申し上げます。 03-12 15:04:38","label":"長い横揺れ以外、問題なし。揺れてる時、私地震、目眩で寝込んでいたので、地震と気が...","desc":"<p class=\"tweettext\">長い横揺れ以外、問題なし。揺れてる時、私地震、目眩で寝込んでいたので、地震と気が付くのが遅かったです。家族は、船酔いのようで、気分が悪いと言ってました。被害を受けられた方々、心からお見舞い、そしてお悔やみを申し上げます。</p><p class=\"time\">03-12 15:04:38</p>","lon":135.3614,"lat":34.72884,"img":"megaphone.png"},{"id":"weathernews7405","name":"揺れにより水道管が破裂。横揺れ 03-12 15:06:51","text":"揺れにより水道管が破裂。横揺れ 03-12 15:06:51","label":"揺れにより水道管が破裂。横揺れ 03-12 15:06:51","desc":"<p class=\"tweettext\">揺れにより水道管が破裂。横揺れ</p><p class=\"time\">03-12 15:06:51</p>","lon":135.55305,"lat":34.68972,"img":"megaphone.png"},{"id":"weathernews7541","name":"被害は何もありません 03-12 15:20:35","text":"被害は何もありません 03-12 15:20:35","label":"被害は何もありません 03-12 15:20:35","desc":"<p class=\"tweettext\">被害は何もありません</p><p class=\"time\">03-12 15:20:35</p>","lon":135.58278,"lat":34.84444,"img":"megaphone.png"},{"id":"weathernews7597","name":"今までに体感したことの無い地震でした。ゆっくりと長い間揺れてました。水槽の水が波打ってました。怖かった 03-12 15:30:12","text":"今までに体感したことの無い地震でした。ゆっくりと長い間揺れてました。水槽の水が波打ってました。怖かった 03-12 15:30:12","label":"今までに体感したことの無い地震でした。ゆっくりと長い間揺れてました。水槽の水が波...","desc":"<p class=\"tweettext\">今までに体感したことの無い地震でした。ゆっくりと長い間揺れてました。水槽の水が波打ってました。怖かった </p><p class=\"time\">03-12 15:30:12</p>","lon":135.60806,"lat":34.7525,"img":"megaphone.png"},{"id":"weathernews7618","name":"地震発生時は外出中で、建物の中に居ましたが、揺れを感じてからもしばらく揺れが続くため、一人でその建物の出口付近に移動しました。建物の備え付けのテレビで地震発生直...","text":"地震発生時は外出中で、建物の中に居ましたが、揺れを感じてからもしばらく揺れが続くため、一人でその建物の出口付近に移動しました。建物の備え付けのテレビで地震発生直後から暫く中継を見ていました。地域的に阪神大震災を経験されてる方が多く、周りも不安になられてた方は多かったのですが、冷静な周囲のスタッフの方々の判断や処置もあり、阪神大震災を知らない世代も増えたせいもあるのか…平穏な空気も同時に紛れてました。《ここからは私の個人的な状況です》現在県営住宅に住み。数年前から隣に建て直された新しい高層県営住宅に移り変わる予定でしたが。新設県営住宅に移る条件に対し年間所得額上限をオーバーしてしまい移ることも出来ず、仕事の定年まであと僅かしかなくマンション等には引っ越せる経済的余裕もないので現在の住宅に残り住んでます。現在半数以上の方が新設高層住宅に移り住み住宅の半分以上が空き家状態。住宅の件数より残り住んでる方が少ないため情報も交換できない状態です。昭和40年築の現在の住まいは老朽化があらゆる所で解り不安で仕方ないです。今回のこの地域でのもっとも強い震度は３でしたが、住宅の一階の地面にはひび割れが入りました。数年前、隣接する隣の新高層住宅の建て替え工事の間、毎日が地震の様な揺れを感じてましたが、近隣の住宅にお住まいの方は一切の揺れも感じなかったと聞きました。この事から私の住んでる現在の住宅は基礎等が弱いことが解ります。阪神大震災も経験してるのですが最近は地震が起きる度、毎回これはかなり大きい地震だと感じるのですが、テレビでは震度１と発表されていいます年々私の住まいの住宅の揺れ方が酷くなってきてるのではとも思ってしまいます。私達家族は、大きな揺れがある度に外に出るようにしています。自主的に最低限の必要なものを纏めて持ち出せるように用意しています。今回大きな被災に合われた東北地方の皆様、テレビを見ていて心苦しいです。一人でも多くの方が救出されることを願ってます。今回の大震災の復興が終わった後で充分です。その時…耐震の事について。私たちの様な状況での住まいの者の事も考えてもらえたらと思います。lt; brgt; 03-12 15:32:04","label":"地震発生時は外出中で、建物の中に居ましたが、揺れを感じてからもしばらく揺れが続く...","desc":"<p class=\"tweettext\">地震発生時は外出中で、建物の中に居ましたが、揺れを感じてからもしばらく揺れが続くため、一人でその建物の出口付近に移動しました。建物の備え付けのテレビで地震発生直後から暫く中継を見ていました。地域的に阪神大震災を経験されてる方が多く、周りも不安になられてた方は多かったのですが、冷静な周囲のスタッフの方々の判断や処置もあり、阪神大震災を知らない世代も増えたせいもあるのか…平穏な空気も同時に紛れてました。《ここからは私の個人的な状況です》現在県営住宅に住み。数年前から隣に建て直された新しい高層県営住宅に移り変わる予定でしたが。新設県営住宅に移る条件に対し年間所得額上限をオーバーしてしまい移ることも出来ず、仕事の定年まであと僅かしかなくマンション等には引っ越せる経済的余裕もないので現在の住宅に残り住んでます。現在半数以上の方が新設高層住宅に移り住み住宅の半分以上が空き家状態。住宅の件数より残り住んでる方が少ないため情報も交換できない状態です。昭和40年築の現在の住まいは老朽化があらゆる所で解り不安で仕方ないです。今回のこの地域でのもっとも強い震度は３でしたが、住宅の一階の地面にはひび割れが入りました。数年前、隣接する隣の新高層住宅の建て替え工事の間、毎日が地震の様な揺れを感じてましたが、近隣の住宅にお住まいの方は一切の揺れも感じなかったと聞きました。この事から私の住んでる現在の住宅は基礎等が弱いことが解ります。阪神大震災も経験してるのですが最近は地震が起きる度、毎回これはかなり大きい地震だと感じるのですが、テレビでは震度１と発表されていいます年々私の住まいの住宅の揺れ方が酷くなってきてるのではとも思ってしまいます。私達家族は、大きな揺れがある度に外に出るようにしています。自主的に最低限の必要なものを纏めて持ち出せるように用意しています。今回大きな被災に合われた東北地方の皆様、テレビを見ていて心苦しいです。一人でも多くの方が救出されることを願ってます。今回の大震災の復興が終わった後で充分です。その時…耐震の事について。私たちの様な状況での住まいの者の事も考えてもらえたらと思います。lt;\nbrgt;</p><p class=\"time\">03-12 15:32:04</p>","lon":135.44313,"lat":34.73444,"img":"megaphone.png"},{"id":"weathernews7652","name":"地震というよりは、めまいかな？っていう、ユックリなユーラユーラと揺れでした。揺れの時間は長く、周りをみてカーテンや電気のひもが揺れてるのをみて、ようやく地震とわ...","text":"地震というよりは、めまいかな？っていう、ユックリなユーラユーラと揺れでした。揺れの時間は長く、周りをみてカーテンや電気のひもが揺れてるのをみて、ようやく地震とわかりました。子供は学校からの帰り道でしたが、ちょうど歩道橋の上にいたらしく、揺れに気づいたようです。外を歩く人は地震に気づかない人がほとんどでした。特に地震の影響はありません。 03-12 15:36:12","label":"地震というよりは、めまいかな？っていう、ユックリなユーラユーラと揺れでした。揺れ...","desc":"<p class=\"tweettext\">地震というよりは、めまいかな？っていう、ユックリなユーラユーラと揺れでした。揺れの時間は長く、周りをみてカーテンや電気のひもが揺れてるのをみて、ようやく地震とわかりました。子供は学校からの帰り道でしたが、ちょうど歩道橋の上にいたらしく、揺れに気づいたようです。外を歩く人は地震に気づかない人がほとんどでした。特に地震の影響はありません。 </p><p class=\"time\">03-12 15:36:12</p>","lon":135.47083,"lat":34.77778,"img":"megaphone.png"},{"id":"weathernews7658","name":"緩やかに気味悪く横にしばらくの間揺れました。揺れの時間が長かったので、どこかで大きな地震があったのだとすぐ感じました。物が落下などはありませんでしたが、カーテン...","text":"緩やかに気味悪く横にしばらくの間揺れました。揺れの時間が長かったので、どこかで大きな地震があったのだとすぐ感じました。物が落下などはありませんでしたが、カーテンもしばらく揺れていました。自宅は賃貸マンション6階です。 03-12 15:37:36","label":"緩やかに気味悪く横にしばらくの間揺れました。揺れの時間が長かったので、どこかで大...","desc":"<p class=\"tweettext\">緩やかに気味悪く横にしばらくの間揺れました。揺れの時間が長かったので、どこかで大きな地震があったのだとすぐ感じました。物が落下などはありませんでしたが、カーテンもしばらく揺れていました。自宅は賃貸マンション6階です。</p><p class=\"time\">03-12 15:37:36</p>","lon":135.56857,"lat":34.81633,"img":"megaphone.png"},{"id":"weathernews7660","name":"先ほどまで屋久島にいましたが、津波警報の影響で鹿児島行のフェリーが運休になっていました。 03-12 15:37:57","text":"先ほどまで屋久島にいましたが、津波警報の影響で鹿児島行のフェリーが運休になっていました。 03-12 15:37:57","label":"先ほどまで屋久島にいましたが、津波警報の影響で鹿児島行のフェリーが運休になってい...","desc":"<p class=\"tweettext\">先ほどまで屋久島にいましたが、津波警報の影響で鹿児島行のフェリーが運休になっていました。</p><p class=\"time\">03-12 15:37:57</p>","lon":135.49284,"lat":34.66904,"img":"megaphone.png"},{"id":"weathernews7686","name":"東北地震の地震速報のほぼ５分後弱に一分ほど横に揺れた。 03-12 15:42:57","text":"東北地震の地震速報のほぼ５分後弱に一分ほど横に揺れた。 03-12 15:42:57","label":"東北地震の地震速報のほぼ５分後弱に一分ほど横に揺れた。 03-12 15:42:...","desc":"<p class=\"tweettext\">東北地震の地震速報のほぼ５分後弱に一分ほど横に揺れた。</p><p class=\"time\">03-12 15:42:57</p>","lon":135.52861,"lat":34.61667,"img":"megaphone.png"},{"id":"weathernews7728","name":"全国の消防車てはいしなさい 03-12 15:48:58","text":"全国の消防車てはいしなさい 03-12 15:48:58","label":"全国の消防車てはいしなさい 03-12 15:48:58","desc":"<p class=\"tweettext\">全国の消防車てはいしなさい</p><p class=\"time\">03-12 15:48:58</p>","lon":135.30086,"lat":34.72264,"img":"megaphone.png"},{"id":"weathernews7769","name":"地震発生時、職員室にいました。ふわ−っと船のような揺れがしばらく続き、気持ち悪かったです。みんなが貧血、目眩のようだと感じていました。蛍光灯から下がった紐がぶら...","text":"地震発生時、職員室にいました。ふわ−っと船のような揺れがしばらく続き、気持ち悪かったです。みんなが貧血、目眩のようだと感じていました。蛍光灯から下がった紐がぶらぶらと揺れていて、地震だと実感しました。子どもは園バスで送迎中でしたが、車内では地震とは気付かなかったようです。 03-12 15:55:28","label":"地震発生時、職員室にいました。ふわ−っと船のような揺れがしばらく続き、気持ち悪か...","desc":"<p class=\"tweettext\">地震発生時、職員室にいました。ふわ−っと船のような揺れがしばらく続き、気持ち悪かったです。みんなが貧血、目眩のようだと感じていました。蛍光灯から下がった紐がぶらぶらと揺れていて、地震だと実感しました。子どもは園バスで送迎中でしたが、車内では地震とは気付かなかったようです。</p><p class=\"time\">03-12 15:55:28</p>","lon":135.56612,"lat":34.84389,"img":"megaphone.png"},{"id":"weathernews7789","name":"運転中だったので地震に気付かなかった。中学生で阪神地震にあい，友達が亡くなったり，親友の転校，生活の変化で辛い思いもしましたが，よいことも体験できました。避難者...","text":"運転中だったので地震に気付かなかった。中学生で阪神地震にあい，友達が亡くなったり，親友の転校，生活の変化で辛い思いもしましたが，よいことも体験できました。避難者を受け入れた教員がトイレの水として寒い中プールから水をくんできてくれていたり，対応に追われていました。教員も被災者です。しっかり休んでください。またヒマしてる若者はどんどんボランティアですよ。辛いでしょうが頑張りましょう。応援します！！ 03-12 15:57:45","label":"運転中だったので地震に気付かなかった。中学生で阪神地震にあい，友達が亡くなったり...","desc":"<p class=\"tweettext\">運転中だったので地震に気付かなかった。中学生で阪神地震にあい，友達が亡くなったり，親友の転校，生活の変化で辛い思いもしましたが，よいことも体験できました。避難者を受け入れた教員がトイレの水として寒い中プールから水をくんできてくれていたり，対応に追われていました。教員も被災者です。しっかり休んでください。またヒマしてる若者はどんどんボランティアですよ。辛いでしょうが頑張りましょう。応援します！！</p><p class=\"time\">03-12 15:57:45</p>","lon":135.13013,"lat":34.65033,"img":"megaphone.png"},{"id":"weathernews7796","name":"地震発生時は車の運転中で気付かず。すぐにラジオで巨大地震であることを知りました。事務所に戻ると、座っていた人達はゆっくりとした横揺れで、気持ちが悪かったと表現し...","text":"地震発生時は車の運転中で気付かず。すぐにラジオで巨大地震であることを知りました。事務所に戻ると、座っていた人達はゆっくりとした横揺れで、気持ちが悪かったと表現しました。阪神百貨店梅田本店で働く妹は、初め目眩かと思ったと。しかし地震と気付き、近くの棚につかまり過ぎるのを待ったと言っていました。私が経験したのは阪神淡路大震災の震度5。被災された方々には心からお見舞いを申し上げます。今は何もできず本当に心が痛いです。必ず何らかの形で応援させていただきますね。 03-12 15:59:05","label":"地震発生時は車の運転中で気付かず。すぐにラジオで巨大地震であることを知りました。...","desc":"<p class=\"tweettext\">地震発生時は車の運転中で気付かず。すぐにラジオで巨大地震であることを知りました。事務所に戻ると、座っていた人達はゆっくりとした横揺れで、気持ちが悪かったと表現しました。阪神百貨店梅田本店で働く妹は、初め目眩かと思ったと。しかし地震と気付き、近くの棚につかまり過ぎるのを待ったと言っていました。私が経験したのは阪神淡路大震災の震度5。被災された方々には心からお見舞いを申し上げます。今は何もできず本当に心が痛いです。必ず何らかの形で応援させていただきますね。</p><p class=\"time\">03-12 15:59:05</p>","lon":135.61734,"lat":34.8461,"img":"megaphone.png"},{"id":"weathernews7839","name":"床に横になってて風鈴がなって揺れに気付きました 03-12 16:04:57","text":"床に横になってて風鈴がなって揺れに気付きました 03-12 16:04:57","label":"床に横になってて風鈴がなって揺れに気付きました 03-12 16:04:57","desc":"<p class=\"tweettext\">床に横になってて風鈴がなって揺れに気付きました</p><p class=\"time\">03-12 16:04:57</p>","lon":135.58556,"lat":34.61583,"img":"megaphone.png"},{"id":"weathernews7886","name":"大丈夫です 03-12 16:11:07","text":"大丈夫です 03-12 16:11:07","label":"大丈夫です 03-12 16:11:07","desc":"<p class=\"tweettext\">大丈夫です</p><p class=\"time\">03-12 16:11:07</p>","lon":135.52943,"lat":34.71306,"img":"megaphone.png"},{"id":"weathernews7907","name":"被害はなかったものの、職場の鉄筋コンクリート製ビルが長周期でかなり揺れました。古い建物等は念の為一通り点検される事をおすすめしたい。 03-12 16:13:4...","text":"被害はなかったものの、職場の鉄筋コンクリート製ビルが長周期でかなり揺れました。古い建物等は念の為一通り点検される事をおすすめしたい。 03-12 16:13:48","label":"被害はなかったものの、職場の鉄筋コンクリート製ビルが長周期でかなり揺れました。古...","desc":"<p class=\"tweettext\">被害はなかったものの、職場の鉄筋コンクリート製ビルが長周期でかなり揺れました。古い建物等は念の為一通り点検される事をおすすめしたい。</p><p class=\"time\">03-12 16:13:48</p>","lon":135.06155,"lat":34.63859,"img":"megaphone.png"},{"id":"weathernews7958","name":"揺れは、感じましたが、被害無いです。神奈川と東京に、父の知り合いがいるのですが、まだ連絡が取れていません 心配です 03-12 16:23:22","text":"揺れは、感じましたが、被害無いです。神奈川と東京に、父の知り合いがいるのですが、まだ連絡が取れていません 心配です 03-12 16:23:22","label":"揺れは、感じましたが、被害無いです。神奈川と東京に、父の知り合いがいるのですが、...","desc":"<p class=\"tweettext\">揺れは、感じましたが、被害無いです。神奈川と東京に、父の知り合いがいるのですが、まだ連絡が取れていません 心配です   </p><p class=\"time\">03-12 16:23:22</p>","lon":135.61667,"lat":34.64611,"img":"megaphone.png"},{"id":"weathernews7974","name":"オフィス街の高層ビルが激しく揺れました。社内がミシミシときしみ、フラフラして歩けない揺れでした。壁のペンキ塗装が落ちていたり、ヒビもみつかったそうです。これが震...","text":"オフィス街の高層ビルが激しく揺れました。社内がミシミシときしみ、フラフラして歩けない揺れでした。壁のペンキ塗装が落ちていたり、ヒビもみつかったそうです。これが震度3とは思えなかった。もっと大きな地震だと思ったらゾッとします。 03-12 16:27:12","label":"オフィス街の高層ビルが激しく揺れました。社内がミシミシときしみ、フラフラして歩け...","desc":"<p class=\"tweettext\">オフィス街の高層ビルが激しく揺れました。社内がミシミシときしみ、フラフラして歩けない揺れでした。壁のペンキ塗装が落ちていたり、ヒビもみつかったそうです。これが震度3とは思えなかった。もっと大きな地震だと思ったらゾッとします。</p><p class=\"time\">03-12 16:27:12</p>","lon":135.53833,"lat":34.71139,"img":"megaphone.png"},{"id":"weathernews7977","name":"異常なし！ 03-12 16:27:34","text":"異常なし！ 03-12 16:27:34","label":"異常なし！ 03-12 16:27:34","desc":"<p class=\"tweettext\">異常なし！</p><p class=\"time\">03-12 16:27:34</p>","lon":135.10001,"lat":34.66306,"img":"megaphone.png"},{"id":"weathernews8013","name":"会社の事務所は3階で、めまいかな？っていう感じからはじまって、ゆっくり船のように揺れました。最初の震度7は東西方向にブラインドが揺れていましたが、茨城沖のときは...","text":"会社の事務所は3階で、めまいかな？っていう感じからはじまって、ゆっくり船のように揺れました。最初の震度7は東西方向にブラインドが揺れていましたが、茨城沖のときは南北方向に揺れました。 03-12 16:35:06","label":"会社の事務所は3階で、めまいかな？っていう感じからはじまって、ゆっくり船のように...","desc":"<p class=\"tweettext\">会社の事務所は3階で、めまいかな？っていう感じからはじまって、ゆっくり船のように揺れました。最初の震度7は東西方向にブラインドが揺れていましたが、茨城沖のときは南北方向に揺れました。</p><p class=\"time\">03-12 16:35:06</p>","lon":135.54916,"lat":34.69889,"img":"megaphone.png"},{"id":"weathernews8030","name":"今の所､以上なし 03-12 16:37:50","text":"今の所､以上なし 03-12 16:37:50","label":"今の所､以上なし 03-12 16:37:50","desc":"<p class=\"tweettext\">今の所､以上なし</p><p class=\"time\">03-12 16:37:50</p>","lon":135.50389,"lat":34.74361,"img":"megaphone.png"},{"id":"weathernews8070","name":"ゆっくりと横に揺れていて、初めはめまいがしているのかと思いました。長く続くので周りを見るとハンガーなどが揺れていて、地震だと気づきました。特に物が動くことはなか...","text":"ゆっくりと横に揺れていて、初めはめまいがしているのかと思いました。長く続くので周りを見るとハンガーなどが揺れていて、地震だと気づきました。特に物が動くことはなかったのですが、よくある地震とは違う揺れ方だったので怖くなりました。気分が悪いと言っているこもいました。これ以上被害がひどくなりませんように。 03-12 16:47:13","label":"ゆっくりと横に揺れていて、初めはめまいがしているのかと思いました。長く続くので周...","desc":"<p class=\"tweettext\">ゆっくりと横に揺れていて、初めはめまいがしているのかと思いました。長く続くので周りを見るとハンガーなどが揺れていて、地震だと気づきました。特に物が動くことはなかったのですが、よくある地震とは違う揺れ方だったので怖くなりました。気分が悪いと言っているこもいました。これ以上被害がひどくなりませんように。</p><p class=\"time\">03-12 16:47:13</p>","lon":135.37582,"lat":34.7175,"img":"megaphone.png"},{"id":"weathernews8075","name":"ゆっくりと横に揺れていて、初めはめまいがしているのかと思いました。長く続くので周りを見るとハンガーなどが揺れていて、地震だと気づきました。特に物が動くことはなか...","text":"ゆっくりと横に揺れていて、初めはめまいがしているのかと思いました。長く続くので周りを見るとハンガーなどが揺れていて、地震だと気づきました。特に物が動くことはなかったのですが、よくある地震とは違う揺れ方だったので怖くなりました。気分が悪いと言っているこもいました。これ以上被害がひどくなりませんように。 03-12 16:48:13","label":"ゆっくりと横に揺れていて、初めはめまいがしているのかと思いました。長く続くので周...","desc":"<p class=\"tweettext\">ゆっくりと横に揺れていて、初めはめまいがしているのかと思いました。長く続くので周りを見るとハンガーなどが揺れていて、地震だと気づきました。特に物が動くことはなかったのですが、よくある地震とは違う揺れ方だったので怖くなりました。気分が悪いと言っているこもいました。これ以上被害がひどくなりませんように。</p><p class=\"time\">03-12 16:48:13</p>","lon":135.37582,"lat":34.7175,"img":"megaphone.png"},{"id":"weathernews8085","name":"軽く揺れているような感じが1分位続いてたと思います。歩いていたり車の中にいたりすると気がつかない揺れでした。被害は全くありません 03-12 16:49:31","text":"軽く揺れているような感じが1分位続いてたと思います。歩いていたり車の中にいたりすると気がつかない揺れでした。被害は全くありません 03-12 16:49:31","label":"軽く揺れているような感じが1分位続いてたと思います。歩いていたり車の中にいたりす...","desc":"<p class=\"tweettext\">軽く揺れているような感じが1分位続いてたと思います。歩いていたり車の中にいたりすると気がつかない揺れでした。被害は全くありません</p><p class=\"time\">03-12 16:49:31</p>","lon":135.62138,"lat":34.84056,"img":"megaphone.png"},{"id":"weathernews8172","name":"神戸も揺れました。阪神淡路大震災を思い出し、少しの揺れですが怖かったです。今回の地震の甚大さは胸が痛み、亡くなった方を思うと涙がでそうです。早く復興しますように...","text":"神戸も揺れました。阪神淡路大震災を思い出し、少しの揺れですが怖かったです。今回の地震の甚大さは胸が痛み、亡くなった方を思うと涙がでそうです。早く復興しますように。 03-12 17:02:17","label":"神戸も揺れました。阪神淡路大震災を思い出し、少しの揺れですが怖かったです。今回の...","desc":"<p class=\"tweettext\">神戸も揺れました。阪神淡路大震災を思い出し、少しの揺れですが怖かったです。今回の地震の甚大さは胸が痛み、亡くなった方を思うと涙がでそうです。早く復興しますように。</p><p class=\"time\">03-12 17:02:17</p>","lon":135.05309,"lat":34.66117,"img":"megaphone.png"},{"id":"weathernews8179","name":"ゆるやかだけど長時間横揺れを感じました!! 03-12 17:04:10","text":"ゆるやかだけど長時間横揺れを感じました!! 03-12 17:04:10","label":"ゆるやかだけど長時間横揺れを感じました!! 03-12 17:04:10","desc":"<p class=\"tweettext\">ゆるやかだけど長時間横揺れを感じました!!</p><p class=\"time\">03-12 17:04:10</p>","lon":135.47002,"lat":34.78109,"img":"megaphone.png"},{"id":"weathernews8195","name":"関東地区の電力供給不足により東京電力より本日17時45分頃より2時間程度電源供給が停止されるとの通達が会社の契約してるデータ管理会社から連絡が来ました！ 03-...","text":"関東地区の電力供給不足により東京電力より本日17時45分頃より2時間程度電源供給が停止されるとの通達が会社の契約してるデータ管理会社から連絡が来ました！ 03-12 17:06:41","label":"関東地区の電力供給不足により東京電力より本日17時45分頃より2時間程度電源供給...","desc":"<p class=\"tweettext\">関東地区の電力供給不足により東京電力より本日17時45分頃より2時間程度電源供給が停止されるとの通達が会社の契約してるデータ管理会社から連絡が来ました！</p><p class=\"time\">03-12 17:06:41</p>","lon":135.51083,"lat":34.56889,"img":"megaphone.png"},