{"version":1,"tile":"9/447/203","count":19,"reports":[{"id":"weathernews3733","name":"私たちは、ぜんせん地震なかったでした 03-12 08:40:01","text":"私たちは、ぜんせん地震なかったでした 03-12 08:40:01","desc":"<p class=\"tweettext\">私たちは、ぜんせん地震なかったでした</p><p class=\"time\">03-12 08:40:01</p>","lon":134.99016,"lat":34.79693,"img":"megaphone.png"},{"id":"weathernews3741","name":"私たちは、ぜんせん地震なかったでした 03-12 08:40:31","text":"私たちは、ぜんせん地震なかったでした 03-12 08:40:31","desc":"<p class=\"tweettext\">私たちは、ぜんせん地震なかったでした</p><p class=\"time\">03-12 08:40:31</p>","lon":134.99016,"lat":34.79693,"img":"megaphone.png"},{"id":"weathernews3838","name":"昨日の地震大変でしたね早く助けてあげて(gt;_lt;) 03-12 08:47:30","text":"昨日の地震大変でしたね早く助けてあげて(gt;_lt;) 03-12 08:47:30","desc":"<p class=\"tweettext\">昨日の地震大変でしたね早く助けてあげて(gt;_lt;)</p><p class=\"time\">03-12 08:47:30</p>","lon":134.99016,"lat":34.79693,"img":"megaphone.png"},{"id":"weathernews4022","name":"めまいを感じた様な揺れでした。被害はありません。 03-12 09:03:55","text":"めまいを感じた様な揺れでした。被害はありません。 03-12 09:03:55","desc":"<p class=\"tweettext\">めまいを感じた様な揺れでした。被害はありません。</p><p class=\"time\">03-12 09:03:55</p>","lon":134.96167,"lat":34.66139,"img":"megaphone.png"},{"id":"weathernews4055","name":"近畿も中央構造帯…徳島〜三重・滋賀・岐阜・長野まで動きっぱなし…相当負荷が掛かっている模様…… 注意 して下さい。 03-12 09:08:07","text":"近畿も中央構造帯…徳島〜三重・滋賀・岐阜・長野まで動きっぱなし…相当負荷が掛かっている模様…… 注意 して下さい。 03-12 09:08:07","desc":"<p class=\"tweettext\">近畿も中央構造帯…徳島〜三重・滋賀・岐阜・長野まで動きっぱなし…相当負荷が掛かっている模様…… 注意 して下さい。</p><p class=\"time\">03-12 09:08:07</p>","lon":134.96306,"lat":34.67111,"img":"megaphone.png"},{"id":"weathernews4200","name":"ふわふわしてめまいかなと勘違いするような揺れでした。津波などはないみたいです。 03-12 09:23:46","text":"ふわふわしてめまいかなと勘違いするような揺れでした。津波などはないみたいです。 03-12 09:23:46","desc":"<p class=\"tweettext\">ふわふわしてめまいかなと勘違いするような揺れでした。津波などはないみたいです。</p><p class=\"time\">03-12 09:23:46</p>","lon":134.96056,"lat":34.66806,"img":"megaphone.png"},{"id":"weathernews4286","name":"この辺りはまったく揺れがなく安心です。淡路島まで津波があると思うととても恐いです(gt;_lt;;) 03-12 09:33:57","text":"この辺りはまったく揺れがなく安心です。淡路島まで津波があると思うととても恐いです(gt;_lt;;) 03-12 09:33:57","desc":"<p class=\"tweettext\">この辺りはまったく揺れがなく安心です。淡路島まで津波があると思うととても恐いです(gt;_lt;;)</p><p class=\"time\">03-12 09:33:57</p>","lon":134.60083,"lat":34.86056,"img":"megaphone.png"},{"id":"weathernews5035","name":"公共交通についてお知らせ致します 娘が千葉県から東京駅に移動中私鉄（京成線）は東京に向かうに従い混み合って来てＪＲに乗り換えて東京駅に向かう途中千葉県市川市を抜...","text":"公共交通についてお知らせ致します 娘が千葉県から東京駅に移動中私鉄（京成線）は東京に向かうに従い混み合って来てＪＲに乗り換えて東京駅に向かう途中千葉県市川市を抜けるまでに徐行運転でのろのろ状態が続き 都内に入ってからはスムーズに東京駅まで行けました 地下ホームから東京駅地上に上がるエスカレーターはいつもの速度よりは、若干遅く地上に着いたら山手線が運転再開など昨日帰れなかった人達が仮眠を取って休んでいたり、また帰宅難民の人達が帰り始めたりして東京駅校内はごった返していると娘からの情報でした 東海道新幹線に乗る為に券売機は発売は出来ずどうも手渡しでチケットを販売しているようだと娘からの話しでした 皆さん慌てずに落ち着いて行動して下さい 東京駅校内の売店の食べ物は既になく水などは有る模様 03-12 11:08:47","desc":"<p class=\"tweettext\">公共交通についてお知らせ致します 娘が千葉県から東京駅に移動中私鉄（京成線）は東京に向かうに従い混み合って来てＪＲに乗り換えて東京駅に向かう途中千葉県市川市を抜けるまでに徐行運転でのろのろ状態が続き 都内に入ってからはスムーズに東京駅まで行けました 地下ホームから東京駅地上に上がるエスカレーターはいつもの速度よりは、若干遅く地上に着いたら山手線が運転再開など昨日帰れなかった人達が仮眠を取って休んでいたり、また帰宅難民の人達が帰り始めたりして東京駅校内はごった返していると娘からの情報でした 東海道新幹線に乗る為に券売機は発売は出来ずどうも手渡しでチケットを販売しているようだと娘からの話しでした 皆さん慌てずに落ち着いて行動して下さい 東京駅校内の売店の食べ物は既になく水などは有る模様 </p><p class=\"time\">03-12 11:08:47</p>","lon":134.69695,"lat":34.85667,"img":"megaphone.png"},{"id":"weathernews5154","name":"あまり揺れなかった昨日午後７時半ごろから一部メールの受信ができなかった 03-12 11:29:51","text":"あまり揺れなかった昨日午後７時半ごろから一部メールの受信ができなかった 03-12 11:29:51","desc":"<p class=\"tweettext\">あまり揺れなかった昨日午後７時半ごろから一部メールの受信ができなかった</p><p class=\"time\">03-12 11:29:51</p>","lon":134.78612,"lat":34.79944,"img":"megaphone.png"},{"id":"weathernews5218","name":"TVの報道を見てとても心配です。 03-12 11:41:30","text":"TVの報道を見てとても心配です。 03-12 11:41:30","desc":"<p class=\"tweettext\">TVの報道を見てとても心配です。</p><p class=\"time\">03-12 11:41:30</p>","lon":134.58466,"lat":34.8219,"img":"megaphone.png"},{"id":"weathernews5442","name":"携帯のめーる受信が出来なくなっていました 03-12 12:22:33","text":"携帯のめーる受信が出来なくなっていました 03-12 12:22:33","desc":"<p class=\"tweettext\">携帯のめーる受信が出来なくなっていました</p><p class=\"time\">03-12 12:22:33</p>","lon":134.67027,"lat":34.83472,"img":"megaphone.png"},{"id":"weathernews5468","name":"大津波警報が出ているが一部通行止めになっている地域もあったが特に大きな被害がでているわけではない 03-12 12:27:13","text":"大津波警報が出ているが一部通行止めになっている地域もあったが特に大きな被害がでているわけではない 03-12 12:27:13","desc":"<p class=\"tweettext\">大津波警報が出ているが一部通行止めになっている地域もあったが特に大きな被害がでているわけではない</p><p class=\"time\">03-12 12:27:13</p>","lon":134.89577,"lat":34.43505,"img":"megaphone.png"},{"id":"weathernews6044","name":"今､出来ること…不要不急のﾘﾎﾟｰﾄを慎み､安否確認のような質問を止めること 本当に､このｻｲﾄを必要とする人の為にｻｰﾊﾞｰ負担を減らそう WNIは被災 集め...","text":"今､出来ること…不要不急のﾘﾎﾟｰﾄを慎み､安否確認のような質問を止めること 本当に､このｻｲﾄを必要とする人の為にｻｰﾊﾞｰ負担を減らそう WNIは被災 集めは止めてﾗｲﾌﾗｲﾝ状況の提供に最善を尽くせ 被災現場に むけてｼｬｯﾀｰ押せる奴はそうは居ない。報道ｶﾒﾗﾏﾝに任せば良い 17年前を振り返り､こう思う。みんな、負けるなよ 03-12 13:29:59","desc":"<p class=\"tweettext\">今､出来ること…不要不急のﾘﾎﾟｰﾄを慎み､安否確認のような質問を止めること 本当に､このｻｲﾄを必要とする人の為にｻｰﾊﾞｰ負担を減らそう WNIは被災 集めは止めてﾗｲﾌﾗｲﾝ状況の提供に最善を尽くせ 被災現場に むけてｼｬｯﾀｰ押せる奴はそうは居ない。報道ｶﾒﾗﾏﾝに任せば良い 17年前を振り返り､こう思う。みんな、負けるなよ  </p><p class=\"time\">03-12 13:29:59</p>","lon":134.72641,"lat":34.8407,"img":"megaphone.png"},{"id":"weathernews6134","name":"ここは震度３でしたが、その時は電車に乗っていたので分かりませんでした。でも電車は少し遅れてました。帰宅後地震と知りました。その後、８時前までメールが届かず、８時...","text":"ここは震度３でしたが、その時は電車に乗っていたので分かりませんでした。でも電車は少し遅れてました。帰宅後地震と知りました。その後、８時前までメールが届かず、８時に７通一気に受信しました。物的被害はありませんでした。 03-12 13:34:23","desc":"<p class=\"tweettext\">ここは震度３でしたが、その時は電車に乗っていたので分かりませんでした。でも電車は少し遅れてました。帰宅後地震と知りました。その後、８時前までメールが届かず、８時に７通一気に受信しました。物的被害はありませんでした。</p><p class=\"time\">03-12 13:34:23</p>","lon":134.9005,"lat":34.72,"img":"megaphone.png"},{"id":"weathernews6969","name":"地震発生時は少し揺れただけで、特に被害はなし。 03-12 14:29:22","text":"地震発生時は少し揺れただけで、特に被害はなし。 03-12 14:29:22","desc":"<p class=\"tweettext\">地震発生時は少し揺れただけで、特に被害はなし。</p><p class=\"time\">03-12 14:29:22</p>","lon":134.87361,"lat":34.71667,"img":"megaphone.png"},{"id":"weathernews7452","name":"昨日、仕事中に社屋が長い間カタカタと揺れました。しかし、各地に当社の営業が活動してたので、安否確認を行い、今朝までに全員無事を確認しました。北海道、秋田、仙台、...","text":"昨日、仕事中に社屋が長い間カタカタと揺れました。しかし、各地に当社の営業が活動してたので、安否確認を行い、今朝までに全員無事を確認しました。北海道、秋田、仙台、千葉、東京とテレビで被害が伝えられる所だったので安心しました。ただ、交通機関のマヒと車の方は給油ができないとの事で自宅にはなかなか帰れない状況です。あらためて、被災者の方々にお見舞い申し上げます。 03-12 15:11:37","desc":"<p class=\"tweettext\">昨日、仕事中に社屋が長い間カタカタと揺れました。しかし、各地に当社の営業が活動してたので、安否確認を行い、今朝までに全員無事を確認しました。北海道、秋田、仙台、千葉、東京とテレビで被害が伝えられる所だったので安心しました。ただ、交通機関のマヒと車の方は給油ができないとの事で自宅にはなかなか帰れない状況です。あらためて、被災者の方々にお見舞い申し上げます。</p><p class=\"time\">03-12 15:11:37</p>","lon":134.90128,"lat":34.69206,"img":"megaphone.png"},{"id":"weathernews7575","name":"地震発生時、東北楽天ー千葉ロッテのオープン戦を観戦していました揺れは感じなかったものの７回の表が終わった時に地震が発生したことを知りました試合も８回表で打ちきり...","text":"地震発生時、東北楽天ー千葉ロッテのオープン戦を観戦していました揺れは感じなかったものの７回の表が終わった時に地震が発生したことを知りました試合も８回表で打ちきりとなりました被災された方々のご無事を祈っています 03-12 15:26:49","desc":"<p class=\"tweettext\">地震発生時、東北楽天ー千葉ロッテのオープン戦を観戦していました揺れは感じなかったものの７回の表が終わった時に地震が発生したことを知りました試合も８回表で打ちきりとなりました被災された方々のご無事を祈っています</p><p class=\"time\">03-12 15:26:49</p>","lon":134.99753,"lat":34.6431,"img":"megaphone.png"},{"id":"weathernews8318","name":"特に影響はありません。 03-12 17:33:29","text":"特に影響はありません。 03-12 17:33:29","desc":"<p class=\"tweettext\">特に影響はありません。</p><p class=\"time\">03-12 17:33:29</p>","lon":134.91081,"lat":34.69706,"img":"megaphone.png"},{"id":"weathernews9144","name":"兵庫県明石市影響なし被災地の皆様が一日も早く普段の生活に戻れますようお祈り致します 03-12 21:13:16","text":"兵庫県明石市影響なし被災地の皆様が一日も早く普段の生活に戻れますようお祈り致します 03-12 21:13:16","desc":"<p class=\"tweettext\">兵庫県明石市影響なし被災地の皆様が一日も早く普段の生活に戻れますようお祈り致します</p><p class=\"time\">03-12 21:13:16</p>","lon":134.93594,"lat":34.68206,"img":"megaphone.png"}]}