{"version":1,"tile":"9/457/193","count":7,"reports":[{"id":"weathernews17","name":"余震はおさまりましたが津波はまだ来襲さているようです。停電に断水で車に避難し過ごしている様子もうかがえました。ローソクと懐中電灯で暗いです。コンビニもしまってい...","text":"余震はおさまりましたが津波はまだ来襲さているようです。停電に断水で車に避難し過ごしている様子もうかがえました。ローソクと懐中電灯で暗いです。コンビニもしまっているため食料が心配です。 03-12 01:07:44","desc":"<p class=\"tweettext\">余震はおさまりましたが津波はまだ来襲さているようです。停電に断水で車に避難し過ごしている様子もうかがえました。ローソクと懐中電灯で暗いです。コンビニもしまっているため食料が心配です。</p><p class=\"time\">03-12 01:07:44</p>","lon":141.76526,"lat":40.26031,"img":"megaphone.png"},{"id":"weathernews2875","name":"家が崩れていた 03-12 07:55:29","text":"家が崩れていた 03-12 07:55:29","desc":"<p class=\"tweettext\">家が崩れていた</p><p class=\"time\">03-12 07:55:29</p>","lon":141.45998,"lat":40.01916,"img":"megaphone.png"},{"id":"weathernews8133","name":"docomo携帯は電話以外はすぐに繋がります。途中立ち寄った土風館の女子ﾄｲﾚは使用禁止になっています。男子ﾄｲﾚは使用できるようです。土風館内のｽｰﾊﾟｰは開...","text":"docomo携帯は電話以外はすぐに繋がります。途中立ち寄った土風館の女子ﾄｲﾚは使用禁止になっています。男子ﾄｲﾚは使用できるようです。土風館内のｽｰﾊﾟｰは開いていますが残っているのは飲み物とお菓子、果物など。ご飯やﾊﾟﾝやｶｯﾌﾟ麺などはありません。大川目方面のｶﾞｿﾘﾝｽﾀﾝﾄﾞ開いていますが１０ﾘｯﾀｰまでです。混雑してます。 03-12 16:56:27","desc":"<p class=\"tweettext\">docomo携帯は電話以外はすぐに繋がります。途中立ち寄った土風館の女子ﾄｲﾚは使用禁止になっています。男子ﾄｲﾚは使用できるようです。土風館内のｽｰﾊﾟｰは開いていますが残っているのは飲み物とお菓子、果物など。ご飯やﾊﾟﾝやｶｯﾌﾟ麺などはありません。大川目方面のｶﾞｿﾘﾝｽﾀﾝﾄﾞ開いていますが１０ﾘｯﾀｰまでです。混雑してます。</p><p class=\"time\">03-12 16:56:27</p>","lon":141.72639,"lat":40.1868,"img":"megaphone.png"},{"id":"weathernews9111","name":"停電・断水がまだ続いています。水を久慈中にもらいに行った方は３時間30分も待ったとか…。予震もまだ続いてます。情報頼れるのはラジオしかありません。野田も壊滅的だ...","text":"停電・断水がまだ続いています。水を久慈中にもらいに行った方は３時間30分も待ったとか…。予震もまだ続いてます。情報頼れるのはラジオしかありません。野田も壊滅的だとか…まだまだ油断出来ません。お年寄りの家などは声を掛けたり水を分けてあげましょう！出来るだけ１人にはしないであげてください！ 03-12 21:03:35","desc":"<p class=\"tweettext\">停電・断水がまだ続いています。水を久慈中にもらいに行った方は３時間30分も待ったとか…。予震もまだ続いてます。情報頼れるのはラジオしかありません。野田も壊滅的だとか…まだまだ油断出来ません。お年寄りの家などは声を掛けたり水を分けてあげましょう！出来るだけ１人にはしないであげてください！</p><p class=\"time\">03-12 21:03:35</p>","lon":141.71451,"lat":40.18154,"img":"megaphone.png"},{"id":"weathernews9187","name":"気になって、久慈新港へ行ってみました。想像を絶する被害で驚きました。大型トラックまで流れてたのは愕然としました。 03-12 21:22:43","text":"気になって、久慈新港へ行ってみました。想像を絶する被害で驚きました。大型トラックまで流れてたのは愕然としました。 03-12 21:22:43","desc":"<p class=\"tweettext\">気になって、久慈新港へ行ってみました。想像を絶する被害で驚きました。大型トラックまで流れてたのは愕然としました。</p><p class=\"time\">03-12 21:22:43</p>","lon":141.76123,"lat":40.17497,"img":"megaphone.png"},{"id":"weathernews9329","name":"余震は減っていますが、まだたまに強い揺れ。ガス、水道は使えます。停電はまだ続いており、寒さに耐える日が続いてます。 03-12 21:59:44","text":"余震は減っていますが、まだたまに強い揺れ。ガス、水道は使えます。停電はまだ続いており、寒さに耐える日が続いてます。 03-12 21:59:44","desc":"<p class=\"tweettext\">余震は減っていますが、まだたまに強い揺れ。ガス、水道は使えます。停電はまだ続いており、寒さに耐える日が続いてます。</p><p class=\"time\">03-12 21:59:44</p>","lon":141.46312,"lat":40.31984,"img":"megaphone.png"},{"id":"weathernews9779","name":"先ほど、立て続けに大きな揺れがあり、その後携帯の大地震予報のブザーが2回もなったので急いで外に出ましたが、どうやら揺れが来てからブザーが鳴ったようです。今回のこ...","text":"先ほど、立て続けに大きな揺れがあり、その後携帯の大地震予報のブザーが2回もなったので急いで外に出ましたが、どうやら揺れが来てからブザーが鳴ったようです。今回のこの大地震の最初の揺れの時は確かに揺れの前にブザーが鳴ったのですが、今はもう携帯の電波も乱れているようでメールも遅れたり、GPSも使えません。停電がまだ続き、余震も頻繁な中、もっと正確な情報が欲しいものです。 03-12 23:35:02","desc":"<p class=\"tweettext\">先ほど、立て続けに大きな揺れがあり、その後携帯の大地震予報のブザーが2回もなったので急いで外に出ましたが、どうやら揺れが来てからブザーが鳴ったようです。今回のこの大地震の最初の揺れの時は確かに揺れの前にブザーが鳴ったのですが、今はもう携帯の電波も乱れているようでメールも遅れたり、GPSも使えません。停電がまだ続き、余震も頻繁な中、もっと正確な情報が欲しいものです。</p><p class=\"time\">03-12 23:35:02</p>","lon":141.46051,"lat":40.32683,"img":"megaphone.png"}]}