{"version":1,"tile":"9/453/198","count":37,"reports":[{"id":"weathernews353","name":"酔ってしまう程に長い横揺れが続きました。家屋等の被害は有りません。 03-12 02:27:03","text":"酔ってしまう程に長い横揺れが続きました。家屋等の被害は有りません。 03-12 02:27:03","desc":"<p class=\"tweettext\">酔ってしまう程に長い横揺れが続きました。家屋等の被害は有りません。</p><p class=\"time\">03-12 02:27:03</p>","lon":138.78326,"lat":37.60771,"img":"megaphone.png"},{"id":"weathernews652","name":"８の字を思わせる横揺れがありました。 03-12 04:04:51","text":"８の字を思わせる横揺れがありました。 03-12 04:04:51","desc":"<p class=\"tweettext\">８の字を思わせる横揺れがありました。</p><p class=\"time\">03-12 04:04:51</p>","lon":138.95348,"lat":37.61056,"img":"megaphone.png"},{"id":"weathernews708","name":"59分から四回ほど揺れてます。ガタガタガタ、と窓が揺れて、下から揺さ振られて、東西に揺れる感じです。14分前のは微弱な揺れが２、３分続きました。夫婦して子供抱き...","text":"59分から四回ほど揺れてます。ガタガタガタ、と窓が揺れて、下から揺さ振られて、東西に揺れる感じです。14分前のは微弱な揺れが２、３分続きました。夫婦して子供抱き締めました〜(*´∇｀) 03-12 04:16:44","desc":"<p class=\"tweettext\">59分から四回ほど揺れてます。ガタガタガタ、と窓が揺れて、下から揺さ振られて、東西に揺れる感じです。14分前のは微弱な揺れが２、３分続きました。夫婦して子供抱き締めました〜(*´∇｀)</p><p class=\"time\">03-12 04:16:44</p>","lon":138.7886,"lat":37.20639,"img":"megaphone.png"},{"id":"weathernews845","name":"４時頃と４時半頃大きな揺れありだが物が落下するまではいかない 03-12 04:42:06","text":"４時頃と４時半頃大きな揺れありだが物が落下するまではいかない 03-12 04:42:06","desc":"<p class=\"tweettext\">４時頃と４時半頃大きな揺れありだが物が落下するまではいかない</p><p class=\"time\">03-12 04:42:06</p>","lon":139.19276,"lat":37.69666,"img":"megaphone.png"},{"id":"weathernews866","name":"強い揺れがありましたが大丈夫でした大地震の経験があるため家族も素早い行動で今もご飯を炊いています早く終わりますように… 03-12 04:45:02","text":"強い揺れがありましたが大丈夫でした大地震の経験があるため家族も素早い行動で今もご飯を炊いています早く終わりますように… 03-12 04:45:02","desc":"<p class=\"tweettext\">強い揺れがありましたが大丈夫でした大地震の経験があるため家族も素早い行動で今もご飯を炊いています早く終わりますように…</p><p class=\"time\">03-12 04:45:02</p>","lon":138.84055,"lat":37.45369,"img":"megaphone.png"},{"id":"weathernews1395","name":"地震が続いてます。小さな揺れもかなり頻繁におきてます。ただただ恐怖です津波のきている地域が心配でなりません。ケータイの緊急速報がなるたびに緊張します... 03...","text":"地震が続いてます。小さな揺れもかなり頻繁におきてます。ただただ恐怖です津波のきている地域が心配でなりません。ケータイの緊急速報がなるたびに緊張します... 03-12 06:38:44","desc":"<p class=\"tweettext\">地震が続いてます。小さな揺れもかなり頻繁におきてます。ただただ恐怖です津波のきている地域が心配でなりません。ケータイの緊急速報がなるたびに緊張します...</p><p class=\"time\">03-12 06:38:44</p>","lon":138.96126,"lat":37.23446,"img":"megaphone.png"},{"id":"weathernews1437","name":"3時頃の地震では横揺れが1分程続きました。町は静かで、見るかぎり被害はありません。 03-12 06:42:58","text":"3時頃の地震では横揺れが1分程続きました。町は静かで、見るかぎり被害はありません。 03-12 06:42:58","desc":"<p class=\"tweettext\">3時頃の地震では横揺れが1分程続きました。町は静かで、見るかぎり被害はありません。</p><p class=\"time\">03-12 06:42:58</p>","lon":138.81306,"lat":37.45028,"img":"megaphone.png"},{"id":"weathernews1624","name":"最初に発生した地震で、かなり長い間ふわふわ揺れ、めまいのようで気持ち悪くなってしまった。 03-12 06:59:53","text":"最初に発生した地震で、かなり長い間ふわふわ揺れ、めまいのようで気持ち悪くなってしまった。 03-12 06:59:53","desc":"<p class=\"tweettext\">最初に発生した地震で、かなり長い間ふわふわ揺れ、めまいのようで気持ち悪くなってしまった。</p><p class=\"time\">03-12 06:59:53</p>","lon":138.83862,"lat":37.40849,"img":"megaphone.png"},{"id":"weathernews2086","name":"家具の転倒等はありませんが、壁に亀裂。 03-12 07:20:13","text":"家具の転倒等はありませんが、壁に亀裂。 03-12 07:20:13","desc":"<p class=\"tweettext\">家具の転倒等はありませんが、壁に亀裂。</p><p class=\"time\">03-12 07:20:13</p>","lon":138.5666,"lat":37.37785,"img":"megaphone.png"},{"id":"weathernews2388","name":"午前4時前の地震怖かったです。中越、中越沖地震を体験しましたが、東北地方太平洋地震となまえつきましたね 03-12 07:33:02","text":"午前4時前の地震怖かったです。中越、中越沖地震を体験しましたが、東北地方太平洋地震となまえつきましたね 03-12 07:33:02","desc":"<p class=\"tweettext\">午前4時前の地震怖かったです。中越、中越沖地震を体験しましたが、東北地方太平洋地震となまえつきましたね</p><p class=\"time\">03-12 07:33:02</p>","lon":138.85442,"lat":37.45907,"img":"megaphone.png"},{"id":"weathernews2987","name":"揺れは大きく怖かったが目立った被害無し 03-12 07:59:47","text":"揺れは大きく怖かったが目立った被害無し 03-12 07:59:47","desc":"<p class=\"tweettext\">揺れは大きく怖かったが目立った被害無し</p><p class=\"time\">03-12 07:59:47</p>","lon":138.83881,"lat":37.43647,"img":"megaphone.png"},{"id":"weathernews3138","name":"この近くは揺れはそれなりにあったんですけど窓ガラスが割れたり物が落ちたりはしなかったですこの周辺は特に何も被害はなさそうで大丈夫です 03-12 08:04:3...","text":"この近くは揺れはそれなりにあったんですけど窓ガラスが割れたり物が落ちたりはしなかったですこの周辺は特に何も被害はなさそうで大丈夫です 03-12 08:04:32","desc":"<p class=\"tweettext\">この近くは揺れはそれなりにあったんですけど窓ガラスが割れたり物が落ちたりはしなかったですこの周辺は特に何も被害はなさそうで大丈夫です</p><p class=\"time\">03-12 08:04:32</p>","lon":138.8414,"lat":37.44649,"img":"megaphone.png"},{"id":"weathernews3189","name":"３時過ぎに地震がありました 昨日の地震とは揺れ方が全然違いました 被害はわが家はありません 03-12 08:06:33","text":"３時過ぎに地震がありました 昨日の地震とは揺れ方が全然違いました 被害はわが家はありません 03-12 08:06:33","desc":"<p class=\"tweettext\">３時過ぎに地震がありました  昨日の地震とは揺れ方が全然違いました  被害はわが家はありません</p><p class=\"time\">03-12 08:06:33</p>","lon":138.84949,"lat":37.45819,"img":"megaphone.png"},{"id":"weathernews3338","name":"先日の３時過ぎ頃地震が発生し、工場のｽﾀｯﾌをみんな外に出しました。地震そのものはおおよそ３時頃から縦揺れ(大型自動車が通過した時のよう)が始まり、その数１０分...","text":"先日の３時過ぎ頃地震が発生し、工場のｽﾀｯﾌをみんな外に出しました。地震そのものはおおよそ３時頃から縦揺れ(大型自動車が通過した時のよう)が始まり、その数１０分後に１５分間に渡りゆっくりと大きな横揺れに変わりました。幸怪我人、破損品はありませんでした。 03-12 08:14:17","desc":"<p class=\"tweettext\">先日の３時過ぎ頃地震が発生し、工場のｽﾀｯﾌをみんな外に出しました。地震そのものはおおよそ３時頃から縦揺れ(大型自動車が通過した時のよう)が始まり、その数１０分後に１５分間に渡りゆっくりと大きな横揺れに変わりました。幸怪我人、破損品はありませんでした。</p><p class=\"time\">03-12 08:14:17</p>","lon":139.01443,"lat":37.66778,"img":"megaphone.png"},{"id":"weathernews3496","name":"午前3時59分 地震で飛び起きました。まず『東北地方太平洋沖地震』で被災された方、行方不明、亡くなられた方、全ての方々にお悔やみ申し上げます。私たちも7年前に中...","text":"午前3時59分 地震で飛び起きました。まず『東北地方太平洋沖地震』で被災された方、行方不明、亡くなられた方、全ての方々にお悔やみ申し上げます。私たちも7年前に中越地震、4年前にも中越沖地震で被災しているので今回の地震はひと事に思えません。まずは身の回りの安全第一確保してください。まだ余震が続いていますが慌てずに行動する事も大切です。あとはしっかりとしたキモチを持つことです。被害の規模は中越・中越沖地震を遥かに上回るものですが、必ず復興出来ます！私たちも多くの人たちから助けてもらいました。全国の皆さん、東北地方の皆さんをたすけてあげましょう。私も何らかのカタチで援助したいと思います。 03-12 08:23:20","desc":"<p class=\"tweettext\">午前3時59分 地震で飛び起きました。まず『東北地方太平洋沖地震』で被災された方、行方不明、亡くなられた方、全ての方々にお悔やみ申し上げます。私たちも7年前に中越地震、4年前にも中越沖地震で被災しているので今回の地震はひと事に思えません。まずは身の回りの安全第一確保してください。まだ余震が続いていますが慌てずに行動する事も大切です。あとはしっかりとしたキモチを持つことです。被害の規模は中越・中越沖地震を遥かに上回るものですが、必ず復興出来ます！私たちも多くの人たちから助けてもらいました。全国の皆さん、東北地方の皆さんをたすけてあげましょう。私も何らかのカタチで援助したいと思います。</p><p class=\"time\">03-12 08:23:20</p>","lon":138.79507,"lat":37.31436,"img":"megaphone.png"},{"id":"weathernews3540","name":"お昼ご飯をたべて少し横になっていたら大きくゆっくり3分くらい揺れた。船に乗っているみたいでした(^^ゞ中越地震の早い突き上げる揺れとはかなり違ったみたい。 03...","text":"お昼ご飯をたべて少し横になっていたら大きくゆっくり3分くらい揺れた。船に乗っているみたいでした(^^ゞ中越地震の早い突き上げる揺れとはかなり違ったみたい。 03-12 08:25:42","desc":"<p class=\"tweettext\">お昼ご飯をたべて少し横になっていたら大きくゆっくり3分くらい揺れた。船に乗っているみたいでした(^^ゞ中越地震の早い突き上げる揺れとはかなり違ったみたい。</p><p class=\"time\">03-12 08:25:42</p>","lon":138.79671,"lat":37.3152,"img":"megaphone.png"},{"id":"weathernews3758","name":"大きな被害なし 03-12 08:41:45","text":"大きな被害なし 03-12 08:41:45","desc":"<p class=\"tweettext\">大きな被害なし</p><p class=\"time\">03-12 08:41:45</p>","lon":138.96152,"lat":37.63637,"img":"megaphone.png"},{"id":"weathernews4178","name":"怖かったですが、何ともありません。びっくりするくらい天気が良いですね(^-^)/ 03-12 09:21:29","text":"怖かったですが、何ともありません。びっくりするくらい天気が良いですね(^-^)/ 03-12 09:21:29","desc":"<p class=\"tweettext\">怖かったですが、何ともありません。びっくりするくらい天気が良いですね(^-^)/</p><p class=\"time\">03-12 09:21:29</p>","lon":138.78778,"lat":37.31556,"img":"megaphone.png"},{"id":"weathernews4571","name":"いきなりの縦揺れの後、小刻みな横揺れに。時間は15秒くらいだったと思います。机の上の物が落下、食器棚の中でコップが倒れた程度の被害ですみました 03-12 10...","text":"いきなりの縦揺れの後、小刻みな横揺れに。時間は15秒くらいだったと思います。机の上の物が落下、食器棚の中でコップが倒れた程度の被害ですみました 03-12 10:05:03","desc":"<p class=\"tweettext\">いきなりの縦揺れの後、小刻みな横揺れに。時間は15秒くらいだったと思います。机の上の物が落下、食器棚の中でコップが倒れた程度の被害ですみました </p><p class=\"time\">03-12 10:05:03</p>","lon":138.76007,"lat":37.18076,"img":"megaphone.png"},{"id":"weathernews4619","name":"新潟ですが、最初もかなり揺れた。寝てる時も揺れた。新潟でも不安が広がっています。1人でも多くの人が助かってほしいです。2時災害もあるので助けに行く人の安全も確保...","text":"新潟ですが、最初もかなり揺れた。寝てる時も揺れた。新潟でも不安が広がっています。1人でも多くの人が助かってほしいです。2時災害もあるので助けに行く人の安全も確保して下さい。死者が1人でもいいから減って、家族、友達、に大丈夫だったよって言えるようにして下さい。希望よりも繋がりを、もって乗り切りましょう。本当に耐えて下さい。生きてください!! 03-12 10:12:13","desc":"<p class=\"tweettext\">新潟ですが、最初もかなり揺れた。寝てる時も揺れた。新潟でも不安が広がっています。1人でも多くの人が助かってほしいです。2時災害もあるので助けに行く人の安全も確保して下さい。死者が1人でもいいから減って、家族、友達、に大丈夫だったよって言えるようにして下さい。希望よりも繋がりを、もって乗り切りましょう。本当に耐えて下さい。生きてください!!</p><p class=\"time\">03-12 10:12:13</p>","lon":139.04642,"lat":37.65066,"img":"megaphone.png"},{"id":"weathernews4744","name":"ちょーど授業中で避難訓練じゃない本当に避難しました！(~o~) 03-12 10:26:19","text":"ちょーど授業中で避難訓練じゃない本当に避難しました！(~o~) 03-12 10:26:19","desc":"<p class=\"tweettext\">ちょーど授業中で避難訓練じゃない本当に避難しました！(~o~)</p><p class=\"time\">03-12 10:26:19</p>","lon":138.94389,"lat":37.61667,"img":"megaphone.png"},{"id":"weathernews4836","name":"朝揺れたが、異常なし 03-12 10:38:20","text":"朝揺れたが、異常なし 03-12 10:38:20","desc":"<p class=\"tweettext\">朝揺れたが、異常なし</p><p class=\"time\">03-12 10:38:20</p>","lon":138.87363,"lat":37.47983,"img":"megaphone.png"},{"id":"weathernews5793","name":"雪に亀裂か゛、至る所に入り少しでも傾斜が強ければ雪崩になっています。家の中は言うまでもなく食器や家具が散乱しています。三度目の大きな地震で家の筋交いまで折れてし...","text":"雪に亀裂か゛、至る所に入り少しでも傾斜が強ければ雪崩になっています。家の中は言うまでもなく食器や家具が散乱しています。三度目の大きな地震で家の筋交いまで折れてしまいました。 03-12 13:15:03","desc":"<p class=\"tweettext\">雪に亀裂か゛、至る所に入り少しでも傾斜が強ければ雪崩になっています。家の中は言うまでもなく食器や家具が散乱しています。三度目の大きな地震で家の筋交いまで折れてしまいました。</p><p class=\"time\">03-12 13:15:03</p>","lon":138.58081,"lat":37.1661,"img":"megaphone.png"},{"id":"weathernews5854","name":"今朝の地震、中越地震のあの揺れを思いだしてしまいました。今回の地震は、過去最大になり、私の友達も災害派遣で、現地、仙台へ行ってます。揺れてる当時、中越地震の怖さ...","text":"今朝の地震、中越地震のあの揺れを思いだしてしまいました。今回の地震は、過去最大になり、私の友達も災害派遣で、現地、仙台へ行ってます。揺れてる当時、中越地震の怖さが、トラウマになり、泣きさけびましたが、幸い、私の住んでる地区は、地盤が高く、神社が2つあるので、守って下さってます。被災地の皆さん、落ち着いてあきらめないで下さい。 03-12 13:19:15","desc":"<p class=\"tweettext\">今朝の地震、中越地震のあの揺れを思いだしてしまいました。今回の地震は、過去最大になり、私の友達も災害派遣で、現地、仙台へ行ってます。揺れてる当時、中越地震の怖さが、トラウマになり、泣きさけびましたが、幸い、私の住んでる地区は、地盤が高く、神社が2つあるので、守って下さってます。被災地の皆さん、落ち着いてあきらめないで下さい。</p><p class=\"time\">03-12 13:19:15</p>","lon":138.85442,"lat":37.45907,"img":"megaphone.png"},{"id":"weathernews5958","name":"昨日の地震、今朝の地震…ともに長い横揺れで、足はすくむし、具合も悪くなりそうな感じ。小さな余震も、テレビの地震情報と同じペースで響いてくる。物が落ちたりはしない...","text":"昨日の地震、今朝の地震…ともに長い横揺れで、足はすくむし、具合も悪くなりそうな感じ。小さな余震も、テレビの地震情報と同じペースで響いてくる。物が落ちたりはしないものの、中越地震でおったひび割れなどに揺れが伝わっていると思うと、身の回りの点検が必要と感じる。 03-12 13:24:53","desc":"<p class=\"tweettext\">昨日の地震、今朝の地震…ともに長い横揺れで、足はすくむし、具合も悪くなりそうな感じ。小さな余震も、テレビの地震情報と同じペースで響いてくる。物が落ちたりはしないものの、中越地震でおったひび割れなどに揺れが伝わっていると思うと、身の回りの点検が必要と感じる。</p><p class=\"time\">03-12 13:24:53</p>","lon":138.84549,"lat":37.4566,"img":"megaphone.png"},{"id":"weathernews5976","name":"新潟県柏崎市は幸い被害がなく平和です 被災者のみなさんはこれからも津波や余震に注意してくださいm(_ _)m希望を捨てずにがんばってください 03-12 13:...","text":"新潟県柏崎市は幸い被害がなく平和です 被災者のみなさんはこれからも津波や余震に注意してくださいm(_ _)m希望を捨てずにがんばってください 03-12 13:26:20","desc":"<p class=\"tweettext\">新潟県柏崎市は幸い被害がなく平和です 被災者のみなさんはこれからも津波や余震に注意してくださいm(_ _)m希望を捨てずにがんばってください  </p><p class=\"time\">03-12 13:26:20</p>","lon":138.57896,"lat":37.36076,"img":"megaphone.png"},{"id":"weathernews6212","name":"新潟県の長岡市です。朝の地震以降大きな揺れは無く、市内は普通です。 03-12 13:38:51","text":"新潟県の長岡市です。朝の地震以降大きな揺れは無く、市内は普通です。 03-12 13:38:51","desc":"<p class=\"tweettext\">新潟県の長岡市です。朝の地震以降大きな揺れは無く、市内は普通です。</p><p class=\"time\">03-12 13:38:51</p>","lon":138.82259,"lat":37.45291,"img":"megaphone.png"},{"id":"weathernews6332","name":"横揺れがひどい｡ですが､ものが倒れる心配はありません 03-12 13:46:58","text":"横揺れがひどい｡ですが､ものが倒れる心配はありません 03-12 13:46:58","desc":"<p class=\"tweettext\">横揺れがひどい｡ですが､ものが倒れる心配はありません </p><p class=\"time\">03-12 13:46:58</p>","lon":138.92444,"lat":37.52917,"img":"megaphone.png"},{"id":"weathernews6844","name":"朝4:00頃、仕事帰りで車を運転中でした…緊急地震 が届き、すぐに急に運転しずらく感じて緊急停止。怖かった…県道!?道路ﾋﾋﾞ割れ無し。親と連絡が取れません…心...","text":"朝4:00頃、仕事帰りで車を運転中でした…緊急地震 が届き、すぐに急に運転しずらく感じて緊急停止。怖かった…県道!?道路ﾋﾋﾞ割れ無し。親と連絡が取れません…心配。 03-12 14:20:08","desc":"<p class=\"tweettext\">朝4:00頃、仕事帰りで車を運転中でした…緊急地震 が届き、すぐに急に運転しずらく感じて緊急停止。怖かった…県道!?道路ﾋﾋﾞ割れ無し。親と連絡が取れません…心配。</p><p class=\"time\">03-12 14:20:08</p>","lon":138.83881,"lat":37.43647,"img":"megaphone.png"},{"id":"weathernews6900","name":"今朝４時くらいからの地震で、会社の壁に亀裂やタイルも割れました。軽度の被害なので、大丈夫です。宮城の方々が心配です 03-12 14:23:54","text":"今朝４時くらいからの地震で、会社の壁に亀裂やタイルも割れました。軽度の被害なので、大丈夫です。宮城の方々が心配です 03-12 14:23:54","desc":"<p class=\"tweettext\">今朝４時くらいからの地震で、会社の壁に亀裂やタイルも割れました。軽度の被害なので、大丈夫です。宮城の方々が心配です </p><p class=\"time\">03-12 14:23:54</p>","lon":138.81639,"lat":37.53139,"img":"megaphone.png"},{"id":"weathernews7002","name":"夜中朝方と大きめの余震がありましたが無事に過ごせています。携帯がつながらず、家族や友達の安否が確認できず不安でした。柏崎の津波注意報が解除になったみたいです。 ...","text":"夜中朝方と大きめの余震がありましたが無事に過ごせています。携帯がつながらず、家族や友達の安否が確認できず不安でした。柏崎の津波注意報が解除になったみたいです。 03-12 14:31:56","desc":"<p class=\"tweettext\">夜中朝方と大きめの余震がありましたが無事に過ごせています。携帯がつながらず、家族や友達の安否が確認できず不安でした。柏崎の津波注意報が解除になったみたいです。</p><p class=\"time\">03-12 14:31:56</p>","lon":138.58861,"lat":37.36361,"img":"megaphone.png"},{"id":"weathernews7244","name":"今朝は福祉施設にて、夜勤をしてきました。未明の強い揺れは、まさか県境が震源地と聞き、びっくりでした。あまりのスケールにただただ… 余震も昼前くらいまで何度感じた...","text":"今朝は福祉施設にて、夜勤をしてきました。未明の強い揺れは、まさか県境が震源地と聞き、びっくりでした。あまりのスケールにただただ… 余震も昼前くらいまで何度感じた事か。柏崎市は広報でもありましたが原発を始め、被害はありません。 03-12 14:51:30","desc":"<p class=\"tweettext\">今朝は福祉施設にて、夜勤をしてきました。未明の強い揺れは、まさか県境が震源地と聞き、びっくりでした。あまりのスケールにただただ… 余震も昼前くらいまで何度感じた事か。柏崎市は広報でもありましたが原発を始め、被害はありません。</p><p class=\"time\">03-12 14:51:30</p>","lon":138.54031,"lat":37.36393,"img":"megaphone.png"},{"id":"weathernews7482","name":"天気もよく影響は、ありません。 今朝の海岸は、水位は通常より高いような感じです 03-12 15:13:42","text":"天気もよく影響は、ありません。 今朝の海岸は、水位は通常より高いような感じです 03-12 15:13:42","desc":"<p class=\"tweettext\">天気もよく影響は、ありません。 今朝の海岸は、水位は通常より高いような感じです</p><p class=\"time\">03-12 15:13:42</p>","lon":138.76743,"lat":37.64021,"img":"megaphone.png"},{"id":"weathernews7586","name":"全然大丈夫です 03-12 15:28:37","text":"全然大丈夫です 03-12 15:28:37","desc":"<p class=\"tweettext\">全然大丈夫です </p><p class=\"time\">03-12 15:28:37</p>","lon":138.83192,"lat":37.19222,"img":"megaphone.png"},{"id":"weathernews8504","name":"朝方の地震で目を覚ましました。突然の横揺れには、いやぁビックリで、おさまったと思ったら弱いのが もう一回…。寝れなかった 03-12 18:25:40","text":"朝方の地震で目を覚ましました。突然の横揺れには、いやぁビックリで、おさまったと思ったら弱いのが もう一回…。寝れなかった 03-12 18:25:40","desc":"<p class=\"tweettext\">朝方の地震で目を覚ましました。突然の横揺れには、いやぁビックリで、おさまったと思ったら弱いのが  もう一回…。寝れなかった</p><p class=\"time\">03-12 18:25:40</p>","lon":138.88229,"lat":37.53842,"img":"megaphone.png"},{"id":"weathernews8911","name":"余震はまだありますが、大きな被害はありません 03-12 20:15:05","text":"余震はまだありますが、大きな被害はありません 03-12 20:15:05","desc":"<p class=\"tweettext\">余震はまだありますが、大きな被害はありません</p><p class=\"time\">03-12 20:15:05</p>","lon":139.04346,"lat":37.68632,"img":"megaphone.png"},{"id":"weathernews9754","name":"余震と思われる揺れが断続的に続いてます。 03-12 23:26:28","text":"余震と思われる揺れが断続的に続いてます。 03-12 23:26:28","desc":"<p class=\"tweettext\">余震と思われる揺れが断続的に続いてます。</p><p class=\"time\">03-12 23:26:28</p>","lon":138.83614,"lat":37.55426,"img":"megaphone.png"}]}