{"version":1,"tile":"9/451/203","count":42,"reports":[{"id":"weathernews201","name":"11日15時前、船の上にいるような周期が長い揺れを体感。屋外の物干し竿が地面に落ちただけですんだ。ツイッターが少しだけ使えない時があったが、基本的にはずっと動い...","text":"11日15時前、船の上にいるような周期が長い揺れを体感。屋外の物干し竿が地面に落ちただけですんだ。ツイッターが少しだけ使えない時があったが、基本的にはずっと動いている 03-12 01:48:40","label":"11日15時前、船の上にいるような周期が長い揺れを体感。屋外の物干し竿が地面に落...","desc":"<p class=\"tweettext\">11日15時前、船の上にいるような周期が長い揺れを体感。屋外の物干し竿が地面に落ちただけですんだ。ツイッターが少しだけ使えない時があったが、基本的にはずっと動いている</p><p class=\"time\">03-12 01:48:40</p>","lon":137.73322,"lat":34.71492,"img":"megaphone.png"},{"id":"weathernews715","name":"少し揺れを感じた程度でしたが、浜名湖の波が急に激しくなったのでびっくりしました。 03-12 04:17:55","text":"少し揺れを感じた程度でしたが、浜名湖の波が急に激しくなったのでびっくりしました。 03-12 04:17:55","label":"少し揺れを感じた程度でしたが、浜名湖の波が急に激しくなったのでびっくりしました。...","desc":"<p class=\"tweettext\">少し揺れを感じた程度でしたが、浜名湖の波が急に激しくなったのでびっくりしました。</p><p class=\"time\">03-12 04:17:55</p>","lon":137.60001,"lat":34.73562,"img":"megaphone.png"},{"id":"weathernews2155","name":"クラクラした時、自分がめまいを起こしてる？と思ったけど、実は地震でビックリ！車が揺れてるのを初めて見ました。けっこう長く揺れたなあ。家の中の戸を全開にして通帳と...","text":"クラクラした時、自分がめまいを起こしてる？と思ったけど、実は地震でビックリ！車が揺れてるのを初めて見ました。けっこう長く揺れたなあ。家の中の戸を全開にして通帳と印鑑をかばんに入れた時に揺れがおさまりました。 03-12 07:23:13","label":"クラクラした時、自分がめまいを起こしてる？と思ったけど、実は地震でビックリ！車が...","desc":"<p class=\"tweettext\">クラクラした時、自分がめまいを起こしてる？と思ったけど、実は地震でビックリ！車が揺れてるのを初めて見ました。けっこう長く揺れたなあ。家の中の戸を全開にして通帳と印鑑をかばんに入れた時に揺れがおさまりました。</p><p class=\"time\">03-12 07:23:13</p>","lon":137.65582,"lat":34.765,"img":"megaphone.png"},{"id":"weathernews2279","name":"震度３､建物被害等は０。家族と安全確認をとろうとしたが、携帯電話が不通。メールも使えず…固定電話の必要性を感じた。 03-12 07:28:12","text":"震度３､建物被害等は０。家族と安全確認をとろうとしたが、携帯電話が不通。メールも使えず…固定電話の必要性を感じた。 03-12 07:28:12","label":"震度３､建物被害等は０。家族と安全確認をとろうとしたが、携帯電話が不通。メールも...","desc":"<p class=\"tweettext\">震度３､建物被害等は０。家族と安全確認をとろうとしたが、携帯電話が不通。メールも使えず…固定電話の必要性を感じた。</p><p class=\"time\">03-12 07:28:12</p>","lon":137.72627,"lat":34.7107,"img":"megaphone.png"},{"id":"weathernews2475","name":"震度３、今のところ被害無し。 03-12 07:37:14","text":"震度３、今のところ被害無し。 03-12 07:37:14","label":"震度３、今のところ被害無し。 03-12 07:37:14","desc":"<p class=\"tweettext\">震度３、今のところ被害無し。</p><p class=\"time\">03-12 07:37:14</p>","lon":137.36778,"lat":34.81528,"img":"megaphone.png"},{"id":"weathernews2493","name":"外や中共に、全く被害はありませんでした。ただ、１回目の地震で電話が不通となり、使えない状態でした。昨日の１８時頃にはもう、通常通り使えるようになっています。 0...","text":"外や中共に、全く被害はありませんでした。ただ、１回目の地震で電話が不通となり、使えない状態でした。昨日の１８時頃にはもう、通常通り使えるようになっています。 03-12 07:37:50","label":"外や中共に、全く被害はありませんでした。ただ、１回目の地震で電話が不通となり、使...","desc":"<p class=\"tweettext\">外や中共に、全く被害はありませんでした。ただ、１回目の地震で電話が不通となり、使えない状態でした。昨日の１８時頃にはもう、通常通り使えるようになっています。</p><p class=\"time\">03-12 07:37:50</p>","lon":137.35944,"lat":34.74944,"img":"megaphone.png"},{"id":"weathernews2673","name":"11日の３時、聖隷病院の５階が揺れた。皆、テレビを見ていた。 03-12 07:46:30","text":"11日の３時、聖隷病院の５階が揺れた。皆、テレビを見ていた。 03-12 07:46:30","label":"11日の３時、聖隷病院の５階が揺れた。皆、テレビを見ていた。 03-12 07:...","desc":"<p class=\"tweettext\">11日の３時、聖隷病院の５階が揺れた。皆、テレビを見ていた。</p><p class=\"time\">03-12 07:46:30</p>","lon":137.72639,"lat":34.70972,"img":"megaphone.png"},{"id":"weathernews3164","name":"月曜日袋井で仕事なんだけど、在来線が何時まで止まってるのか分からないから、すごく不安です あとすぐちかくに河川があるから、何時逆流して来るか不安です 03-12...","text":"月曜日袋井で仕事なんだけど、在来線が何時まで止まってるのか分からないから、すごく不安です あとすぐちかくに河川があるから、何時逆流して来るか不安です 03-12 08:05:34","label":"月曜日袋井で仕事なんだけど、在来線が何時まで止まってるのか分からないから、すごく...","desc":"<p class=\"tweettext\">月曜日袋井で仕事なんだけど、在来線が何時まで止まってるのか分からないから、すごく不安です あとすぐちかくに河川があるから、何時逆流して来るか不安です </p><p class=\"time\">03-12 08:05:34</p>","lon":137.72166,"lat":34.69944,"img":"megaphone.png"},{"id":"weathernews3364","name":"ぶかつ途中体育館にて地震発生 。その後も地震があったため部活中止で帰宅した。 03-12 08:15:26","text":"ぶかつ途中体育館にて地震発生 。その後も地震があったため部活中止で帰宅した。 03-12 08:15:26","label":"ぶかつ途中体育館にて地震発生 。その後も地震があったため部活中止で帰宅した。 0...","desc":"<p class=\"tweettext\">ぶかつ途中体育館にて地震発生 。その後も地震があったため部活中止で帰宅した。</p><p class=\"time\">03-12 08:15:26</p>","lon":137.64832,"lat":34.80919,"img":"megaphone.png"},{"id":"weathernews3461","name":"津波が酷かった 地震の影響は少ない 03-12 08:21:00","text":"津波が酷かった 地震の影響は少ない 03-12 08:21:00","label":"津波が酷かった 地震の影響は少ない 03-12 08:21:00","desc":"<p class=\"tweettext\">津波が酷かった 地震の影響は少ない</p><p class=\"time\">03-12 08:21:00</p>","lon":137.69583,"lat":34.76111,"img":"megaphone.png"},{"id":"weathernews4326","name":"最初の地震の揺れ以外、近場の地震も揺れはほんのわずかしか感じず。 03-12 09:39:16","text":"最初の地震の揺れ以外、近場の地震も揺れはほんのわずかしか感じず。 03-12 09:39:16","label":"最初の地震の揺れ以外、近場の地震も揺れはほんのわずかしか感じず。 03-12 0...","desc":"<p class=\"tweettext\">最初の地震の揺れ以外、近場の地震も揺れはほんのわずかしか感じず。</p><p class=\"time\">03-12 09:39:16</p>","lon":137.80209,"lat":34.80816,"img":"megaphone.png"},{"id":"weathernews4737","name":"昨日の15時頃の地震の時の話。北 南の方向で大きく揺れたあとに東 西の方向に揺れ方が変わって揺れたように思います。私は２階にいたのですが、被害はゼロ。１階ではモ...","text":"昨日の15時頃の地震の時の話。北 南の方向で大きく揺れたあとに東 西の方向に揺れ方が変わって揺れたように思います。私は２階にいたのですが、被害はゼロ。１階ではモノが少し倒れたみたいです。 03-12 10:25:00","label":"昨日の15時頃の地震の時の話。北 南の方向で大きく揺れたあとに東 西の方向に揺れ...","desc":"<p class=\"tweettext\">昨日の15時頃の地震の時の話。北 南の方向で大きく揺れたあとに東 西の方向に揺れ方が変わって揺れたように思います。私は２階にいたのですが、被害はゼロ。１階ではモノが少し倒れたみたいです。</p><p class=\"time\">03-12 10:25:00</p>","lon":137.81194,"lat":34.87347,"img":"megaphone.png"},{"id":"weathernews4965","name":"揺れは震度３でしたが目眩のように感じ、地震のあと吐き気を感じました。SoftBank携帯は電話できずメールも難しかったです。それと仏壇の水がこぼれていました。 ...","text":"揺れは震度３でしたが目眩のように感じ、地震のあと吐き気を感じました。SoftBank携帯は電話できずメールも難しかったです。それと仏壇の水がこぼれていました。 03-12 10:56:50","label":"揺れは震度３でしたが目眩のように感じ、地震のあと吐き気を感じました。SoftBa...","desc":"<p class=\"tweettext\">揺れは震度３でしたが目眩のように感じ、地震のあと吐き気を感じました。SoftBank携帯は電話できずメールも難しかったです。それと仏壇の水がこぼれていました。</p><p class=\"time\">03-12 10:56:50</p>","lon":137.72472,"lat":34.71667,"img":"megaphone.png"},{"id":"weathernews5129","name":"夕べは電車が止まってしまったので、主人は会社からバスを何本も乗り継いで帰宅しましたみなさんからご心配頂いた実家とはなんとか連絡が取れて無事を確認しました。ありが...","text":"夕べは電車が止まってしまったので、主人は会社からバスを何本も乗り継いで帰宅しましたみなさんからご心配頂いた実家とはなんとか連絡が取れて無事を確認しました。ありがとうございました。母の勤める会社は事務所がめちゃくちゃで建物にもヒビが入り、外へ非難したようです。また、仙台には親戚がいるのですが、今朝連絡がつき家族の無事を確認しました。しかし、住んでいた高層マンションが倒壊寸前で、完全に家を失いました…（近くの学校の体育館に非難中です）今はただただ命があったことに安堵です… 03-12 11:24:47","label":"夕べは電車が止まってしまったので、主人は会社からバスを何本も乗り継いで帰宅しまし...","desc":"<p class=\"tweettext\">夕べは電車が止まってしまったので、主人は会社からバスを何本も乗り継いで帰宅しましたみなさんからご心配頂いた実家とはなんとか連絡が取れて無事を確認しました。ありがとうございました。母の勤める会社は事務所がめちゃくちゃで建物にもヒビが入り、外へ非難したようです。また、仙台には親戚がいるのですが、今朝連絡がつき家族の無事を確認しました。しかし、住んでいた高層マンションが倒壊寸前で、完全に家を失いました…（近くの学校の体育館に非難中です）今はただただ命があったことに安堵です…</p><p class=\"time\">03-12 11:24:47</p>","lon":137.69104,"lat":34.69667,"img":"megaphone.png"},{"id":"weathernews5146","name":"被害なし 03-12 11:28:29","text":"被害なし 03-12 11:28:29","label":"被害なし 03-12 11:28:29","desc":"<p class=\"tweettext\">被害なし</p><p class=\"time\">03-12 11:28:29</p>","lon":137.74628,"lat":34.70251,"img":"megaphone.png"},{"id":"weathernews5314","name":"あの 阪神淡路大震災の時､私は 京都市南部に住んでいた。あの日､午前5時46分、突如襲って来た震度5強の揺れ。在れよあれよ激しい縦揺れに、自宅の床上でﾄﾗﾝﾎﾟ...","text":"あの 阪神淡路大震災の時､私は 京都市南部に住んでいた。あの日､午前5時46分、突如襲って来た震度5強の揺れ。在れよあれよ激しい縦揺れに、自宅の床上でﾄﾗﾝﾎﾟﾘﾝで跳び跳ねる如く、何度も叩きつけられる。余りの揺れの激しさに、ただ 恐怖に怯えるのみ。恐るべし 地震の凄まじさよ、日頃、心構えせねばと教えられた。 03-12 11:58:45","label":"あの 阪神淡路大震災の時､私は 京都市南部に住んでいた。あの日､午前5時46分、...","desc":"<p class=\"tweettext\">あの 阪神淡路大震災の時､私は 京都市南部に住んでいた。あの日､午前5時46分、突如襲って来た震度5強の揺れ。在れよあれよ激しい縦揺れに、自宅の床上でﾄﾗﾝﾎﾟﾘﾝで跳び跳ねる如く、何度も叩きつけられる。余りの揺れの激しさに、ただ 恐怖に怯えるのみ。恐るべし 地震の凄まじさよ、日頃、心構えせねばと教えられた。</p><p class=\"time\">03-12 11:58:45</p>","lon":137.72083,"lat":34.77583,"img":"megaphone.png"},{"id":"weathernews5589","name":"当時１階に居て揺れは感じませんでした。 03-12 12:49:53","text":"当時１階に居て揺れは感じませんでした。 03-12 12:49:53","label":"当時１階に居て揺れは感じませんでした。 03-12 12:49:53","desc":"<p class=\"tweettext\">当時１階に居て揺れは感じませんでした。</p><p class=\"time\">03-12 12:49:53</p>","lon":137.285,"lat":34.81417,"img":"megaphone.png"},{"id":"weathernews5679","name":"交通機関が麻痺している。バイパスなどがつかえない。 03-12 13:06:22","text":"交通機関が麻痺している。バイパスなどがつかえない。 03-12 13:06:22","label":"交通機関が麻痺している。バイパスなどがつかえない。 03-12 13:06:22","desc":"<p class=\"tweettext\">交通機関が麻痺している。バイパスなどがつかえない。</p><p class=\"time\">03-12 13:06:22</p>","lon":137.43321,"lat":34.72677,"img":"megaphone.png"},{"id":"weathernews5804","name":"昨日の14:46の地震は、けっこう長い間、揺れてこわかったです。最初めまい かと思ったけど生放送中のラジオで地震だと言っていたので地震だと気がつきました。長い間...","text":"昨日の14:46の地震は、けっこう長い間、揺れてこわかったです。最初めまい かと思ったけど生放送中のラジオで地震だと言っていたので地震だと気がつきました。長い間揺れていたので乗り物酔いしたみたいに気持ち悪くなりました。私のまわりでは特に被害はないですが、先ほどエフエム豊橋で一部の地域で水道の水が濁った水が出てきた地域があると言ってました。特に豊橋市の南部の地域で水道の水が濁った水が出てきたらしいです。もし濁った水が出てきたら、しばらく水を流し綺麗な水が出てくるまで流してほしいと言ってました。あと水道局に連絡してほしいと言ってました。 03-12 13:16:07","label":"昨日の14:46の地震は、けっこう長い間、揺れてこわかったです。最初めまい かと...","desc":"<p class=\"tweettext\">昨日の14:46の地震は、けっこう長い間、揺れてこわかったです。最初めまい かと思ったけど生放送中のラジオで地震だと言っていたので地震だと気がつきました。長い間揺れていたので乗り物酔いしたみたいに気持ち悪くなりました。私のまわりでは特に被害はないですが、先ほどエフエム豊橋で一部の地域で水道の水が濁った水が出てきた地域があると言ってました。特に豊橋市の南部の地域で水道の水が濁った水が出てきたらしいです。もし濁った水が出てきたら、しばらく水を流し綺麗な水が出てくるまで流してほしいと言ってました。あと水道局に連絡してほしいと言ってました。</p><p class=\"time\">03-12 13:16:07</p>","lon":137.37604,"lat":34.7116,"img":"megaphone.png"},{"id":"weathernews5829","name":"少しの横揺れを感じました。照明のヒモが２センチぐらい揺れてる程度でした。 03-12 13:17:45","text":"少しの横揺れを感じました。照明のヒモが２センチぐらい揺れてる程度でした。 03-12 13:17:45","label":"少しの横揺れを感じました。照明のヒモが２センチぐらい揺れてる程度でした。 03-...","desc":"<p class=\"tweettext\">少しの横揺れを感じました。照明のヒモが２センチぐらい揺れてる程度でした。</p><p class=\"time\">03-12 13:17:45</p>","lon":137.76826,"lat":34.72542,"img":"megaphone.png"},{"id":"weathernews5877","name":"自宅が横揺れし、天井から水が漏れた 03-12 13:19:56","text":"自宅が横揺れし、天井から水が漏れた 03-12 13:19:56","label":"自宅が横揺れし、天井から水が漏れた 03-12 13:19:56","desc":"<p class=\"tweettext\">自宅が横揺れし、天井から水が漏れた</p><p class=\"time\">03-12 13:19:56</p>","lon":137.71735,"lat":34.80418,"img":"megaphone.png"},{"id":"weathernews6611","name":"被害は特にありません。昨日小学校と中学校からのメールが夜届きました。（３時間ぐらいたってから…）何事も無かったからいいですが連絡がとれないことは本当に不安だと思...","text":"被害は特にありません。昨日小学校と中学校からのメールが夜届きました。（３時間ぐらいたってから…）何事も無かったからいいですが連絡がとれないことは本当に不安だと思います。被害にあわれた方にお見舞い申し上げます。 03-12 14:04:01","label":"被害は特にありません。昨日小学校と中学校からのメールが夜届きました。（３時間ぐら...","desc":"<p class=\"tweettext\">被害は特にありません。昨日小学校と中学校からのメールが夜届きました。（３時間ぐらいたってから…）何事も無かったからいいですが連絡がとれないことは本当に不安だと思います。被害にあわれた方にお見舞い申し上げます。</p><p class=\"time\">03-12 14:04:01</p>","lon":137.69438,"lat":34.80292,"img":"megaphone.png"},{"id":"weathernews6677","name":"セミパノラマカーです。豊橋駅ではJRの駅員さんが上り浜松方面の運転状況を放送、口頭で説明していました。まだ運転再開のメドがたっていないそうです。中には乗車巻を払...","text":"セミパノラマカーです。豊橋駅ではJRの駅員さんが上り浜松方面の運転状況を放送、口頭で説明していました。まだ運転再開のメドがたっていないそうです。中には乗車巻を払い戻した客がいました。みどりの窓口には列ができることもありました。東海道本線下り、名鉄は正常運転しています。以上 03-12 14:09:02","label":"セミパノラマカーです。豊橋駅ではJRの駅員さんが上り浜松方面の運転状況を放送、口...","desc":"<p class=\"tweettext\">セミパノラマカーです。豊橋駅ではJRの駅員さんが上り浜松方面の運転状況を放送、口頭で説明していました。まだ運転再開のメドがたっていないそうです。中には乗車巻を払い戻した客がいました。みどりの窓口には列ができることもありました。東海道本線下り、名鉄は正常運転しています。以上</p><p class=\"time\">03-12 14:09:02</p>","lon":137.38486,"lat":34.76431,"img":"megaphone.png"},{"id":"weathernews6889","name":"井戸水が茶色く濁っています。 03-12 14:23:09","text":"井戸水が茶色く濁っています。 03-12 14:23:09","label":"井戸水が茶色く濁っています。 03-12 14:23:09","desc":"<p class=\"tweettext\">井戸水が茶色く濁っています。</p><p class=\"time\">03-12 14:23:09</p>","lon":137.78082,"lat":34.71361,"img":"megaphone.png"},{"id":"weathernews7048","name":"３月１２日、１４時現在、北海道旭川市への家電話、携帯電話（SB→ａｕ）が繋ほぼ不通。地震直後、昨日15:30頃は携帯（SB→ａｕ）で旭川市へ通話○16:30頃に...","text":"３月１２日、１４時現在、北海道旭川市への家電話、携帯電話（SB→ａｕ）が繋ほぼ不通。地震直後、昨日15:30頃は携帯（SB→ａｕ）で旭川市へ通話○16:30頃には旭川市から携帯（ａｕ→SB）着信○20:30頃、旭川市家電へ通話○その後は家電も携帯も、どちらも不通状態です 03-12 14:35:32","label":"３月１２日、１４時現在、北海道旭川市への家電話、携帯電話（SB→ａｕ）が繋ほぼ不...","desc":"<p class=\"tweettext\">３月１２日、１４時現在、北海道旭川市への家電話、携帯電話（SB→ａｕ）が繋ほぼ不通。地震直後、昨日15:30頃は携帯（SB→ａｕ）で旭川市へ通話○16:30頃には旭川市から携帯（ａｕ→SB）着信○20:30頃、旭川市家電へ通話○その後は家電も携帯も、どちらも不通状態です</p><p class=\"time\">03-12 14:35:32</p>","lon":137.42278,"lat":34.77139,"img":"megaphone.png"},{"id":"weathernews7247","name":"発生時は浜松市にいました。波に揺られているようにゆらりゆらりとゆっくりとかなり長く揺れていました。直後にサイレンがなって、津波警報が出されました。椅子にコロがつ...","text":"発生時は浜松市にいました。波に揺られているようにゆらりゆらりとゆっくりとかなり長く揺れていました。直後にサイレンがなって、津波警報が出されました。椅子にコロがついていたので、何かに掴まっていないと動いてしまいそうでした。揺れに気づいてから、だんだん収まっていく地震はよくありますが、だんだん揺れが大きくなっていく地震ははじめてです。静岡県、東名高速と国道一号の通行止は解除になりました。被災地の皆さんの一人でも多くの救出、生還を祈っています。 03-12 14:52:09","label":"発生時は浜松市にいました。波に揺られているようにゆらりゆらりとゆっくりとかなり長...","desc":"<p class=\"tweettext\">発生時は浜松市にいました。波に揺られているようにゆらりゆらりとゆっくりとかなり長く揺れていました。直後にサイレンがなって、津波警報が出されました。椅子にコロがついていたので、何かに掴まっていないと動いてしまいそうでした。揺れに気づいてから、だんだん収まっていく地震はよくありますが、だんだん揺れが大きくなっていく地震ははじめてです。静岡県、東名高速と国道一号の通行止は解除になりました。被災地の皆さんの一人でも多くの救出、生還を祈っています。</p><p class=\"time\">03-12 14:52:09</p>","lon":137.72672,"lat":34.71043,"img":"megaphone.png"},{"id":"weathernews7680","name":"被害はなしただ東名高速道路が通行止めの為渋滞がひどい 03-12 15:41:20","text":"被害はなしただ東名高速道路が通行止めの為渋滞がひどい 03-12 15:41:20","label":"被害はなしただ東名高速道路が通行止めの為渋滞がひどい 03-12 15:41:2...","desc":"<p class=\"tweettext\">被害はなしただ東名高速道路が通行止めの為渋滞がひどい </p><p class=\"time\">03-12 15:41:20</p>","lon":137.765,"lat":34.75833,"img":"megaphone.png"},{"id":"weathernews7694","name":"セミパノラマカーです。現在は正常な状況です。住民の方が今回の地震で不安になっていました。以上 03-12 15:43:44","text":"セミパノラマカーです。現在は正常な状況です。住民の方が今回の地震で不安になっていました。以上 03-12 15:43:44","label":"セミパノラマカーです。現在は正常な状況です。住民の方が今回の地震で不安になってい...","desc":"<p class=\"tweettext\">セミパノラマカーです。現在は正常な状況です。住民の方が今回の地震で不安になっていました。以上</p><p class=\"time\">03-12 15:43:44</p>","lon":137.40813,"lat":34.7659,"img":"megaphone.png"},{"id":"weathernews7923","name":"お取り寄せスイーツを全国にお届けしているのですが、東北・関東方面への交通止めの影響で商品の発送ができません。お客様への連絡も繋がりにくくなっております。 03-...","text":"お取り寄せスイーツを全国にお届けしているのですが、東北・関東方面への交通止めの影響で商品の発送ができません。お客様への連絡も繋がりにくくなっております。 03-12 16:16:38","label":"お取り寄せスイーツを全国にお届けしているのですが、東北・関東方面への交通止めの影...","desc":"<p class=\"tweettext\">お取り寄せスイーツを全国にお届けしているのですが、東北・関東方面への交通止めの影響で商品の発送ができません。お客様への連絡も繋がりにくくなっております。</p><p class=\"time\">03-12 16:16:38</p>","lon":137.455,"lat":34.75583,"img":"megaphone.png"},{"id":"weathernews8219","name":"こちらは被害が全くありませんがテレビで観る災害の様子は、まるで映画や戦争ですね。ガス爆発や火災が続いてますが夫の同級生や父の知人の安否が気になりここでテレビを観...","text":"こちらは被害が全くありませんがテレビで観る災害の様子は、まるで映画や戦争ですね。ガス爆発や火災が続いてますが夫の同級生や父の知人の安否が気になりここでテレビを観ているだけの私達に何か出来る亊はないのかと気持ちが穏やかではありません。 03-12 17:11:31","label":"こちらは被害が全くありませんがテレビで観る災害の様子は、まるで映画や戦争ですね。...","desc":"<p class=\"tweettext\">こちらは被害が全くありませんがテレビで観る災害の様子は、まるで映画や戦争ですね。ガス爆発や火災が続いてますが夫の同級生や父の知人の安否が気になりここでテレビを観ているだけの私達に何か出来る亊はないのかと気持ちが穏やかではありません。</p><p class=\"time\">03-12 17:11:31</p>","lon":137.79732,"lat":34.84359,"img":"megaphone.png"},{"id":"weathernews8224","name":"こちらは被害が全くありませんがテレビで観る災害の様子は、まるで映画や戦争ですね。ガス爆発や火災が続いてますが夫の同級生や父の知人の安否が気になりここでテレビを観...","text":"こちらは被害が全くありませんがテレビで観る災害の様子は、まるで映画や戦争ですね。ガス爆発や火災が続いてますが夫の同級生や父の知人の安否が気になりここでテレビを観ているだけの私達に何か出来る亊はないのかと気持ちが穏やかではありません。 03-12 17:12:27","label":"こちらは被害が全くありませんがテレビで観る災害の様子は、まるで映画や戦争ですね。...","desc":"<p class=\"tweettext\">こちらは被害が全くありませんがテレビで観る災害の様子は、まるで映画や戦争ですね。ガス爆発や火災が続いてますが夫の同級生や父の知人の安否が気になりここでテレビを観ているだけの私達に何か出来る亊はないのかと気持ちが穏やかではありません。</p><p class=\"time\">03-12 17:12:27</p>","lon":137.79732,"lat":34.84359,"img":"megaphone.png"},{"id":"weathernews8490","name":"三河港沿岸に出ていた 津波警報 は 津波注意報 に変わりました でも 突然 大津波が来る可能性は十分にあります海や河口には絶対に近づかないで頂きたいです 被害が...","text":"三河港沿岸に出ていた 津波警報 は 津波注意報 に変わりました でも 突然 大津波が来る可能性は十分にあります海や河口には絶対に近づかないで頂きたいです 被害が明らかになってきた様です 亡くなられた方々の ご冥福をお祈り申し上げます 》通信エラーにより自分のリポート履歴に異常リポートが掲載されてますが１度しか送ってません 。 03-12 18:20:23","label":"三河港沿岸に出ていた 津波警報 は 津波注意報 に変わりました でも 突然 大津...","desc":"<p class=\"tweettext\">三河港沿岸に出ていた   津波警報 は  津波注意報 に変わりました でも 突然 大津波が来る可能性は十分にあります海や河口には絶対に近づかないで頂きたいです 被害が明らかになってきた様です 亡くなられた方々の ご冥福をお祈り申し上げます 》通信エラーにより自分のリポート履歴に異常リポートが掲載されてますが１度しか送ってません 。</p><p class=\"time\">03-12 18:20:23</p>","lon":137.39153,"lat":34.76923,"img":"megaphone.png"},{"id":"weathernews8629","name":"友達からメールが来たので転送します。コスモ石油に勤めている方から教えてもらったのでみんなにも伝えます気をつけてください千葉、首都圏の方へ。千葉の製油所、製鉄所の...","text":"友達からメールが来たので転送します。コスモ石油に勤めている方から教えてもらったのでみんなにも伝えます気をつけてください千葉、首都圏の方へ。千葉の製油所、製鉄所の火災の影響で千葉、首都圏では、科学薬品の含まれた雨が降ることが予想されます。 傘やレインコートの使用をお願いします！そして、外へ出る時は肌の露出を控えて、雨には触れないように。 雨にあたらないようにしてね！ほんとに危ないです。ご家族やお友達に回してあげてね 03-12 19:01:55","label":"友達からメールが来たので転送します。コスモ石油に勤めている方から教えてもらったの...","desc":"<p class=\"tweettext\">友達からメールが来たので転送します。コスモ石油に勤めている方から教えてもらったのでみんなにも伝えます気をつけてください千葉、首都圏の方へ。千葉の製油所、製鉄所の火災の影響で千葉、首都圏では、科学薬品の含まれた雨が降ることが予想されます。 傘やレインコートの使用をお願いします！そして、外へ出る時は肌の露出を控えて、雨には触れないように。 雨にあたらないようにしてね！ほんとに危ないです。ご家族やお友達に回してあげてね</p><p class=\"time\">03-12 19:01:55</p>","lon":137.75806,"lat":34.71889,"img":"megaphone.png"},{"id":"weathernews8689","name":"被害はありません 03-12 19:16:04","text":"被害はありません 03-12 19:16:04","label":"被害はありません 03-12 19:16:04","desc":"<p class=\"tweettext\">被害はありません</p><p class=\"time\">03-12 19:16:04</p>","lon":137.26642,"lat":34.66986,"img":"megaphone.png"},{"id":"weathernews8983","name":"こんばんは 先程から自宅近くで花火が上がってますお祭りか何かわかりませんが こんな時に不謹慎 極まりないと 怒り が こみあげてきました無神経すぎます 即刻 中...","text":"こんばんは 先程から自宅近くで花火が上がってますお祭りか何かわかりませんが こんな時に不謹慎 極まりないと 怒り が こみあげてきました無神経すぎます 即刻 中止を要求します 只今 大津波警報が津波警報に変わりました少しホッとしましたこちら愛知県の内海の注意報も解除となりました 03-12 20:30:40","label":"こんばんは 先程から自宅近くで花火が上がってますお祭りか何かわかりませんが こん...","desc":"<p class=\"tweettext\">こんばんは 先程から自宅近くで花火が上がってますお祭りか何かわかりませんが こんな時に不謹慎 極まりないと 怒り が こみあげてきました無神経すぎます 即刻 中止を要求します 只今 大津波警報が津波警報に変わりました少しホッとしましたこちら愛知県の内海の注意報も解除となりました</p><p class=\"time\">03-12 20:30:40</p>","lon":137.39153,"lat":34.76923,"img":"megaphone.png"},{"id":"weathernews9178","name":"枝野官房長官､ﾁｪｰﾝﾒｰﾙへの注意呼びかけ 産経新聞 [3/12 18:49]枝野幸男官房長官は12日､首相官邸で記者会見し､東日本大震災をきっかけにｲﾝﾀｰ...","text":"枝野官房長官､ﾁｪｰﾝﾒｰﾙへの注意呼びかけ 産経新聞 [3/12 18:49]枝野幸男官房長官は12日､首相官邸で記者会見し､東日本大震災をきっかけにｲﾝﾀｰﾈｯﾄ上などで出回っている出所不明のﾁｪｰﾝﾒｰﾙへの注意を呼びかけた｡大震災で千葉県市原市で発生したｺｽﾓ石油千葉製油所の火災について､ﾈｯﾄ上で｢有害物質が雨などと一緒に降るので注意｣といったﾁｪｰﾝﾒｰﾙが広がっている｡枝野氏は｢いたずらに不安感をあおるのでぜひ(ﾁｪｰﾝﾒｰﾙを回すことは)避けてほしい｣と述べた｡ 03-12 21:20:19","label":"枝野官房長官､ﾁｪｰﾝﾒｰﾙへの注意呼びかけ 産経新聞 [3/12 18:49]...","desc":"<p class=\"tweettext\"> 枝野官房長官､ﾁｪｰﾝﾒｰﾙへの注意呼びかけ 産経新聞 [3/12 18:49]枝野幸男官房長官は12日､首相官邸で記者会見し､東日本大震災をきっかけにｲﾝﾀｰﾈｯﾄ上などで出回っている出所不明のﾁｪｰﾝﾒｰﾙへの注意を呼びかけた｡大震災で千葉県市原市で発生したｺｽﾓ石油千葉製油所の火災について､ﾈｯﾄ上で｢有害物質が雨などと一緒に降るので注意｣といったﾁｪｰﾝﾒｰﾙが広がっている｡枝野氏は｢いたずらに不安感をあおるのでぜひ(ﾁｪｰﾝﾒｰﾙを回すことは)避けてほしい｣と述べた｡</p><p class=\"time\">03-12 21:20:19</p>","lon":137.70444,"lat":34.73278,"img":"megaphone.png"},{"id":"weathernews9186","name":"福島第一原子力発電所の爆発により半径10kmの避難指示が半径20kmに範囲拡大されました しかし先程の官房長官の会見から 原子炉は爆発していないとの報告がありま...","text":"福島第一原子力発電所の爆発により半径10kmの避難指示が半径20kmに範囲拡大されました しかし先程の官房長官の会見から 原子炉は爆発していないとの報告がありました 爆発したのは原子炉を囲んでいるコンクリートの外壁だったようです 放射能が漏れていたら ここ愛知県も深刻な状況になるところでした 原子力発電所は人が生きる為には必要だけど 時には放射能で最悪の自体を引き起こす核爆弾のようです 。 03-12 21:22:15","label":"福島第一原子力発電所の爆発により半径10kmの避難指示が半径20kmに範囲拡大さ...","desc":"<p class=\"tweettext\">福島第一原子力発電所の爆発により半径10kmの避難指示が半径20kmに範囲拡大されました しかし先程の官房長官の会見から 原子炉は爆発していないとの報告がありました 爆発したのは原子炉を囲んでいるコンクリートの外壁だったようです 放射能が漏れていたら ここ愛知県も深刻な状況になるところでした 原子力発電所は人が生きる為には必要だけど 時には放射能で最悪の自体を引き起こす核爆弾のようです 。</p><p class=\"time\">03-12 21:22:15</p>","lon":137.39153,"lat":34.76923,"img":"megaphone.png"},{"id":"weathernews9239","name":"関東東北からの商品の便は明日から困難とスーパーでﾁﾗﾘ 被災地の家族等に宅急便を出そうとする人も…何時届くか…の状態です頑張ってください 03-12 21:36...","text":"関東東北からの商品の便は明日から困難とスーパーでﾁﾗﾘ 被災地の家族等に宅急便を出そうとする人も…何時届くか…の状態です頑張ってください 03-12 21:36:57","label":"関東東北からの商品の便は明日から困難とスーパーでﾁﾗﾘ 被災地の家族等に宅急便を...","desc":"<p class=\"tweettext\">関東東北からの商品の便は明日から困難とスーパーでﾁﾗﾘ  被災地の家族等に宅急便を出そうとする人も…何時届くか…の状態です頑張ってください  </p><p class=\"time\">03-12 21:36:57</p>","lon":137.39153,"lat":34.76923,"img":"megaphone.png"},{"id":"weathernews9293","name":"ここは特に被害は無いです。しかし、東海大地震が怖いです。 03-12 21:52:20","text":"ここは特に被害は無いです。しかし、東海大地震が怖いです。 03-12 21:52:20","label":"ここは特に被害は無いです。しかし、東海大地震が怖いです。 03-12 21:52...","desc":"<p class=\"tweettext\">ここは特に被害は無いです。しかし、東海大地震が怖いです。</p><p class=\"time\">03-12 21:52:20</p>","lon":137.42953,"lat":34.75191,"img":"megaphone.png"},{"id":"weathernews9669","name":"被災した方々、一人でも助かるよう迅速な対応をお願いします。世界からも救助や支援があるのでその前に日本の力でできることをしましょう 03-12 23:09:41","text":"被災した方々、一人でも助かるよう迅速な対応をお願いします。世界からも救助や支援があるのでその前に日本の力でできることをしましょう 03-12 23:09:41","label":"被災した方々、一人でも助かるよう迅速な対応をお願いします。世界からも救助や支援が...","desc":"<p class=\"tweettext\">被災した方々、一人でも助かるよう迅速な対応をお願いします。世界からも救助や支援があるのでその前に日本の力でできることをしましょう</p><p class=\"time\">03-12 23:09:41</p>","lon":137.73276,"lat":34.79928,"img":"megaphone.png"},{"id":"weathernews9740","name":"ﾕﾗﾕﾗと来て目眩･頭痛･吐き気･胸焼け症状の様なものが一気に襲ってくる｡ただただ気持ち悪いです｡もう神経がおかしくなりそうなぐらいです.. 03-12 23:...","text":"ﾕﾗﾕﾗと来て目眩･頭痛･吐き気･胸焼け症状の様なものが一気に襲ってくる｡ただただ気持ち悪いです｡もう神経がおかしくなりそうなぐらいです.. 03-12 23:24:43","label":"ﾕﾗﾕﾗと来て目眩･頭痛･吐き気･胸焼け症状の様なものが一気に襲ってくる｡ただた...","desc":"<p class=\"tweettext\">ﾕﾗﾕﾗと来て目眩･頭痛･吐き気･胸焼け症状の様なものが一気に襲ってくる｡ただただ気持ち悪いです｡もう神経がおかしくなりそうなぐらいです..</p><p class=\"time\">03-12 23:24:43</p>","lon":137.39153,"lat":34.76923,"img":"megaphone.png"},{"id":"weathernews9869","name":"今回被害を受けた三陸海岸地域は過去、三陸津波地震やチリ沖地震で津波被害を受けて、教訓もあり対策もされていましたが、それを上回る津波で被害も甚大になってしまいまし...","text":"今回被害を受けた三陸海岸地域は過去、三陸津波地震やチリ沖地震で津波被害を受けて、教訓もあり対策もされていましたが、それを上回る津波で被害も甚大になってしまいました。海岸から例え数キロ離れていても、大きな揺れや、即津波警報が発令されたら高台へ避難。過去の津波警報で軽視されていた面がかなりあると思いますし、データにも出てます。そして今回の各地で撮影された津波の映像は、今後発生が懸念されている南海トラフ巨大地震等で教訓にしないといけないと思いました。 03-12 23:56:24","label":"今回被害を受けた三陸海岸地域は過去、三陸津波地震やチリ沖地震で津波被害を受けて、...","desc":"<p class=\"tweettext\">今回被害を受けた三陸海岸地域は過去、三陸津波地震やチリ沖地震で津波被害を受けて、教訓もあり対策もされていましたが、それを上回る津波で被害も甚大になってしまいました。海岸から例え数キロ離れていても、大きな揺れや、即津波警報が発令されたら高台へ避難。過去の津波警報で軽視されていた面がかなりあると思いますし、データにも出てます。そして今回の各地で撮影された津波の映像は、今後発生が懸念されている南海トラフ巨大地震等で教訓にしないといけないと思いました。</p><p class=\"time\">03-12 23:56:24</p>","lon":137.37056,"lat":34.76958,"img":"megaphone.png"}]}