{"version":1,"tile":"9/452/198","count":6,"reports":[{"id":"weathernews1211","name":"４時近くに強く揺れました。縦揺れで小刻みに揺れましたが、中越沖地震のほうが大きく揺れたように思います。これだけ地震が連鎖的に起こると、これからどうなるのか不安で...","text":"４時近くに強く揺れました。縦揺れで小刻みに揺れましたが、中越沖地震のほうが大きく揺れたように思います。これだけ地震が連鎖的に起こると、これからどうなるのか不安です。 03-12 06:20:24","label":"４時近くに強く揺れました。縦揺れで小刻みに揺れましたが、中越沖地震のほうが大きく...","desc":"<p class=\"tweettext\">４時近くに強く揺れました。縦揺れで小刻みに揺れましたが、中越沖地震のほうが大きく揺れたように思います。これだけ地震が連鎖的に起こると、これからどうなるのか不安です。</p><p class=\"time\">03-12 06:20:24</p>","lon":138.4225,"lat":37.22528,"img":"megaphone.png"},{"id":"weathernews1840","name":"寝不足です今日の朝の地震で軽い予震が続いていました 03-12 07:11:10","text":"寝不足です今日の朝の地震で軽い予震が続いていました 03-12 07:11:10","label":"寝不足です今日の朝の地震で軽い予震が続いていました 03-12 07:11:10","desc":"<p class=\"tweettext\">寝不足です今日の朝の地震で軽い予震が続いていました</p><p class=\"time\">03-12 07:11:10</p>","lon":138.32127,"lat":37.22426,"img":"megaphone.png"},{"id":"weathernews2029","name":"そこまで大きな揺れはないですが、余震が続いてる状況で、緊張が解けない様子です。 03-12 07:18:01","text":"そこまで大きな揺れはないですが、余震が続いてる状況で、緊張が解けない様子です。 03-12 07:18:01","label":"そこまで大きな揺れはないですが、余震が続いてる状況で、緊張が解けない様子です。 ...","desc":"<p class=\"tweettext\">そこまで大きな揺れはないですが、余震が続いてる状況で、緊張が解けない様子です。</p><p class=\"time\">03-12 07:18:01</p>","lon":138.2525,"lat":37.16361,"img":"megaphone.png"},{"id":"weathernews4069","name":"朝、4時前からの揺れで寝不足です。6時半頃に眠りましたが、その間も余震が続いてました。今のところ揺れは修まっていますが今後が不安です！ 03-12 09:09:...","text":"朝、4時前からの揺れで寝不足です。6時半頃に眠りましたが、その間も余震が続いてました。今のところ揺れは修まっていますが今後が不安です！ 03-12 09:09:16","label":"朝、4時前からの揺れで寝不足です。6時半頃に眠りましたが、その間も余震が続いてま...","desc":"<p class=\"tweettext\">朝、4時前からの揺れで寝不足です。6時半頃に眠りましたが、その間も余震が続いてました。今のところ揺れは修まっていますが今後が不安です！</p><p class=\"time\">03-12 09:09:16</p>","lon":138.34187,"lat":37.23208,"img":"megaphone.png"},{"id":"weathernews5470","name":"寝てたら揺れて目が覚めた中越地震より揺れなかったです 03-12 12:27:36","text":"寝てたら揺れて目が覚めた中越地震より揺れなかったです 03-12 12:27:36","label":"寝てたら揺れて目が覚めた中越地震より揺れなかったです 03-12 12:27:3...","desc":"<p class=\"tweettext\">寝てたら揺れて目が覚めた中越地震より揺れなかったです</p><p class=\"time\">03-12 12:27:36</p>","lon":138.42899,"lat":37.19764,"img":"megaphone.png"},{"id":"weathernews8709","name":"今日は仕事で安塚に行きましたが、事務所の柱の根元のコンクリートが割れておちていたり、商品も棚から少しおちていました。今もたまに余震があって不安な夜になりそうです...","text":"今日は仕事で安塚に行きましたが、事務所の柱の根元のコンクリートが割れておちていたり、商品も棚から少しおちていました。今もたまに余震があって不安な夜になりそうです。 03-12 19:20:06","label":"今日は仕事で安塚に行きましたが、事務所の柱の根元のコンクリートが割れておちていた...","desc":"<p class=\"tweettext\">今日は仕事で安塚に行きましたが、事務所の柱の根元のコンクリートが割れておちていたり、商品も棚から少しおちていました。今もたまに余震があって不安な夜になりそうです。</p><p class=\"time\">03-12 19:20:06</p>","lon":138.4225,"lat":37.22528,"img":"megaphone.png"}]}