{"version":1,"tile":"9/455/202","count":46,"reports":[{"id":"weathernews190","name":"揺れがいったん収まった様子｡大津波解除には､至りません､避難人数もへりつつありますが油断大敵な状態です｡寒さもまして､乾燥してます｡火事きをつけてください｡つな...","text":"揺れがいったん収まった様子｡大津波解除には､至りません､避難人数もへりつつありますが油断大敵な状態です｡寒さもまして､乾燥してます｡火事きをつけてください｡つなみはまだきている可能性あります交通は普段とかわらないです 03-12 01:46:32","desc":"<p class=\"tweettext\">揺れがいったん収まった様子｡大津波解除には､至りません､避難人数もへりつつありますが油断大敵な状態です｡寒さもまして､乾燥してます｡火事きをつけてください｡つなみはまだきている可能性あります交通は普段とかわらないです</p><p class=\"time\">03-12 01:46:32</p>","lon":140.3847,"lat":35.25381,"img":"megaphone.png"},{"id":"weathernews382","name":"立っているのが大変。船酔いしたみたいな長い横揺れ。余震続きだから余計そう感じる。職場(巨大施設)エレベーターが止まった。軽い物が落ちた。机の引き出しが少しずつ開...","text":"立っているのが大変。船酔いしたみたいな長い横揺れ。余震続きだから余計そう感じる。職場(巨大施設)エレベーターが止まった。軽い物が落ちた。机の引き出しが少しずつ開き、珈琲こぼれた。上の寮は入浴中だったらしく、大浴槽の湯が大波状態だったらしい。家(３階)の中。キッチン。上の棚の圧力鍋フライパン小鍋がシンクに落ちた。ガス台の前に置いた浄水ポット倒れ、床の広範囲が水浸し。電気キッチンマットもう使えないかも。安全装置作動でガス止まり。洗濯カゴ吹っ飛び。トイレ回りも水浸し。小物あちこち落ち倒れ。電話メールが全然こない。怖くて寝れない。服のまま布団の中へ。 03-12 02:32:21","desc":"<p class=\"tweettext\">立っているのが大変。船酔いしたみたいな長い横揺れ。余震続きだから余計そう感じる。職場(巨大施設)エレベーターが止まった。軽い物が落ちた。机の引き出しが少しずつ開き、珈琲こぼれた。上の寮は入浴中だったらしく、大浴槽の湯が大波状態だったらしい。家(３階)の中。キッチン。上の棚の圧力鍋フライパン小鍋がシンクに落ちた。ガス台の前に置いた浄水ポット倒れ、床の広範囲が水浸し。電気キッチンマットもう使えないかも。安全装置作動でガス止まり。洗濯カゴ吹っ飛び。トイレ回りも水浸し。小物あちこち落ち倒れ。電話メールが全然こない。怖くて寝れない。服のまま布団の中へ。</p><p class=\"time\">03-12 02:32:21</p>","lon":140.05125,"lat":35.43326,"img":"megaphone.png"},{"id":"weathernews633","name":"千葉市や成田市の知人の家に比べると、物が落ちてくるわけでもなく、お皿とかが割れるわけでもなく、いつもとかわらない地震でした。ただ海がすぐなので、津波がどうなるの...","text":"千葉市や成田市の知人の家に比べると、物が落ちてくるわけでもなく、お皿とかが割れるわけでもなく、いつもとかわらない地震でした。ただ海がすぐなので、津波がどうなるのか怖いです。海には近づけないので、広報の放送が頼りです。 03-12 03:59:25","desc":"<p class=\"tweettext\">千葉市や成田市の知人の家に比べると、物が落ちてくるわけでもなく、お皿とかが割れるわけでもなく、いつもとかわらない地震でした。ただ海がすぐなので、津波がどうなるのか怖いです。海には近づけないので、広報の放送が頼りです。</p><p class=\"time\">03-12 03:59:25</p>","lon":140.11684,"lat":35.11788,"img":"megaphone.png"},{"id":"weathernews681","name":"体感では震度2程度、特に被害はありません。 03-12 04:09:55","text":"体感では震度2程度、特に被害はありません。 03-12 04:09:55","desc":"<p class=\"tweettext\">体感では震度2程度、特に被害はありません。</p><p class=\"time\">03-12 04:09:55</p>","lon":140.05652,"lat":35.35641,"img":"megaphone.png"},{"id":"weathernews793","name":"電気、ガス、水道は大丈夫です。余震が相変わらず凄く睡眠できずに・・・ 03-12 04:34:32","text":"電気、ガス、水道は大丈夫です。余震が相変わらず凄く睡眠できずに・・・ 03-12 04:34:32","desc":"<p class=\"tweettext\">電気、ガス、水道は大丈夫です。余震が相変わらず凄く睡眠できずに・・・</p><p class=\"time\">03-12 04:34:32</p>","lon":140.26772,"lat":35.44663,"img":"megaphone.png"},{"id":"weathernews943","name":"地震発生時は個人の病院にいました。看護士さんが入り口の自動ドアを開放にしてくれました。揺れが長く続き、建物がきしんだので、外に出た方がよくないですか？？と促し、...","text":"地震発生時は個人の病院にいました。看護士さんが入り口の自動ドアを開放にしてくれました。揺れが長く続き、建物がきしんだので、外に出た方がよくないですか？？と促し、全員外にでました。計二度外にでましたが、幸いなことに被害はありませんでした。現在も余震が続いており、不安です。貴重品と簡単な非常持ち出し袋を手元にまとめました。暗いと怖いので寝れないので、日がのぼるまでは起きているつもりです。 03-12 05:08:55","desc":"<p class=\"tweettext\">地震発生時は個人の病院にいました。看護士さんが入り口の自動ドアを開放にしてくれました。揺れが長く続き、建物がきしんだので、外に出た方がよくないですか？？と促し、全員外にでました。計二度外にでましたが、幸いなことに被害はありませんでした。現在も余震が続いており、不安です。貴重品と簡単な非常持ち出し袋を手元にまとめました。暗いと怖いので寝れないので、日がのぼるまでは起きているつもりです。</p><p class=\"time\">03-12 05:08:55</p>","lon":139.93948,"lat":35.3609,"img":"megaphone.png"},{"id":"weathernews990","name":"余震が続き、小学生の子供が何度も起きてしまい、大変不安がってます。なんとか落ち着かせては眠らせています。各地の子供達の精神面体力面等が心配です。市内の知人宅は最...","text":"余震が続き、小学生の子供が何度も起きてしまい、大変不安がってます。なんとか落ち着かせては眠らせています。各地の子供達の精神面体力面等が心配です。市内の知人宅は最初の地震で食器やオーブンなどが落下したようだが、我が家は家具家電品落下なく、軽い物が落ちた程度で被害なし。ライフラインも現在通常通り。 03-12 05:31:54","desc":"<p class=\"tweettext\">余震が続き、小学生の子供が何度も起きてしまい、大変不安がってます。なんとか落ち着かせては眠らせています。各地の子供達の精神面体力面等が心配です。市内の知人宅は最初の地震で食器やオーブンなどが落下したようだが、我が家は家具家電品落下なく、軽い物が落ちた程度で被害なし。ライフラインも現在通常通り。</p><p class=\"time\">03-12 05:31:54</p>","lon":139.99403,"lat":35.45076,"img":"megaphone.png"},{"id":"weathernews1068","name":"21年生まれて初めての経験もうだめかと思った トラウマだ余震が非常に怖い 03-12 06:07:33","text":"21年生まれて初めての経験もうだめかと思った トラウマだ余震が非常に怖い 03-12 06:07:33","desc":"<p class=\"tweettext\">21年生まれて初めての経験もうだめかと思った トラウマだ余震が非常に怖い</p><p class=\"time\">03-12 06:07:33</p>","lon":140.32562,"lat":35.43951,"img":"megaphone.png"},{"id":"weathernews1254","name":"地震が起きた時は職場にいました。デイサービスで仕事しているのでとにかく、利用者様を落ち着かせると共に入居者の安全確保もしました。入浴介護中でしたが、地震が起きた...","text":"地震が起きた時は職場にいました。デイサービスで仕事しているのでとにかく、利用者様を落ち着かせると共に入居者の安全確保もしました。入浴介護中でしたが、地震が起きた時は誰一人入浴していなかったので、皆さん無事です。お風呂場で津波が起こりました。エレベーターも止まったり…怪我人は出ませんでした。 03-12 06:24:19","desc":"<p class=\"tweettext\">地震が起きた時は職場にいました。デイサービスで仕事しているのでとにかく、利用者様を落ち着かせると共に入居者の安全確保もしました。入浴介護中でしたが、地震が起きた時は誰一人入浴していなかったので、皆さん無事です。お風呂場で津波が起こりました。エレベーターも止まったり…怪我人は出ませんでした。</p><p class=\"time\">03-12 06:24:19</p>","lon":139.92882,"lat":35.36792,"img":"megaphone.png"},{"id":"weathernews1258","name":"私はまだ小学校6年生です。その時は教室でゲーム をしていました…そうしたら先生が「揺れてる 」と言い出し「えっ！」と私はびっくり しました…地震はすぐおさまると...","text":"私はまだ小学校6年生です。その時は教室でゲーム をしていました…そうしたら先生が「揺れてる 」と言い出し「えっ！」と私はびっくり しました…地震はすぐおさまると思っていましたが 地震はどんどん酷くなり、閉まっていたﾄﾞｱや窓が全部開いていました…もう恐怖で泣き出し てしまいました。そうしたらまた、地震がありました…「もうやだ！早くおさまって！」と願うだけでした。 地震がおさまっても、余震などが続きもう恐怖 夜 も余り眠れませんでした…。 03-12 06:24:49","desc":"<p class=\"tweettext\">私はまだ小学校6年生です。その時は教室でゲーム をしていました…そうしたら先生が「揺れてる 」と言い出し「えっ！」と私はびっくり  しました…地震はすぐおさまると思っていましたが 地震はどんどん酷くなり、閉まっていたﾄﾞｱや窓が全部開いていました…もう恐怖で泣き出し てしまいました。そうしたらまた、地震がありました…「もうやだ！早くおさまって！」と願うだけでした。 地震がおさまっても、余震などが続きもう恐怖 夜 も余り眠れませんでした…。</p><p class=\"time\">03-12 06:24:49</p>","lon":140.30499,"lat":35.42333,"img":"megaphone.png"},{"id":"weathernews1579","name":"昨日の 揺れは 車の中でした 車を 横から 左右に 揺らされて いるかんじでした 揺れているあいだは ハンドルキープは 難しいかもしれないです 車は 安全を 確...","text":"昨日の 揺れは 車の中でした 車を 横から 左右に 揺らされて いるかんじでした 揺れているあいだは ハンドルキープは 難しいかもしれないです 車は 安全を 確認して 止めたほうがよいかなと 感じました 03-12 06:56:46","desc":"<p class=\"tweettext\">昨日の 揺れは 車の中でした 車を 横から 左右に 揺らされて いるかんじでした 揺れているあいだは ハンドルキープは 難しいかもしれないです 車は 安全を 確認して 止めたほうがよいかなと 感じました</p><p class=\"time\">03-12 06:56:46</p>","lon":139.92648,"lat":35.37216,"img":"megaphone.png"},{"id":"weathernews1765","name":"2011.3.11は本当に怖かったです 立ってられない程の揺れで、車庫に避難し座って柱につかまっていました。非常持ち出し袋を用意しといてよかったです 03-12...","text":"2011.3.11は本当に怖かったです 立ってられない程の揺れで、車庫に避難し座って柱につかまっていました。非常持ち出し袋を用意しといてよかったです 03-12 07:08:45","desc":"<p class=\"tweettext\">2011.3.11は本当に怖かったです 立ってられない程の揺れで、車庫に避難し座って柱につかまっていました。非常持ち出し袋を用意しといてよかったです</p><p class=\"time\">03-12 07:08:45</p>","lon":140.39255,"lat":35.42463,"img":"megaphone.png"},{"id":"weathernews2212","name":"昨日旅行で 一人で宿泊しました 泊まってる方は私以外一人ですが 外房線も内房線高速バスも止まってます 動くに動けない状態です 津波警報は出たままですが海は穏やか...","text":"昨日旅行で 一人で宿泊しました 泊まってる方は私以外一人ですが 外房線も内房線高速バスも止まってます 動くに動けない状態です 津波警報は出たままですが海は穏やかですし 昨日の余震も本震後の二回位感じただけで 後は全く感じていません 房総半島は宿の方の話では地震が少ないそうです 03-12 07:25:28","desc":"<p class=\"tweettext\">昨日旅行で 一人で宿泊しました 泊まってる方は私以外一人ですが 外房線も内房線高速バスも止まってます 動くに動けない状態です 津波警報は出たままですが海は穏やかですし 昨日の余震も本震後の二回位感じただけで 後は全く感じていません 房総半島は宿の方の話では地震が少ないそうです</p><p class=\"time\">03-12 07:25:28</p>","lon":140.16716,"lat":35.12351,"img":"megaphone.png"},{"id":"weathernews2393","name":"得に被害はありませんでした。でも、五分以内の間隔で来る余震が、ずっと続いていて、怖くて眠れませんでした。高層マンションの最上階とかも怖いですよね。 03-12 ...","text":"得に被害はありませんでした。でも、五分以内の間隔で来る余震が、ずっと続いていて、怖くて眠れませんでした。高層マンションの最上階とかも怖いですよね。 03-12 07:33:18","desc":"<p class=\"tweettext\">得に被害はありませんでした。でも、五分以内の間隔で来る余震が、ずっと続いていて、怖くて眠れませんでした。高層マンションの最上階とかも怖いですよね。</p><p class=\"time\">03-12 07:33:18</p>","lon":140.26118,"lat":35.41333,"img":"megaphone.png"},{"id":"weathernews2864","name":"昨日からの余震が朝まで続いていました電話の不通により大変な不安感を覚えました街灯や電信柱が大きく揺れ怖かったです 03-12 07:55:05","text":"昨日からの余震が朝まで続いていました電話の不通により大変な不安感を覚えました街灯や電信柱が大きく揺れ怖かったです 03-12 07:55:05","desc":"<p class=\"tweettext\">昨日からの余震が朝まで続いていました電話の不通により大変な不安感を覚えました街灯や電信柱が大きく揺れ怖かったです</p><p class=\"time\">03-12 07:55:05</p>","lon":140.31,"lat":35.41444,"img":"megaphone.png"},{"id":"weathernews2926","name":"被害状況：軽いものが棚から落ちた。近隣の家で二階の小窓が割れている模様。 03-12 07:57:32","text":"被害状況：軽いものが棚から落ちた。近隣の家で二階の小窓が割れている模様。 03-12 07:57:32","desc":"<p class=\"tweettext\">被害状況：軽いものが棚から落ちた。近隣の家で二階の小窓が割れている模様。</p><p class=\"time\">03-12 07:57:32</p>","lon":140.28424,"lat":35.43514,"img":"megaphone.png"},{"id":"weathernews3277","name":"震度5強、揺れは、5分以上続きました 戸棚の中身が出るまでは、達しなかったものの、ぐちゃぐちゃになりました！双子の乳幼児、４才の子を抱え、耐えてました。 03-...","text":"震度5強、揺れは、5分以上続きました 戸棚の中身が出るまでは、達しなかったものの、ぐちゃぐちゃになりました！双子の乳幼児、４才の子を抱え、耐えてました。 03-12 08:11:04","desc":"<p class=\"tweettext\">震度5強、揺れは、5分以上続きました 戸棚の中身が出るまでは、達しなかったものの、ぐちゃぐちゃになりました！双子の乳幼児、４才の子を抱え、耐えてました。</p><p class=\"time\">03-12 08:11:04</p>","lon":140.10696,"lat":35.41582,"img":"megaphone.png"},{"id":"weathernews3766","name":"日記からの転載で申し訳ありませんが…揺れる度に目が覚める。怖くて眠れない…昼間の地震が、耐性の無い私には相当なショックとストレスを齎したようです。店でPC作業を...","text":"日記からの転載で申し訳ありませんが…揺れる度に目が覚める。怖くて眠れない…昼間の地震が、耐性の無い私には相当なショックとストレスを齎したようです。店でPC作業をしていて、そろそろ休憩しようかな〜なんて思っていた矢先…次第に強くなる揺れ、いつもなら収まってくる頃なのに長い。聞こえる悲鳴、立ちすくむ親子、出口に向かって一斉に走り出すお客様方。店内の商品は次々と床に落ち、食器やディスプレイ品が粉々になり、棚板も外れてテレビが落下、この時点でパニックでした。更に停電、薄暗い館内で避難指示の放送が流れ、お客様を外へ誘導。店内は笑っちゃうくらいに悲惨な状態でした。天災の前に人は余りにも無力だと思い知りました。外に出ると埃？塵？か分かりませんが一面が白い。目の前の某巨大工場からは真っ黒い煙が上がり、辺りは花火の後のようなきな臭さが充満し、そんな中を消防車がけたたましいサイレンを鳴らしながら向かって行く。見るからに緊急事態。小心者なので、このイレギュラーな状況に既に頭は真っ白。何このアニメ的展開…、これって現実？携帯も繋がらず、外の情報が一切分からない。館は営業不能で閉店になり、電車は止まってるんでスタッフを各最寄り駅まで車で送り、自宅に向かうにも渋滞で進まない！苛立つ中で、ようやく19時過ぎに家族の無事を確認。本当に安心しました。関東の私ですらこの状態だったので、震源地付近の方は何も考える余裕すら無いですよね…皆さん不安な夜を過ごした事と思います。上手く言葉が出てきませんが、これ以上の被害が出ないよう心から祈っています。 03-12 08:42:18","desc":"<p class=\"tweettext\">日記からの転載で申し訳ありませんが…揺れる度に目が覚める。怖くて眠れない…昼間の地震が、耐性の無い私には相当なショックとストレスを齎したようです。店でPC作業をしていて、そろそろ休憩しようかな〜なんて思っていた矢先…次第に強くなる揺れ、いつもなら収まってくる頃なのに長い。聞こえる悲鳴、立ちすくむ親子、出口に向かって一斉に走り出すお客様方。店内の商品は次々と床に落ち、食器やディスプレイ品が粉々になり、棚板も外れてテレビが落下、この時点でパニックでした。更に停電、薄暗い館内で避難指示の放送が流れ、お客様を外へ誘導。店内は笑っちゃうくらいに悲惨な状態でした。天災の前に人は余りにも無力だと思い知りました。外に出ると埃？塵？か分かりませんが一面が白い。目の前の某巨大工場からは真っ黒い煙が上がり、辺りは花火の後のようなきな臭さが充満し、そんな中を消防車がけたたましいサイレンを鳴らしながら向かって行く。見るからに緊急事態。小心者なので、このイレギュラーな状況に既に頭は真っ白。何このアニメ的展開…、これって現実？携帯も繋がらず、外の情報が一切分からない。館は営業不能で閉店になり、電車は止まってるんでスタッフを各最寄り駅まで車で送り、自宅に向かうにも渋滞で進まない！苛立つ中で、ようやく19時過ぎに家族の無事を確認。本当に安心しました。関東の私ですらこの状態だったので、震源地付近の方は何も考える余裕すら無いですよね…皆さん不安な夜を過ごした事と思います。上手く言葉が出てきませんが、これ以上の被害が出ないよう心から祈っています。</p><p class=\"time\">03-12 08:42:18</p>","lon":140.07861,"lat":35.45333,"img":"megaphone.png"},{"id":"weathernews4100","name":"地震が起きた時の光景が蘇り怖いです。壁に掛けてあった額がゆさゆさ揺れっぱなしでした。 水槽は水が少なめが幸いしてこぼれませんでした。落下物は2〜3個です。 電気...","text":"地震が起きた時の光景が蘇り怖いです。壁に掛けてあった額がゆさゆさ揺れっぱなしでした。 水槽は水が少なめが幸いしてこぼれませんでした。落下物は2〜3個です。 電気、水道、プロバンスガスは普段通り使えて有り難いです。 稲毛から車で帰宅する家族が大渋滞で4時間もかかって心配しました。ｺﾝﾋﾞﾆのお弁当やﾊﾟﾝ類も殆ど無かったとか。 20時過ぎのﾒｰﾙは未明に、16:44の号外はなんと翌日5:45に届きました 7:57 03-12 09:12:19","desc":"<p class=\"tweettext\">地震が起きた時の光景が蘇り怖いです。壁に掛けてあった額がゆさゆさ揺れっぱなしでした。 水槽は水が少なめが幸いしてこぼれませんでした。落下物は2〜3個です。 電気、水道、プロバンスガスは普段通り使えて有り難いです。 稲毛から車で帰宅する家族が大渋滞で4時間もかかって心配しました。ｺﾝﾋﾞﾆのお弁当やﾊﾟﾝ類も殆ど無かったとか。 20時過ぎのﾒｰﾙは未明に、16:44の号外はなんと翌日5:45に届きました 7:57</p><p class=\"time\">03-12 09:12:19</p>","lon":139.98396,"lat":35.40361,"img":"megaphone.png"},{"id":"weathernews4297","name":"昨日の揺れはすごかったです。長く揺れていたので、さすがに恐怖を感じました。今朝からは余震も感じられません。近くに川がありますが、水位は変わらず、川底の岩が丸見え...","text":"昨日の揺れはすごかったです。長く揺れていたので、さすがに恐怖を感じました。今朝からは余震も感じられません。近くに川がありますが、水位は変わらず、川底の岩が丸見えです。防災広報では、大津波警報を発令中ですが、昨日のような恐怖感はありません。 03-12 09:35:48","desc":"<p class=\"tweettext\">昨日の揺れはすごかったです。長く揺れていたので、さすがに恐怖を感じました。今朝からは余震も感じられません。近くに川がありますが、水位は変わらず、川底の岩が丸見えです。防災広報では、大津波警報を発令中ですが、昨日のような恐怖感はありません。</p><p class=\"time\">03-12 09:35:48</p>","lon":140.20331,"lat":35.11832,"img":"megaphone.png"},{"id":"weathernews5073","name":"会社の駐車場が ひび割れしました。その時の状況は車が何度も浮き上がりました。本当に初めて見る光景に驚きました。東北地方の悲惨な状況は同じ日本なのかとショックです...","text":"会社の駐車場が ひび割れしました。その時の状況は車が何度も浮き上がりました。本当に初めて見る光景に驚きました。東北地方の悲惨な状況は同じ日本なのかとショックですね…まだまだ余震がありそうです皆さん気をつけましょう。 03-12 11:14:50","desc":"<p class=\"tweettext\">会社の駐車場が ひび割れしました。その時の状況は車が何度も浮き上がりました。本当に初めて見る光景に驚きました。東北地方の悲惨な状況は同じ日本なのかとショックですね…まだまだ余震がありそうです皆さん気をつけましょう。</p><p class=\"time\">03-12 11:14:50</p>","lon":140.16139,"lat":35.39972,"img":"megaphone.png"},{"id":"weathernews5255","name":"大きな地震が二度、余震もあり、しばらくユラユラ揺れて酔ってしまった。建物の損壊は無いものの、スーパーなどでは商品が落下、破損。自宅からは、市原市の石油工場火災の...","text":"大きな地震が二度、余震もあり、しばらくユラユラ揺れて酔ってしまった。建物の損壊は無いものの、スーパーなどでは商品が落下、破損。自宅からは、市原市の石油工場火災の、タンクが爆発・炎上している様子がハッキリ見えた。空高く火柱が上がる様は、衝撃でした。電気と水道に影響は無いものの、携帯と家電は地震発生直後より不能。メールは出来たが、通信規制は夜中まで続いていた。 03-12 11:47:39","desc":"<p class=\"tweettext\">大きな地震が二度、余震もあり、しばらくユラユラ揺れて酔ってしまった。建物の損壊は無いものの、スーパーなどでは商品が落下、破損。自宅からは、市原市の石油工場火災の、タンクが爆発・炎上している様子がハッキリ見えた。空高く火柱が上がる様は、衝撃でした。電気と水道に影響は無いものの、携帯と家電は地震発生直後より不能。メールは出来たが、通信規制は夜中まで続いていた。</p><p class=\"time\">03-12 11:47:39</p>","lon":139.94331,"lat":35.36083,"img":"megaphone.png"},{"id":"weathernews5256","name":"酔う感じの揺れだった。メダカの水槽の水が揺れて溢れ出していた。テレビを見ていたのに、地震速報が流れなかったので、大した地震ではないと思っていたら、どんどん揺れが...","text":"酔う感じの揺れだった。メダカの水槽の水が揺れて溢れ出していた。テレビを見ていたのに、地震速報が流れなかったので、大した地震ではないと思っていたら、どんどん揺れが大きくなり長く続いた。 03-12 11:47:52","desc":"<p class=\"tweettext\">酔う感じの揺れだった。メダカの水槽の水が揺れて溢れ出していた。テレビを見ていたのに、地震速報が流れなかったので、大した地震ではないと思っていたら、どんどん揺れが大きくなり長く続いた。</p><p class=\"time\">03-12 11:47:52</p>","lon":140.30447,"lat":35.41346,"img":"megaphone.png"},{"id":"weathernews5387","name":"電話が繋がりにくい 03-12 12:12:52","text":"電話が繋がりにくい 03-12 12:12:52","desc":"<p class=\"tweettext\">電話が繋がりにくい</p><p class=\"time\">03-12 12:12:52</p>","lon":140.35417,"lat":35.41221,"img":"megaphone.png"},{"id":"weathernews5493","name":"車のボンネットに昨日の雨の汚れが…でも、普通なら茶色なのに、今日のは緑色なんです！これってコスモ石油とかJFGの影響でしょうか…？ 03-12 12:33:15","text":"車のボンネットに昨日の雨の汚れが…でも、普通なら茶色なのに、今日のは緑色なんです！これってコスモ石油とかJFGの影響でしょうか…？ 03-12 12:33:15","desc":"<p class=\"tweettext\">車のボンネットに昨日の雨の汚れが…でも、普通なら茶色なのに、今日のは緑色なんです！これってコスモ石油とかJFGの影響でしょうか…？</p><p class=\"time\">03-12 12:33:15</p>","lon":139.95917,"lat":35.37625,"img":"megaphone.png"},{"id":"weathernews5982","name":"千葉県は地震の多いところですが、それでも初めて経験した激しい横揺れでした。幸い酷い被害はなかったのですが、１つ驚いた事は停めてあった車の位地がずれていたんです!...","text":"千葉県は地震の多いところですが、それでも初めて経験した激しい横揺れでした。幸い酷い被害はなかったのですが、１つ驚いた事は停めてあった車の位地がずれていたんです!!サイドブレーキの引きが甘かったんだ。と言われるかも知れませんが広い意味で言えば気を付けられる『減災』かな!?と思いレポートしました。 03-12 13:26:35","desc":"<p class=\"tweettext\">千葉県は地震の多いところですが、それでも初めて経験した激しい横揺れでした。幸い酷い被害はなかったのですが、１つ驚いた事は停めてあった車の位地がずれていたんです!!サイドブレーキの引きが甘かったんだ。と言われるかも知れませんが広い意味で言えば気を付けられる『減災』かな!?と思いレポートしました。</p><p class=\"time\">03-12 13:26:35</p>","lon":140.35329,"lat":35.37494,"img":"megaphone.png"},{"id":"weathernews5993","name":"未だ余震が続いてます 被害はありません。 03-12 13:27:03","text":"未だ余震が続いてます 被害はありません。 03-12 13:27:03","desc":"<p class=\"tweettext\">未だ余震が続いてます 被害はありません。</p><p class=\"time\">03-12 13:27:03</p>","lon":140.29984,"lat":35.43591,"img":"megaphone.png"},{"id":"weathernews6214","name":"余震続いています。大津波警報の為、避難されてる方が多いです。 03-12 13:39:04","text":"余震続いています。大津波警報の為、避難されてる方が多いです。 03-12 13:39:04","desc":"<p class=\"tweettext\">余震続いています。大津波警報の為、避難されてる方が多いです。</p><p class=\"time\">03-12 13:39:04</p>","lon":140.38805,"lat":35.36789,"img":"megaphone.png"},{"id":"weathernews6458","name":"ひび割れがある 03-12 13:54:00","text":"ひび割れがある 03-12 13:54:00","desc":"<p class=\"tweettext\">  ひび割れがある</p><p class=\"time\">03-12 13:54:00</p>","lon":140.03168,"lat":35.38806,"img":"megaphone.png"},{"id":"weathernews6734","name":"此処は高台で地盤が固いせいか、被害は殆どありませんでした。あんなに強い揺れで、まるで船に乗って揺れている感覚だったのに一番気にしていた食器なども落ちることもなく...","text":"此処は高台で地盤が固いせいか、被害は殆どありませんでした。あんなに強い揺れで、まるで船に乗って揺れている感覚だったのに一番気にしていた食器なども落ちることもなく、本当にホッとしています。 03-12 14:12:32","desc":"<p class=\"tweettext\">此処は高台で地盤が固いせいか、被害は殆どありませんでした。あんなに強い揺れで、まるで船に乗って揺れている感覚だったのに一番気にしていた食器なども落ちることもなく、本当にホッとしています。</p><p class=\"time\">03-12 14:12:32</p>","lon":140.10365,"lat":35.44445,"img":"megaphone.png"},{"id":"weathernews7018","name":"外房ですが、大津波警報から津波注意報に変わりました。町長から防災無線で流れました。まだ余震と津波は注意しなければいけませんが、安心です。町の消防団も警戒してます...","text":"外房ですが、大津波警報から津波注意報に変わりました。町長から防災無線で流れました。まだ余震と津波は注意しなければいけませんが、安心です。町の消防団も警戒してます。海や川には近づかないようにと警報が流れてます。 03-12 14:33:31","desc":"<p class=\"tweettext\">外房ですが、大津波警報から津波注意報に変わりました。町長から防災無線で流れました。まだ余震と津波は注意しなければいけませんが、安心です。町の消防団も警戒してます。海や川には近づかないようにと警報が流れてます。</p><p class=\"time\">03-12 14:33:31</p>","lon":140.3661,"lat":35.36558,"img":"megaphone.png"},{"id":"weathernews7091","name":"余震は減ってきているようですが、常に揺れているような感じで気持ち悪いです。慌ててリュックに必要ものを入れましたが、日頃からの準備は大事ですね…携帯電話はつながり...","text":"余震は減ってきているようですが、常に揺れているような感じで気持ち悪いです。慌ててリュックに必要ものを入れましたが、日頃からの準備は大事ですね…携帯電話はつながりにくいです。家のそばでは、消防団の方々が見回りをしていました。 03-12 14:38:51","desc":"<p class=\"tweettext\">余震は減ってきているようですが、常に揺れているような感じで気持ち悪いです。慌ててリュックに必要ものを入れましたが、日頃からの準備は大事ですね…携帯電話はつながりにくいです。家のそばでは、消防団の方々が見回りをしていました。</p><p class=\"time\">03-12 14:38:51</p>","lon":140.28537,"lat":35.43686,"img":"megaphone.png"},{"id":"weathernews7397","name":"初め静かに、それから横に、と言うか前後左右に揺れました。丁度小学校に居て、ガラス窓が音をたてて激しく揺れてるのがハッキリ見えましたが、軽い物が棚から落ちた程度で...","text":"初め静かに、それから横に、と言うか前後左右に揺れました。丁度小学校に居て、ガラス窓が音をたてて激しく揺れてるのがハッキリ見えましたが、軽い物が棚から落ちた程度で、被害はありませんでした 03-12 15:06:01","desc":"<p class=\"tweettext\">初め静かに、それから横に、と言うか前後左右に揺れました。丁度小学校に居て、ガラス窓が音をたてて激しく揺れてるのがハッキリ見えましたが、軽い物が棚から落ちた程度で、被害はありませんでした </p><p class=\"time\">03-12 15:06:01</p>","lon":140.04639,"lat":35.35361,"img":"megaphone.png"},{"id":"weathernews7483","name":"初めての体験です。関東大震災より大きいのかな 03-12 15:13:48","text":"初めての体験です。関東大震災より大きいのかな 03-12 15:13:48","desc":"<p class=\"tweettext\">初めての体験です。関東大震災より大きいのかな</p><p class=\"time\">03-12 15:13:48</p>","lon":140.00043,"lat":35.42577,"img":"megaphone.png"},{"id":"weathernews7792","name":"昨日の揺れはかなり大きく、長く続きました。 もびっくりしていましたが、あまりにも余震が頻繁なので慣れました。被害は棚上の物が落ちたり倒れたりした位で済みました。...","text":"昨日の揺れはかなり大きく、長く続きました。 もびっくりしていましたが、あまりにも余震が頻繁なので慣れました。被害は棚上の物が落ちたり倒れたりした位で済みました。たまたま地震のとき家にいたので良かったと思います。主人が石油工場勤めで心配でしたが大丈夫でホッとしました。 03-12 15:58:44","desc":"<p class=\"tweettext\">昨日の揺れはかなり大きく、長く続きました。 もびっくりしていましたが、あまりにも余震が頻繁なので慣れました。被害は棚上の物が落ちたり倒れたりした位で済みました。たまたま地震のとき家にいたので良かったと思います。主人が石油工場勤めで心配でしたが大丈夫でホッとしました。</p><p class=\"time\">03-12 15:58:44</p>","lon":140.08057,"lat":35.45243,"img":"megaphone.png"},{"id":"weathernews7920","name":"地震災害時に携帯が活躍出来ないと言う事が思い知らされました。仕事場では災害時における規則も作れるけど家族の安否が確認出来ないのがネックです それから家の中の地震...","text":"地震災害時に携帯が活躍出来ないと言う事が思い知らされました。仕事場では災害時における規則も作れるけど家族の安否が確認出来ないのがネックです それから家の中の地震対策でタンス等は済んでいるけどテレビとパソコンが薄型になって意外と簡単に倒れ、ありゃ って感じました。 03-12 16:16:26","desc":"<p class=\"tweettext\">地震災害時に携帯が活躍出来ないと言う事が思い知らされました。仕事場では災害時における規則も作れるけど家族の安否が確認出来ないのがネックです それから家の中の地震対策でタンス等は済んでいるけどテレビとパソコンが薄型になって意外と簡単に倒れ、ありゃ  って感じました。</p><p class=\"time\">03-12 16:16:26</p>","lon":140.11307,"lat":35.115,"img":"megaphone.png"},{"id":"weathernews8263","name":"昨日家にいるときに 被災しました。 犬二匹を抱えて玄関で 奮えているうちに、 ぶつっと音がして停電。 今日の４時に復旧しましたが また停電するらしいので びくび...","text":"昨日家にいるときに 被災しました。 犬二匹を抱えて玄関で 奮えているうちに、 ぶつっと音がして停電。 今日の４時に復旧しましたが また停電するらしいので びくびくしています。 バイトに行ってる間に 地震があったら犬は どうしようと焦っています。 いまだ小さい余震が 続いています。 03-12 17:21:03","desc":"<p class=\"tweettext\"> 昨日家にいるときに 被災しました。 犬二匹を抱えて玄関で 奮えているうちに、 ぶつっと音がして停電。 今日の４時に復旧しましたが また停電するらしいので びくびくしています。 バイトに行ってる間に 地震があったら犬は どうしようと焦っています。 いまだ小さい余震が 続いています。</p><p class=\"time\">03-12 17:21:03</p>","lon":140.37299,"lat":35.44576,"img":"megaphone.png"},{"id":"weathernews8268","name":"昨夜は一晩中余震が続いていました。こちらはそんなに被害は出ませんでしたが、古いブロック塀が倒れたところがあったみたいです。 03-12 17:24:03","text":"昨夜は一晩中余震が続いていました。こちらはそんなに被害は出ませんでしたが、古いブロック塀が倒れたところがあったみたいです。 03-12 17:24:03","desc":"<p class=\"tweettext\">昨夜は一晩中余震が続いていました。こちらはそんなに被害は出ませんでしたが、古いブロック塀が倒れたところがあったみたいです。</p><p class=\"time\">03-12 17:24:03</p>","lon":140.06496,"lat":35.36411,"img":"megaphone.png"},{"id":"weathernews8512","name":"退院の当日の地震。車椅子に座ってましたがかなり横ゆれしていました。部屋の壁にかけてあった時計が落ち 庭の石燈籠が倒れました。自力で避難ができないため非常に不安 ...","text":"退院の当日の地震。車椅子に座ってましたがかなり横ゆれしていました。部屋の壁にかけてあった時計が落ち 庭の石燈籠が倒れました。自力で避難ができないため非常に不安 03-12 18:27:20","desc":"<p class=\"tweettext\">退院の当日の地震。車椅子に座ってましたがかなり横ゆれしていました。部屋の壁にかけてあった時計が落ち 庭の石燈籠が倒れました。自力で避難ができないため非常に不安</p><p class=\"time\">03-12 18:27:20</p>","lon":140.06812,"lat":35.44811,"img":"megaphone.png"},{"id":"weathernews8739","name":"やっと、外房線が再開しました。茂原〜千葉間です。 03-12 19:28:05","text":"やっと、外房線が再開しました。茂原〜千葉間です。 03-12 19:28:05","desc":"<p class=\"tweettext\">やっと、外房線が再開しました。茂原〜千葉間です。</p><p class=\"time\">03-12 19:28:05</p>","lon":140.29568,"lat":35.43624,"img":"megaphone.png"},{"id":"weathernews8766","name":"目立った大きな被害はありません。昨日は市内一部で停電があったようですが、私の地域では大丈夫でした。コンビニ等では食料不足がありますが、スーパーにはあります。 0...","text":"目立った大きな被害はありません。昨日は市内一部で停電があったようですが、私の地域では大丈夫でした。コンビニ等では食料不足がありますが、スーパーにはあります。 03-12 19:37:18","desc":"<p class=\"tweettext\">目立った大きな被害はありません。昨日は市内一部で停電があったようですが、私の地域では大丈夫でした。コンビニ等では食料不足がありますが、スーパーにはあります。</p><p class=\"time\">03-12 19:37:18</p>","lon":140.29179,"lat":35.42735,"img":"megaphone.png"},{"id":"weathernews8856","name":"大きな横揺れ地震とともに、大津波警報発令 地元海岸で初めて見る海岸 津波が来ると思いました。南房総市外房側は電気などラインラインは大丈夫ですが、内房側は 停電が...","text":"大きな横揺れ地震とともに、大津波警報発令 地元海岸で初めて見る海岸 津波が来ると思いました。南房総市外房側は電気などラインラインは大丈夫ですが、内房側は 停電がありました。 03-12 20:02:34","desc":"<p class=\"tweettext\">大きな横揺れ地震とともに、大津波警報発令  地元海岸で初めて見る海岸  津波が来ると思いました。南房総市外房側は電気などラインラインは大丈夫ですが、内房側は  停電がありました。</p><p class=\"time\">03-12 20:02:34</p>","lon":139.99236,"lat":35.02847,"img":"megaphone.png"},{"id":"weathernews8913","name":"今のところ、被害はないが、今後停電するかも。まだ津波注意報も解除してない。安心できない。 03-12 20:15:42","text":"今のところ、被害はないが、今後停電するかも。まだ津波注意報も解除してない。安心できない。 03-12 20:15:42","desc":"<p class=\"tweettext\">今のところ、被害はないが、今後停電するかも。まだ津波注意報も解除してない。安心できない。</p><p class=\"time\">03-12 20:15:42</p>","lon":139.92764,"lat":35.40146,"img":"megaphone.png"},{"id":"weathernews8948","name":"最初は緩やかな揺れだったのが30秒ほどで大きな横揺れと縦揺れになりました２階にいたのでとても怖かったです 03-12 20:25:19","text":"最初は緩やかな揺れだったのが30秒ほどで大きな横揺れと縦揺れになりました２階にいたのでとても怖かったです 03-12 20:25:19","desc":"<p class=\"tweettext\">最初は緩やかな揺れだったのが30秒ほどで大きな横揺れと縦揺れになりました２階にいたのでとても怖かったです</p><p class=\"time\">03-12 20:25:19</p>","lon":139.93138,"lat":35.41836,"img":"megaphone.png"},{"id":"weathernews9272","name":"風があるためか、窓がカタカタ鳴るたびに余震かと思いびくびくしています。昼間より夜のほうが、はるかに怖いです。電話は未だにつながりにくいですが、被災された皆様の緊...","text":"風があるためか、窓がカタカタ鳴るたびに余震かと思いびくびくしています。昼間より夜のほうが、はるかに怖いです。電話は未だにつながりにくいですが、被災された皆様の緊急の電話が無事につながることを祈ります。 03-12 21:47:31","desc":"<p class=\"tweettext\">風があるためか、窓がカタカタ鳴るたびに余震かと思いびくびくしています。昼間より夜のほうが、はるかに怖いです。電話は未だにつながりにくいですが、被災された皆様の緊急の電話が無事につながることを祈ります。</p><p class=\"time\">03-12 21:47:31</p>","lon":140.35704,"lat":35.38423,"img":"megaphone.png"},{"id":"weathernews9633","name":"１１日の地震、会社の人のひとことからどんどん揺れが凄くなっていった。全員外に出てたら、建物はもちろん車、地面全体まで揺れていた。立っていられないぐらいで、収まっ...","text":"１１日の地震、会社の人のひとことからどんどん揺れが凄くなっていった。全員外に出てたら、建物はもちろん車、地面全体まで揺れていた。立っていられないぐらいで、収まった後、気分が少し悪くなった。あんなでかい地震は生まれて始めての体験だった。 03-12 22:55:59","desc":"<p class=\"tweettext\">１１日の地震、会社の人のひとことからどんどん揺れが凄くなっていった。全員外に出てたら、建物はもちろん車、地面全体まで揺れていた。立っていられないぐらいで、収まった後、気分が少し悪くなった。あんなでかい地震は生まれて始めての体験だった。</p><p class=\"time\">03-12 22:55:59</p>","lon":140.02078,"lat":35.04314,"img":"megaphone.png"}]}