{"version":1,"tile":"9/457/192","count":20,"reports":[{"id":"weathernews242","name":"市内小学校勤務です。またおとといの余震かと思っていたら、あっという間に激しくなり、立っていられませんでした。子供達は帰りの会をしていて、すぐ机の下に隠れました。...","text":"市内小学校勤務です。またおとといの余震かと思っていたら、あっという間に激しくなり、立っていられませんでした。子供達は帰りの会をしていて、すぐ机の下に隠れました。物が落ちたり、テレビ台が倒れたりしましたが、怪我人も無く、全員家庭に受け渡すことができました。あまりの恐怖に子供達は号泣でした。DOCOMOはメールが出来ましたが、ａｕはつながらなそうでした。信号が消えていて、家に帰るのも大変でした。停電なので、反射板ストーブとろうそくで生活しています。水道とガスは使えます。命があることが、本当にありがたい。今日は居間でみんなで寝ます。 03-12 01:57:57","label":"市内小学校勤務です。またおとといの余震かと思っていたら、あっという間に激しくなり...","desc":"<p class=\"tweettext\">市内小学校勤務です。またおとといの余震かと思っていたら、あっという間に激しくなり、立っていられませんでした。子供達は帰りの会をしていて、すぐ机の下に隠れました。物が落ちたり、テレビ台が倒れたりしましたが、怪我人も無く、全員家庭に受け渡すことができました。あまりの恐怖に子供達は号泣でした。DOCOMOはメールが出来ましたが、ａｕはつながらなそうでした。信号が消えていて、家に帰るのも大変でした。停電なので、反射板ストーブとろうそくで生活しています。水道とガスは使えます。命があることが、本当にありがたい。今日は居間でみんなで寝ます。</p><p class=\"time\">03-12 01:57:57</p>","lon":141.48843,"lat":40.51231,"img":"megaphone.png"},{"id":"weathernews389","name":"まだ余震がちょこちょこ続いています停電し市内全体真っ暗信号も国道だけで夜中以外は車で走るのも大変また断水している地域もあり皆さん大変そうです昨日は夕方まではコン...","text":"まだ余震がちょこちょこ続いています停電し市内全体真っ暗信号も国道だけで夜中以外は車で走るのも大変また断水している地域もあり皆さん大変そうです昨日は夕方まではコンビニが現金売りしてたみたいです電気等の復旧のめどはまだだそうです一度やんだ雪もまた降っています信号がまだ直ってないと思うので外を移動するときはくれぐれも気をつけてください 03-12 02:34:07","label":"まだ余震がちょこちょこ続いています停電し市内全体真っ暗信号も国道だけで夜中以外は...","desc":"<p class=\"tweettext\">まだ余震がちょこちょこ続いています停電し市内全体真っ暗信号も国道だけで夜中以外は車で走るのも大変また断水している地域もあり皆さん大変そうです昨日は夕方まではコンビニが現金売りしてたみたいです電気等の復旧のめどはまだだそうです一度やんだ雪もまた降っています信号がまだ直ってないと思うので外を移動するときはくれぐれも気をつけてください</p><p class=\"time\">03-12 02:34:07</p>","lon":141.51334,"lat":40.48682,"img":"megaphone.png"},{"id":"weathernews958","name":"携帯の電波が入りにくくなっている 03-12 05:13:58","text":"携帯の電波が入りにくくなっている 03-12 05:13:58","label":"携帯の電波が入りにくくなっている 03-12 05:13:58","desc":"<p class=\"tweettext\">携帯の電波が入りにくくなっている</p><p class=\"time\">03-12 05:13:58</p>","lon":141.37639,"lat":40.68833,"img":"megaphone.png"},{"id":"weathernews959","name":"携帯の電波が入りにくくなっている 03-12 05:14:04","text":"携帯の電波が入りにくくなっている 03-12 05:14:04","label":"携帯の電波が入りにくくなっている 03-12 05:14:04","desc":"<p class=\"tweettext\">携帯の電波が入りにくくなっている</p><p class=\"time\">03-12 05:14:04</p>","lon":141.37639,"lat":40.68833,"img":"megaphone.png"},{"id":"weathernews1712","name":"停電中。家はぐちゃぐちゃ 03-12 07:06:00","text":"停電中。家はぐちゃぐちゃ 03-12 07:06:00","label":"停電中。家はぐちゃぐちゃ 03-12 07:06:00","desc":"<p class=\"tweettext\">停電中。家はぐちゃぐちゃ</p><p class=\"time\">03-12 07:06:00</p>","lon":141.46381,"lat":40.48134,"img":"megaphone.png"},{"id":"weathernews2009","name":"大きな揺れが繰り返しきて恐いです。今も余震が断続的に続いています。水は出ますが電機が止まったままです。家はオール電家なのでかなり寒いです。 03-12 07:1...","text":"大きな揺れが繰り返しきて恐いです。今も余震が断続的に続いています。水は出ますが電機が止まったままです。家はオール電家なのでかなり寒いです。 03-12 07:17:18","label":"大きな揺れが繰り返しきて恐いです。今も余震が断続的に続いています。水は出ますが電...","desc":"<p class=\"tweettext\">大きな揺れが繰り返しきて恐いです。今も余震が断続的に続いています。水は出ますが電機が止まったままです。家はオール電家なのでかなり寒いです。</p><p class=\"time\">03-12 07:17:18</p>","lon":141.46143,"lat":40.47231,"img":"megaphone.png"},{"id":"weathernews4025","name":"塩釜の家には船突き刺さる!!道路には木や屋根のかけらが飛び散る 03-12 09:04:15","text":"塩釜の家には船突き刺さる!!道路には木や屋根のかけらが飛び散る 03-12 09:04:15","label":"塩釜の家には船突き刺さる!!道路には木や屋根のかけらが飛び散る 03-12 09...","desc":"<p class=\"tweettext\">塩釜の家には船突き刺さる!!道路には木や屋根のかけらが飛び散る</p><p class=\"time\">03-12 09:04:15</p>","lon":141.36906,"lat":40.6831,"img":"megaphone.png"},{"id":"weathernews5700","name":"昨日、IGR鉄道内で被災しました。3時間以上車内閉じ込められ、深夜に八戸へ何とか移動し、現在八戸市三条目公民館にて避難生活中です。公民館には現在約20人ほどが避...","text":"昨日、IGR鉄道内で被災しました。3時間以上車内閉じ込められ、深夜に八戸へ何とか移動し、現在八戸市三条目公民館にて避難生活中です。公民館には現在約20人ほどが避難生活をしています。現在も余震がつづいています。 03-12 13:07:57","label":"昨日、IGR鉄道内で被災しました。3時間以上車内閉じ込められ、深夜に八戸へ何とか...","desc":"<p class=\"tweettext\">昨日、IGR鉄道内で被災しました。3時間以上車内閉じ込められ、深夜に八戸へ何とか移動し、現在八戸市三条目公民館にて避難生活中です。公民館には現在約20人ほどが避難生活をしています。現在も余震がつづいています。</p><p class=\"time\">03-12 13:07:57</p>","lon":141.42055,"lat":40.51539,"img":"megaphone.png"},{"id":"weathernews6477","name":"地震津波のせいで、海からは遠いのに近くの川から水が溢れてきて家が浸水するんじゃないかと思った ほんとに怖い 早く停電も何とかしてほしい！ラジオだけだじゃ不安！ ...","text":"地震津波のせいで、海からは遠いのに近くの川から水が溢れてきて家が浸水するんじゃないかと思った ほんとに怖い 早く停電も何とかしてほしい！ラジオだけだじゃ不安！ も早く使えるようにならないとガソリンもなくなっちゃう 03-12 13:54:58","label":"地震津波のせいで、海からは遠いのに近くの川から水が溢れてきて家が浸水するんじゃな...","desc":"<p class=\"tweettext\">地震津波のせいで、海からは遠いのに近くの川から水が溢れてきて家が浸水するんじゃないかと思った ほんとに怖い 早く停電も何とかしてほしい！ラジオだけだじゃ不安！ も早く使えるようにならないとガソリンもなくなっちゃう </p><p class=\"time\">03-12 13:54:58</p>","lon":141.45743,"lat":40.58281,"img":"megaphone.png"},{"id":"weathernews7641","name":"現在停電中で、寒さに対応するのが大変です。私は障害者で一人暮しで、湯たんぽを抱えある食料でなんとか凌いで居ます。携帯の充電も切れつつあり、今夜も暗闇で余震に不安...","text":"現在停電中で、寒さに対応するのが大変です。私は障害者で一人暮しで、湯たんぽを抱えある食料でなんとか凌いで居ます。携帯の充電も切れつつあり、今夜も暗闇で余震に不安を募らせ過ごすのが辛い、せめて電気が復旧して欲しいです。 03-12 15:35:22","label":"現在停電中で、寒さに対応するのが大変です。私は障害者で一人暮しで、湯たんぽを抱え...","desc":"<p class=\"tweettext\">現在停電中で、寒さに対応するのが大変です。私は障害者で一人暮しで、湯たんぽを抱えある食料でなんとか凌いで居ます。携帯の充電も切れつつあり、今夜も暗闇で余震に不安を募らせ過ごすのが辛い、せめて電気が復旧して欲しいです。</p><p class=\"time\">03-12 15:35:22</p>","lon":141.50111,"lat":40.46722,"img":"megaphone.png"},{"id":"weathernews8663","name":"停電です。復旧の観とうしも、まだわかりません。 一番困るのは、暖房が使えず寒いことです。 03-12 19:09:49","text":"停電です。復旧の観とうしも、まだわかりません。 一番困るのは、暖房が使えず寒いことです。 03-12 19:09:49","label":"停電です。復旧の観とうしも、まだわかりません。 一番困るのは、暖房が使えず寒いこ...","desc":"<p class=\"tweettext\">停電です。復旧の観とうしも、まだわかりません。 一番困るのは、暖房が使えず寒いことです。</p><p class=\"time\">03-12 19:09:49</p>","lon":141.423,"lat":40.59827,"img":"megaphone.png"},{"id":"weathernews8743","name":"今だに余震が続いています。地震後からの停電は今だに続いており、普及の目処がたってないようです。暖房が使えないので防寒対策が大事です。 03-12 19:29:0...","text":"今だに余震が続いています。地震後からの停電は今だに続いており、普及の目処がたってないようです。暖房が使えないので防寒対策が大事です。 03-12 19:29:09","label":"今だに余震が続いています。地震後からの停電は今だに続いており、普及の目処がたって...","desc":"<p class=\"tweettext\">今だに余震が続いています。地震後からの停電は今だに続いており、普及の目処がたってないようです。暖房が使えないので防寒対策が大事です。</p><p class=\"time\">03-12 19:29:09</p>","lon":141.48843,"lat":40.51231,"img":"megaphone.png"},{"id":"weathernews9123","name":"電気が復旧した地域もあるようですがまだ停電が続いています。暖房は非常用の灯油ストーブでなんとかもっていますが照明がつかないので真っ暗です。 03-12 21:0...","text":"電気が復旧した地域もあるようですがまだ停電が続いています。暖房は非常用の灯油ストーブでなんとかもっていますが照明がつかないので真っ暗です。 03-12 21:06:56","label":"電気が復旧した地域もあるようですがまだ停電が続いています。暖房は非常用の灯油スト...","desc":"<p class=\"tweettext\">電気が復旧した地域もあるようですがまだ停電が続いています。暖房は非常用の灯油ストーブでなんとかもっていますが照明がつかないので真っ暗です。</p><p class=\"time\">03-12 21:06:56</p>","lon":141.37643,"lat":40.65072,"img":"megaphone.png"},{"id":"weathernews9160","name":"20時20分ごろに八戸市の一部に電気が復旧しました でもまだ復旧していない所もあるので早く全域に復旧して欲しいと思います 03-12 21:16:55","text":"20時20分ごろに八戸市の一部に電気が復旧しました でもまだ復旧していない所もあるので早く全域に復旧して欲しいと思います 03-12 21:16:55","label":"20時20分ごろに八戸市の一部に電気が復旧しました でもまだ復旧していない所もあ...","desc":"<p class=\"tweettext\">20時20分ごろに八戸市の一部に電気が復旧しました でもまだ復旧していない所もあるので早く全域に復旧して欲しいと思います </p><p class=\"time\">03-12 21:16:55</p>","lon":141.46143,"lat":40.47231,"img":"megaphone.png"},{"id":"weathernews9182","name":"現在、停電。官舎に住んでいるため貯水タンクの水がなくなり断水。スーパーは時間・商品限定で販売。一番助かるのは個人商店。手計算のため販売してくれます。余震の間隔は...","text":"現在、停電。官舎に住んでいるため貯水タンクの水がなくなり断水。スーパーは時間・商品限定で販売。一番助かるのは個人商店。手計算のため販売してくれます。余震の間隔は広くなりました。 03-12 21:21:37","label":"現在、停電。官舎に住んでいるため貯水タンクの水がなくなり断水。スーパーは時間・商...","desc":"<p class=\"tweettext\">現在、停電。官舎に住んでいるため貯水タンクの水がなくなり断水。スーパーは時間・商品限定で販売。一番助かるのは個人商店。手計算のため販売してくれます。余震の間隔は広くなりました。</p><p class=\"time\">03-12 21:21:37</p>","lon":141.37396,"lat":40.68007,"img":"megaphone.png"},{"id":"weathernews9421","name":"ばんわ 昨夜から午前中迄停電していたけど午後には電気が復旧したけど津波の注意しながらの生活をしてます DoCoMo以外からの は先程から繋がり始めています 03...","text":"ばんわ 昨夜から午前中迄停電していたけど午後には電気が復旧したけど津波の注意しながらの生活をしてます DoCoMo以外からの は先程から繋がり始めています 03-12 22:21:04","label":"ばんわ 昨夜から午前中迄停電していたけど午後には電気が復旧したけど津波の注意しな...","desc":"<p class=\"tweettext\">ばんわ    昨夜から午前中迄停電していたけど午後には電気が復旧したけど津波の注意しながらの生活をしてます     DoCoMo以外からの は先程から繋がり始めています </p><p class=\"time\">03-12 22:21:04</p>","lon":141.37181,"lat":40.96688,"img":"megaphone.png"},{"id":"weathernews9581","name":"青森県八戸市の一部で電気が復旧し始めました。今のところ、通電による火災は発生していません。通信関係では恐らく基幹光ファイバライン断線の為、携帯電話からの発信（パ...","text":"青森県八戸市の一部で電気が復旧し始めました。今のところ、通電による火災は発生していません。通信関係では恐らく基幹光ファイバライン断線の為、携帯電話からの発信（パケット通信のみ可）やFTTHでのVoIP、インターネットの利用はできなくなっています。緊急時の通報手段がなくとても心配です。また、八戸市内断水の可能性が出てきたらしく、消防団員にはメールが届いています。（あまり公には出ていないので、公表していいのかわかりませんが…）節水、節電がこれから必要です。 03-12 22:45:45","label":"青森県八戸市の一部で電気が復旧し始めました。今のところ、通電による火災は発生して...","desc":"<p class=\"tweettext\">青森県八戸市の一部で電気が復旧し始めました。今のところ、通電による火災は発生していません。通信関係では恐らく基幹光ファイバライン断線の為、携帯電話からの発信（パケット通信のみ可）やFTTHでのVoIP、インターネットの利用はできなくなっています。緊急時の通報手段がなくとても心配です。また、八戸市内断水の可能性が出てきたらしく、消防団員にはメールが届いています。（あまり公には出ていないので、公表していいのかわかりませんが…）節水、節電がこれから必要です。</p><p class=\"time\">03-12 22:45:45</p>","lon":141.43333,"lat":40.50944,"img":"megaphone.png"},{"id":"weathernews9641","name":"ずっと停電が続いていて非常に生活しずらい状況がでしたが８時過ぎに電気が復旧して少し安心できました。でも余震はまだ続いているので不安です。３度の大きい地震で家の壁...","text":"ずっと停電が続いていて非常に生活しずらい状況がでしたが８時過ぎに電気が復旧して少し安心できました。でも余震はまだ続いているので不安です。３度の大きい地震で家の壁にひびがが大きくなってしまいました。地盤がゆるいので少しの揺れでも大きく感じてしまうので不安です。 03-12 22:58:43","label":"ずっと停電が続いていて非常に生活しずらい状況がでしたが８時過ぎに電気が復旧して少...","desc":"<p class=\"tweettext\">ずっと停電が続いていて非常に生活しずらい状況がでしたが８時過ぎに電気が復旧して少し安心できました。でも余震はまだ続いているので不安です。３度の大きい地震で家の壁にひびがが大きくなってしまいました。地盤がゆるいので少しの揺れでも大きく感じてしまうので不安です。</p><p class=\"time\">03-12 22:58:43</p>","lon":141.51457,"lat":40.48779,"img":"megaphone.png"},{"id":"weathernews9688","name":"今起きたら電気が復活したみたいですね。但し、テレビはまだ駄目みたいですね。 03-12 23:13:50","text":"今起きたら電気が復活したみたいですね。但し、テレビはまだ駄目みたいですね。 03-12 23:13:50","label":"今起きたら電気が復活したみたいですね。但し、テレビはまだ駄目みたいですね。 03...","desc":"<p class=\"tweettext\">今起きたら電気が復活したみたいですね。但し、テレビはまだ駄目みたいですね。</p><p class=\"time\">03-12 23:13:50</p>","lon":141.37527,"lat":40.68611,"img":"megaphone.png"},{"id":"weathernews9803","name":"今起きたら電気が復活したみたいですね。但し、テレビはまだ駄目みたいですね。 03-12 23:41:39","text":"今起きたら電気が復活したみたいですね。但し、テレビはまだ駄目みたいですね。 03-12 23:41:39","label":"今起きたら電気が復活したみたいですね。但し、テレビはまだ駄目みたいですね。 03...","desc":"<p class=\"tweettext\">今起きたら電気が復活したみたいですね。但し、テレビはまだ駄目みたいですね。</p><p class=\"time\">03-12 23:41:39</p>","lon":141.37527,"lat":40.68611,"img":"megaphone.png"}]}