{"version":1,"tile":"9/456/189","count":5,"reports":[{"id":"weathernews174","name":"3/11 14:45分頃の地震は半地下の頑丈な耐震構造の職場内にいましたが ゆらゆらと大揺れで治まった？と思ったら又…だったので びっくりした…18時過ぎから同...","text":"3/11 14:45分頃の地震は半地下の頑丈な耐震構造の職場内にいましたが ゆらゆらと大揺れで治まった？と思ったら又…だったので びっくりした…18時過ぎから同僚達は電話をかけていたが連絡つかず…繋がらない！携帯・家電話も！と 慌てていた…私はソフトバンクで娘AUにかけたが繋がらない…時間をﾗﾝﾀﾞﾑにしてかけて10回目で繋がり安否確認(JRが止まっているので職場近くの友人宅へ宿泊)…試しに自宅にいながらにして私のソフトバンクから自宅に電話→繋がらない(T-T)何回かやってダメで諦めた虎杖浜から車で帰宅する友人に連絡つかない…携帯ダメ・メールもダメ…未だ連絡つかない 03-12 01:43:31","desc":"<p class=\"tweettext\">3/11 14:45分頃の地震は半地下の頑丈な耐震構造の職場内にいましたが ゆらゆらと大揺れで治まった？と思ったら又…だったので びっくりした…18時過ぎから同僚達は電話をかけていたが連絡つかず…繋がらない！携帯・家電話も！と 慌てていた…私はソフトバンクで娘AUにかけたが繋がらない…時間をﾗﾝﾀﾞﾑにしてかけて10回目で繋がり安否確認(JRが止まっているので職場近くの友人宅へ宿泊)…試しに自宅にいながらにして私のソフトバンクから自宅に電話→繋がらない(T-T)何回かやってダメで諦めた虎杖浜から車で帰宅する友人に連絡つかない…携帯ダメ・メールもダメ…未だ連絡つかない</p><p class=\"time\">03-12 01:43:31</p>","lon":141.02528,"lat":42.35111,"img":"megaphone.png"},{"id":"weathernews6722","name":"海は、穏やかです変わりありません、天気は、晴れています 03-12 14:11:58","text":"海は、穏やかです変わりありません、天気は、晴れています 03-12 14:11:58","desc":"<p class=\"tweettext\">海は、穏やかです変わりありません、天気は、晴れています</p><p class=\"time\">03-12 14:11:58</p>","lon":141.11362,"lat":42.41667,"img":"megaphone.png"},{"id":"weathernews6993","name":"室蘭市です。強い揺れが長く続き 外に居ても判る位でした。津波は1m前後で被害は無さそうですが、国道が通行止めになったりしてます。前に住んでた所では何回か大きい地...","text":"室蘭市です。強い揺れが長く続き 外に居ても判る位でした。津波は1m前後で被害は無さそうですが、国道が通行止めになったりしてます。前に住んでた所では何回か大きい地震や津波を経験しましたが やはり1番は身の危険を感じたら逃げる！後は落ち着いて行動し、周りとの情報を共有しあい助け合うのが大事だと思います。 03-12 14:31:30","desc":"<p class=\"tweettext\">室蘭市です。強い揺れが長く続き 外に居ても判る位でした。津波は1m前後で被害は無さそうですが、国道が通行止めになったりしてます。前に住んでた所では何回か大きい地震や津波を経験しましたが やはり1番は身の危険を感じたら逃げる！後は落ち着いて行動し、周りとの情報を共有しあい助け合うのが大事だと思います。</p><p class=\"time\">03-12 14:31:30</p>","lon":140.98586,"lat":42.36316,"img":"megaphone.png"},{"id":"weathernews8503","name":"津波警報の発令で、避難している人がいる。 03-12 18:24:47","text":"津波警報の発令で、避難している人がいる。 03-12 18:24:47","desc":"<p class=\"tweettext\">津波警報の発令で、避難している人がいる。</p><p class=\"time\">03-12 18:24:47</p>","lon":141.09418,"lat":42.41139,"img":"megaphone.png"},{"id":"weathernews9536","name":"今回の地震ゎ酔う揺れかたでした めちゃくちゃ気持ち悪かったです そして長かった 最初はユラユラゆっくりと揺れる感じだったのですが、途中からがたがたと大きな揺れに...","text":"今回の地震ゎ酔う揺れかたでした めちゃくちゃ気持ち悪かったです そして長かった 最初はユラユラゆっくりと揺れる感じだったのですが、途中からがたがたと大きな揺れになって…少し落ち着くとまたユラユラと気持ち悪い揺れになりました 03-12 22:38:27","desc":"<p class=\"tweettext\">今回の地震ゎ酔う揺れかたでした めちゃくちゃ気持ち悪かったです そして長かった 最初はユラユラゆっくりと揺れる感じだったのですが、途中からがたがたと大きな揺れになって…少し落ち着くとまたユラユラと気持ち悪い揺れになりました </p><p class=\"time\">03-12 22:38:27</p>","lon":141.02869,"lat":42.34938,"img":"megaphone.png"}]}