{"version":1,"tile":"9/453/203","count":5,"reports":[{"id":"weathernews1084","name":"余震、津波等の被害は全くありません。何もないのが逆に怖いくらいです。伊豆急行線が泊まっているため東京に帰れるか分かりません。何とか熱海まで出られれば良いのですが...","text":"余震、津波等の被害は全くありません。何もないのが逆に怖いくらいです。伊豆急行線が泊まっているため東京に帰れるか分かりません。何とか熱海まで出られれば良いのですが。 03-12 06:10:14","label":"余震、津波等の被害は全くありません。何もないのが逆に怖いくらいです。伊豆急行線が...","desc":"<p class=\"tweettext\">余震、津波等の被害は全くありません。何もないのが逆に怖いくらいです。伊豆急行線が泊まっているため東京に帰れるか分かりません。何とか熱海まで出られれば良いのですが。</p><p class=\"time\">03-12 06:10:14</p>","lon":139.07153,"lat":34.81535,"img":"megaphone.png"},{"id":"weathernews2919","name":"大津波警報発令のため一部道路が封鎖され通行が困難。また、河口付近の道路で津波による冠水も確認される。伊豆急行線も地震発生後前線不通となっている。 03-12 0...","text":"大津波警報発令のため一部道路が封鎖され通行が困難。また、河口付近の道路で津波による冠水も確認される。伊豆急行線も地震発生後前線不通となっている。 03-12 07:57:22","label":"大津波警報発令のため一部道路が封鎖され通行が困難。また、河口付近の道路で津波によ...","desc":"<p class=\"tweettext\">大津波警報発令のため一部道路が封鎖され通行が困難。また、河口付近の道路で津波による冠水も確認される。伊豆急行線も地震発生後前線不通となっている。</p><p class=\"time\">03-12 07:57:22</p>","lon":138.96417,"lat":34.67528,"img":"megaphone.png"},{"id":"weathernews5729","name":"今も船内待機中!!津波の影響で潮位の変化1m前後 03-12 13:10:43","text":"今も船内待機中!!津波の影響で潮位の変化1m前後 03-12 13:10:43","label":"今も船内待機中!!津波の影響で潮位の変化1m前後 03-12 13:10:43","desc":"<p class=\"tweettext\">今も船内待機中!!津波の影響で潮位の変化1m前後</p><p class=\"time\">03-12 13:10:43</p>","lon":138.78522,"lat":34.66236,"img":"megaphone.png"},{"id":"weathernews6022","name":"伊豆を走っている１３５号線で、海岸通に面している通りは、通行止めの状態です。大津波警報の為、ちょっとした寸断状態です。 03-12 13:28:50","text":"伊豆を走っている１３５号線で、海岸通に面している通りは、通行止めの状態です。大津波警報の為、ちょっとした寸断状態です。 03-12 13:28:50","label":"伊豆を走っている１３５号線で、海岸通に面している通りは、通行止めの状態です。大津...","desc":"<p class=\"tweettext\">伊豆を走っている１３５号線で、海岸通に面している通りは、通行止めの状態です。大津波警報の為、ちょっとした寸断状態です。</p><p class=\"time\">03-12 13:28:50</p>","lon":139.04527,"lat":34.81111,"img":"megaphone.png"},{"id":"weathernews7422","name":"携帯が昨夜まで通じにくく、友人の安否確認が困難 03-12 15:08:56","text":"携帯が昨夜まで通じにくく、友人の安否確認が困難 03-12 15:08:56","label":"携帯が昨夜まで通じにくく、友人の安否確認が困難 03-12 15:08:56","desc":"<p class=\"tweettext\">携帯が昨夜まで通じにくく、友人の安否確認が困難</p><p class=\"time\">03-12 15:08:56</p>","lon":139.06223,"lat":34.79972,"img":"megaphone.png"}]}