{"version":1,"tile":"9/453/197","count":29,"reports":[{"id":"weathernews694","name":"横揺れがありました。怖かったです。今の所、明確な被害はわかりませんが、凄いです 03-12 04:13:46","text":"横揺れがありました。怖かったです。今の所、明確な被害はわかりませんが、凄いです 03-12 04:13:46","desc":"<p class=\"tweettext\">横揺れがありました。怖かったです。今の所、明確な被害はわかりませんが、凄いです</p><p class=\"time\">03-12 04:13:46</p>","lon":139.00893,"lat":37.74416,"img":"megaphone.png"},{"id":"weathernews778","name":"大分揺れましたが、落下物等被害はなし。枕もとにヘルメットと防災グッズをスタンバイしてます。暗い内は不安が増しますね。お互い用心しましょう。 03-12 04:2...","text":"大分揺れましたが、落下物等被害はなし。枕もとにヘルメットと防災グッズをスタンバイしてます。暗い内は不安が増しますね。お互い用心しましょう。 03-12 04:29:50","desc":"<p class=\"tweettext\">大分揺れましたが、落下物等被害はなし。枕もとにヘルメットと防災グッズをスタンバイしてます。暗い内は不安が増しますね。お互い用心しましょう。</p><p class=\"time\">03-12 04:29:50</p>","lon":139.06306,"lat":37.90917,"img":"megaphone.png"},{"id":"weathernews787","name":"ガタガタ30〜40秒 メールもセンター問い合わせしないと受信出来ない時も あ また揺れてる 03-12 04:33:05","text":"ガタガタ30〜40秒 メールもセンター問い合わせしないと受信出来ない時も あ また揺れてる 03-12 04:33:05","desc":"<p class=\"tweettext\">ガタガタ30〜40秒 メールもセンター問い合わせしないと受信出来ない時も あ また揺れてる </p><p class=\"time\">03-12 04:33:05</p>","lon":138.96454,"lat":37.87249,"img":"megaphone.png"},{"id":"weathernews813","name":"余震がすごいです。 03-12 04:37:15","text":"余震がすごいです。 03-12 04:37:15","desc":"<p class=\"tweettext\">余震がすごいです。</p><p class=\"time\">03-12 04:37:15</p>","lon":139.18562,"lat":37.84125,"img":"megaphone.png"},{"id":"weathernews882","name":"軽く、昨日の地震に比べ短い横揺れを感じました。明日長野に用事がありどうしようか困り中です。 03-12 04:47:21","text":"軽く、昨日の地震に比べ短い横揺れを感じました。明日長野に用事がありどうしようか困り中です。 03-12 04:47:21","desc":"<p class=\"tweettext\">軽く、昨日の地震に比べ短い横揺れを感じました。明日長野に用事がありどうしようか困り中です。</p><p class=\"time\">03-12 04:47:21</p>","lon":139.18294,"lat":37.92082,"img":"megaphone.png"},{"id":"weathernews1037","name":"新潟市です。ここはあまり揺れませんでした。十日町市の友達にメールしたところ、電気は通っているそうです。 03-12 05:51:51","text":"新潟市です。ここはあまり揺れませんでした。十日町市の友達にメールしたところ、電気は通っているそうです。 03-12 05:51:51","desc":"<p class=\"tweettext\">新潟市です。ここはあまり揺れませんでした。十日町市の友達にメールしたところ、電気は通っているそうです。</p><p class=\"time\">03-12 05:51:51</p>","lon":138.94243,"lat":37.86743,"img":"megaphone.png"},{"id":"weathernews1051","name":"今のところ大きな揺れはまだ来てません。一刻も早く多くの方の安否が分かりますように… 03-12 06:00:51","text":"今のところ大きな揺れはまだ来てません。一刻も早く多くの方の安否が分かりますように… 03-12 06:00:51","desc":"<p class=\"tweettext\">今のところ大きな揺れはまだ来てません。一刻も早く多くの方の安否が分かりますように…</p><p class=\"time\">03-12 06:00:51</p>","lon":138.99573,"lat":37.88757,"img":"megaphone.png"},{"id":"weathernews1155","name":"自宅、ライフライン、共に異常無しです。一晩中ニュースを見て、一応非常用持ち物を揃えています。 03-12 06:15:32","text":"自宅、ライフライン、共に異常無しです。一晩中ニュースを見て、一応非常用持ち物を揃えています。 03-12 06:15:32","desc":"<p class=\"tweettext\">自宅、ライフライン、共に異常無しです。一晩中ニュースを見て、一応非常用持ち物を揃えています。</p><p class=\"time\">03-12 06:15:32</p>","lon":139.02597,"lat":37.89833,"img":"megaphone.png"},{"id":"weathernews1156","name":"小さな揺れがときたまあります被害は小規模だと思います 03-12 06:15:35","text":"小さな揺れがときたまあります被害は小規模だと思います 03-12 06:15:35","desc":"<p class=\"tweettext\">小さな揺れがときたまあります被害は小規模だと思います</p><p class=\"time\">03-12 06:15:35</p>","lon":139.11786,"lat":37.8678,"img":"megaphone.png"},{"id":"weathernews1817","name":"目で見る限り壊れたものはありません。携帯電話は接続しにくくなっています。余震は小さいものは続いています 03-12 07:10:24","text":"目で見る限り壊れたものはありません。携帯電話は接続しにくくなっています。余震は小さいものは続いています 03-12 07:10:24","desc":"<p class=\"tweettext\">目で見る限り壊れたものはありません。携帯電話は接続しにくくなっています。余震は小さいものは続いています</p><p class=\"time\">03-12 07:10:24</p>","lon":139.14555,"lat":37.8059,"img":"megaphone.png"},{"id":"weathernews2392","name":"今のところおかげさまでこちらは何の影響はありません。災害にあわれた方々の心中お察しいたします。 03-12 07:33:17","text":"今のところおかげさまでこちらは何の影響はありません。災害にあわれた方々の心中お察しいたします。 03-12 07:33:17","desc":"<p class=\"tweettext\">今のところおかげさまでこちらは何の影響はありません。災害にあわれた方々の心中お察しいたします。</p><p class=\"time\">03-12 07:33:17</p>","lon":139.12813,"lat":37.77292,"img":"megaphone.png"},{"id":"weathernews3111","name":"小さな余震があります 03-12 08:03:46","text":"小さな余震があります 03-12 08:03:46","desc":"<p class=\"tweettext\">小さな余震があります</p><p class=\"time\">03-12 08:03:46</p>","lon":139.09567,"lat":37.89418,"img":"megaphone.png"},{"id":"weathernews3126","name":"午前4時に中越で6弱の地震がありました。下越は震度4か5で細かい揺れが続きましたが、今はほとんど被害はありません。電車が少し遅れているくらい。被災された皆様がお...","text":"午前4時に中越で6弱の地震がありました。下越は震度4か5で細かい揺れが続きましたが、今はほとんど被害はありません。電車が少し遅れているくらい。被災された皆様がお一人でも多く救出されますように。 03-12 08:04:05","desc":"<p class=\"tweettext\">午前4時に中越で6弱の地震がありました。下越は震度4か5で細かい揺れが続きましたが、今はほとんど被害はありません。電車が少し遅れているくらい。被災された皆様がお一人でも多く救出されますように。</p><p class=\"time\">03-12 08:04:05</p>","lon":138.88927,"lat":37.75678,"img":"megaphone.png"},{"id":"weathernews3252","name":"１１日の地震は、ゆっくりと大きな揺れが数分間続きました。棚から物が落ちたり倒れたりはしませんでしたが、こんなに大きな揺れ幅と長い時間は初めてでした。持っているド...","text":"１１日の地震は、ゆっくりと大きな揺れが数分間続きました。棚から物が落ちたり倒れたりはしませんでしたが、こんなに大きな揺れ幅と長い時間は初めてでした。持っているドコモの携帯はメールもｉモードもほぼ普通に使えましたが、同僚のドコモ携帯は、メーカーの違いか機種のせいなのか、なぜか圏外になって使えませんでした。 03-12 08:09:41","desc":"<p class=\"tweettext\">１１日の地震は、ゆっくりと大きな揺れが数分間続きました。棚から物が落ちたり倒れたりはしませんでしたが、こんなに大きな揺れ幅と長い時間は初めてでした。持っているドコモの携帯はメールもｉモードもほぼ普通に使えましたが、同僚のドコモ携帯は、メーカーの違いか機種のせいなのか、なぜか圏外になって使えませんでした。</p><p class=\"time\">03-12 08:09:41</p>","lon":139.05432,"lat":37.92474,"img":"megaphone.png"},{"id":"weathernews3403","name":"本日12日、朝4時頃の地震は揺れが大きく感じて目が覚めるくらいでしたが、7時頃に起こった地震は、発表されている震度が嘘のように揺れを感じませんでした。家の中に被...","text":"本日12日、朝4時頃の地震は揺れが大きく感じて目が覚めるくらいでしたが、7時頃に起こった地震は、発表されている震度が嘘のように揺れを感じませんでした。家の中に被害はありません。 03-12 08:17:31","desc":"<p class=\"tweettext\">本日12日、朝4時頃の地震は揺れが大きく感じて目が覚めるくらいでしたが、7時頃に起こった地震は、発表されている震度が嘘のように揺れを感じませんでした。家の中に被害はありません。</p><p class=\"time\">03-12 08:17:31</p>","lon":139.095,"lat":37.94389,"img":"megaphone.png"},{"id":"weathernews3788","name":"直後の揺れは長かった、職場の壁一部亀裂あり 03-12 08:44:04","text":"直後の揺れは長かった、職場の壁一部亀裂あり 03-12 08:44:04","desc":"<p class=\"tweettext\">直後の揺れは長かった、職場の壁一部亀裂あり</p><p class=\"time\">03-12 08:44:04</p>","lon":139.06639,"lat":37.8325,"img":"megaphone.png"},{"id":"weathernews3835","name":"中越が震源地の地震の揺れで早朝4時頃目が覚めました。 03-12 08:47:22","text":"中越が震源地の地震の揺れで早朝4時頃目が覚めました。 03-12 08:47:22","desc":"<p class=\"tweettext\">中越が震源地の地震の揺れで早朝4時頃目が覚めました。</p><p class=\"time\">03-12 08:47:22</p>","lon":139.09312,"lat":37.9075,"img":"megaphone.png"},{"id":"weathernews5805","name":"3月11日14時50分頃外で大人がバランスをとって立てるくらいの揺れが体感で10分位続いた感じ。その後夜７時位にかけて度々体に揺れを感じたが、生活には支障はない...","text":"3月11日14時50分頃外で大人がバランスをとって立てるくらいの揺れが体感で10分位続いた感じ。その後夜７時位にかけて度々体に揺れを感じたが、生活には支障はない。 今朝３時頃二度程 揺れを感じた。いずれも震度4から3位。ライフラインは全て生きてます。今、普通に生活できる状態です。 03-12 13:16:10","desc":"<p class=\"tweettext\">3月11日14時50分頃外で大人がバランスをとって立てるくらいの揺れが体感で10分位続いた感じ。その後夜７時位にかけて度々体に揺れを感じたが、生活には支障はない。  今朝３時頃二度程 揺れを感じた。いずれも震度4から3位。ライフラインは全て生きてます。今、普通に生活できる状態です。</p><p class=\"time\">03-12 13:16:10</p>","lon":139.06831,"lat":37.90823,"img":"megaphone.png"},{"id":"weathernews5996","name":"昨日の２時46分の地震の時は７階に居たのでかなり揺れました。身体がずっと揺れてる感じで気分わるいです。朝の地震には驚きました。寝不足状態です。大きな被害を受けら...","text":"昨日の２時46分の地震の時は７階に居たのでかなり揺れました。身体がずっと揺れてる感じで気分わるいです。朝の地震には驚きました。寝不足状態です。大きな被害を受けられた方々には心からお見舞い申し上げます。 03-12 13:27:07","desc":"<p class=\"tweettext\">昨日の２時46分の地震の時は７階に居たのでかなり揺れました。身体がずっと揺れてる感じで気分わるいです。朝の地震には驚きました。寝不足状態です。大きな被害を受けられた方々には心からお見舞い申し上げます。</p><p class=\"time\">03-12 13:27:07</p>","lon":139.11958,"lat":37.80224,"img":"megaphone.png"},{"id":"weathernews6014","name":"小さい揺れがある程度。これといった被害もなし。 03-12 13:28:13","text":"小さい揺れがある程度。これといった被害もなし。 03-12 13:28:13","desc":"<p class=\"tweettext\">小さい揺れがある程度。これといった被害もなし。</p><p class=\"time\">03-12 13:28:13</p>","lon":138.96832,"lat":37.88221,"img":"megaphone.png"},{"id":"weathernews6258","name":"風呂の水がうっすら濁りました 03-12 13:42:28","text":"風呂の水がうっすら濁りました 03-12 13:42:28","desc":"<p class=\"tweettext\">風呂の水がうっすら濁りました</p><p class=\"time\">03-12 13:42:28</p>","lon":139.1339,"lat":37.79338,"img":"megaphone.png"},{"id":"weathernews6387","name":"家がきしきしとゆった 03-12 13:50:29","text":"家がきしきしとゆった 03-12 13:50:29","desc":"<p class=\"tweettext\">家がきしきしとゆった</p><p class=\"time\">03-12 13:50:29</p>","lon":139.08218,"lat":37.89166,"img":"megaphone.png"},{"id":"weathernews7497","name":"朝４時頃…揺れる２階の寝室で目覚めました…隣の部屋にいた息子が「大丈夫か？」と声をかけてくれ…それからはまたいつ余震が来るかと思うとねむれませんでした…早く地震...","text":"朝４時頃…揺れる２階の寝室で目覚めました…隣の部屋にいた息子が「大丈夫か？」と声をかけてくれ…それからはまたいつ余震が来るかと思うとねむれませんでした…早く地震がおさまってほしいです 03-12 15:15:38","desc":"<p class=\"tweettext\">朝４時頃…揺れる２階の寝室で目覚めました…隣の部屋にいた息子が「大丈夫か？」と声をかけてくれ…それからはまたいつ余震が来るかと思うとねむれませんでした…早く地震がおさまってほしいです</p><p class=\"time\">03-12 15:15:38</p>","lon":139.00861,"lat":37.76056,"img":"megaphone.png"},{"id":"weathernews8558","name":"今朝がた、大きな地震がありましたが、現在は余震もなく平穏です。 03-12 18:40:59","text":"今朝がた、大きな地震がありましたが、現在は余震もなく平穏です。 03-12 18:40:59","desc":"<p class=\"tweettext\">今朝がた、大きな地震がありましたが、現在は余震もなく平穏です。</p><p class=\"time\">03-12 18:40:59</p>","lon":138.8869,"lat":37.76352,"img":"megaphone.png"},{"id":"weathernews8645","name":"ガタガタとロッカーが鳴りだした後、5分から8分くらいの間横揺れが続いて船酔いになった感じでした 。 03-12 19:04:59","text":"ガタガタとロッカーが鳴りだした後、5分から8分くらいの間横揺れが続いて船酔いになった感じでした 。 03-12 19:04:59","desc":"<p class=\"tweettext\">ガタガタとロッカーが鳴りだした後、5分から8分くらいの間横揺れが続いて船酔いになった感じでした 。</p><p class=\"time\">03-12 19:04:59</p>","lon":139.04411,"lat":37.91428,"img":"megaphone.png"},{"id":"weathernews8896","name":"微妙な余震が続いています。原発が心配 03-12 20:12:21","text":"微妙な余震が続いています。原発が心配 03-12 20:12:21","desc":"<p class=\"tweettext\">微妙な余震が続いています。原発が心配</p><p class=\"time\">03-12 20:12:21</p>","lon":139.11052,"lat":37.79721,"img":"megaphone.png"},{"id":"weathernews9029","name":"何も影響はありませんが放射線物質だけが不安です。 03-12 20:44:49","text":"何も影響はありませんが放射線物質だけが不安です。 03-12 20:44:49","desc":"<p class=\"tweettext\">何も影響はありませんが放射線物質だけが不安です。</p><p class=\"time\">03-12 20:44:49</p>","lon":139.13148,"lat":37.94228,"img":"megaphone.png"},{"id":"weathernews9638","name":"11日地震発生当初は、今までに経験した事のないくらい長く揺れてました。横揺れでした。新潟も地震が相次いでるので、今回は少し違うぞ、と思っていたら巨大地震が東北地...","text":"11日地震発生当初は、今までに経験した事のないくらい長く揺れてました。横揺れでした。新潟も地震が相次いでるので、今回は少し違うぞ、と思っていたら巨大地震が東北地方太平洋沿岸で起きてたんですね。被害の大きさに驚くばかりです。 また夜中にこちらも大きく揺れましたが、新潟市内は大丈夫でした。巨大地震の影響で日本列島が次々と地震が起きそうで怖いです。 03-12 22:57:49","desc":"<p class=\"tweettext\">11日地震発生当初は、今までに経験した事のないくらい長く揺れてました。横揺れでした。新潟も地震が相次いでるので、今回は少し違うぞ、と思っていたら巨大地震が東北地方太平洋沿岸で起きてたんですね。被害の大きさに驚くばかりです。 また夜中にこちらも大きく揺れましたが、新潟市内は大丈夫でした。巨大地震の影響で日本列島が次々と地震が起きそうで怖いです。</p><p class=\"time\">03-12 22:57:49</p>","lon":139.10556,"lat":37.92361,"img":"megaphone.png"},{"id":"weathernews9874","name":"新潟市駅前は普段の生活が送れる状況です。宮城に沢山の知り合いがいます。携帯に大事な伝言を送っていますがすでに充電がないのだと思います。今日は午前にあった返答で最...","text":"新潟市駅前は普段の生活が送れる状況です。宮城に沢山の知り合いがいます。携帯に大事な伝言を送っていますがすでに充電がないのだと思います。今日は午前にあった返答で最後でした。救助隊員の方がこれを見ていたら、被災地に携帯を充電できるように手配していただきたい。被災にあってる人たちからの安否確認ができます 03-12 23:57:50","desc":"<p class=\"tweettext\">新潟市駅前は普段の生活が送れる状況です。宮城に沢山の知り合いがいます。携帯に大事な伝言を送っていますがすでに充電がないのだと思います。今日は午前にあった返答で最後でした。救助隊員の方がこれを見ていたら、被災地に携帯を充電できるように手配していただきたい。被災にあってる人たちからの安否確認ができます</p><p class=\"time\">03-12 23:57:50</p>","lon":139.045,"lat":37.90854,"img":"megaphone.png"}]}