{"version":1,"tile":"9/456/201","count":75,"reports":[{"id":"weathernews74","name":"たまに余震。断水、停電中 03-12 01:19:24","text":"たまに余震。断水、停電中 03-12 01:19:24","desc":"<p class=\"tweettext\">たまに余震。断水、停電中</p><p class=\"time\">03-12 01:19:24</p>","lon":140.82478,"lat":35.72353,"img":"megaphone.png"},{"id":"weathernews128","name":"先程、仕事が終わり車で帰宅しました。そんなに大きな被害は、無いだろうと思っていましたが、帰宅途中の家々の屋根瓦が、あちこちで道路上に落ちています。中には、走行中...","text":"先程、仕事が終わり車で帰宅しました。そんなに大きな被害は、無いだろうと思っていましたが、帰宅途中の家々の屋根瓦が、あちこちで道路上に落ちています。中には、走行中に車に屋根瓦が落ちて来た人も、いたのではないでしょうか？。日付も変わり、深夜1時20分、今だに ２〜３分置きに余震が来ます。震度は、２〜３程度でしょうか？。二階の部屋のタンスが、傾いていました。シュレッダーは、別の場所に移動しています。近所のブロック塀は、完全に横倒しになっていました。余震が頻繁に続く中、まだ大きな地震が来るかも知れないと思うと、気が休まりません。現在の我が家は、停電、断水が続けています。ガスはプロパンでボンベなので、幸いにも使用出来ます。トイレが水洗なので、使用後が困ります。 03-12 01:31:51","desc":"<p class=\"tweettext\">先程、仕事が終わり車で帰宅しました。そんなに大きな被害は、無いだろうと思っていましたが、帰宅途中の家々の屋根瓦が、あちこちで道路上に落ちています。中には、走行中に車に屋根瓦が落ちて来た人も、いたのではないでしょうか？。日付も変わり、深夜1時20分、今だに ２〜３分置きに余震が来ます。震度は、２〜３程度でしょうか？。二階の部屋のタンスが、傾いていました。シュレッダーは、別の場所に移動しています。近所のブロック塀は、完全に横倒しになっていました。余震が頻繁に続く中、まだ大きな地震が来るかも知れないと思うと、気が休まりません。現在の我が家は、停電、断水が続けています。ガスはプロパンでボンベなので、幸いにも使用出来ます。トイレが水洗なので、使用後が困ります。</p><p class=\"time\">03-12 01:31:51</p>","lon":140.64661,"lat":35.72072,"img":"megaphone.png"},{"id":"weathernews129","name":"家の庭で水が吹き出したり、あちこちで地割れ！通行止めも！電柱が倒れかけ家自体傾いてます。海岸沿いは被害ひどく車や船がぐちゃぐちゃになってます 03-12 01:...","text":"家の庭で水が吹き出したり、あちこちで地割れ！通行止めも！電柱が倒れかけ家自体傾いてます。海岸沿いは被害ひどく車や船がぐちゃぐちゃになってます 03-12 01:32:26","desc":"<p class=\"tweettext\">家の庭で水が吹き出したり、あちこちで地割れ！通行止めも！電柱が倒れかけ家自体傾いてます。海岸沿いは被害ひどく車や船がぐちゃぐちゃになってます</p><p class=\"time\">03-12 01:32:26</p>","lon":140.67715,"lat":35.70847,"img":"megaphone.png"},{"id":"weathernews131","name":"海岸線はかなりの地割れ段差があり通行止めの所もあります。 03-12 01:32:56","text":"海岸線はかなりの地割れ段差があり通行止めの所もあります。 03-12 01:32:56","desc":"<p class=\"tweettext\">海岸線はかなりの地割れ段差があり通行止めの所もあります。</p><p class=\"time\">03-12 01:32:56</p>","lon":140.66125,"lat":35.94687,"img":"megaphone.png"},{"id":"weathernews282","name":"飯岡地区海岸沿い津波で壊滅的被害 私の義理の父も行方不明心配です。 03-12 02:10:15","text":"飯岡地区海岸沿い津波で壊滅的被害 私の義理の父も行方不明心配です。 03-12 02:10:15","desc":"<p class=\"tweettext\">飯岡地区海岸沿い津波で壊滅的被害 私の義理の父も行方不明心配です。</p><p class=\"time\">03-12 02:10:15</p>","lon":140.62537,"lat":35.75234,"img":"megaphone.png"},{"id":"weathernews360","name":"まだ電気・水道が復旧していない。部屋の扉が開かなくなった。 03-12 02:28:21","text":"まだ電気・水道が復旧していない。部屋の扉が開かなくなった。 03-12 02:28:21","desc":"<p class=\"tweettext\">まだ電気・水道が復旧していない。部屋の扉が開かなくなった。 </p><p class=\"time\">03-12 02:28:21</p>","lon":140.65742,"lat":35.89639,"img":"megaphone.png"},{"id":"weathernews456","name":"市内４分の３地帯停電、全域断水。停電地帯外で営業中のコンビニ7店舗のみ。水や食料の棚は全て空っぽ状態。 03-12 02:55:51","text":"市内４分の３地帯停電、全域断水。停電地帯外で営業中のコンビニ7店舗のみ。水や食料の棚は全て空っぽ状態。 03-12 02:55:51","desc":"<p class=\"tweettext\">市内４分の３地帯停電、全域断水。停電地帯外で営業中のコンビニ7店舗のみ。水や食料の棚は全て空っぽ状態。</p><p class=\"time\">03-12 02:55:51</p>","lon":140.85687,"lat":35.73043,"img":"megaphone.png"},{"id":"weathernews489","name":"地震の後、近くの工場、お店で火災が発生しました。また、国道124バイパスは、まるで別世界にみえました。電柱や頑丈に見える標識が傾き、道路は冠水して、地割れがあり...","text":"地震の後、近くの工場、お店で火災が発生しました。また、国道124バイパスは、まるで別世界にみえました。電柱や頑丈に見える標識が傾き、道路は冠水して、地割れがありました。地割れの幅は20センチ前後、分離帯にもひびが入っているように見えました。12時間経った今でも、未だに余震は継続。水道が使えません。 03-12 03:11:33","desc":"<p class=\"tweettext\">地震の後、近くの工場、お店で火災が発生しました。また、国道124バイパスは、まるで別世界にみえました。電柱や頑丈に見える標識が傾き、道路は冠水して、地割れがありました。地割れの幅は20センチ前後、分離帯にもひびが入っているように見えました。12時間経った今でも、未だに余震は継続。水道が使えません。</p><p class=\"time\">03-12 03:11:33</p>","lon":140.66469,"lat":35.88999,"img":"megaphone.png"},{"id":"weathernews522","name":"余震と停電が続いてます 小さな余震や大きな余震が来てほんとに怖いです(泣)怖くて寝れません 今は中学校に避難してるのですがグラウンドの真ん中の地割れが酷いです ...","text":"余震と停電が続いてます 小さな余震や大きな余震が来てほんとに怖いです(泣)怖くて寝れません 今は中学校に避難してるのですがグラウンドの真ん中の地割れが酷いです 03-12 03:21:55","desc":"<p class=\"tweettext\">余震と停電が続いてます 小さな余震や大きな余震が来てほんとに怖いです(泣)怖くて寝れません 今は中学校に避難してるのですがグラウンドの真ん中の地割れが酷いです </p><p class=\"time\">03-12 03:21:55</p>","lon":140.63924,"lat":35.88653,"img":"megaphone.png"},{"id":"weathernews613","name":"先程から余震の揺れが何度かあります。電気ガス水道停止され、自宅前の車で待機です津波は今の所無事です！早く収まってほしいです 03-12 03:51:04","text":"先程から余震の揺れが何度かあります。電気ガス水道停止され、自宅前の車で待機です津波は今の所無事です！早く収まってほしいです 03-12 03:51:04","desc":"<p class=\"tweettext\">先程から余震の揺れが何度かあります。電気ガス水道停止され、自宅前の車で待機です津波は今の所無事です！早く収まってほしいです</p><p class=\"time\">03-12 03:51:04</p>","lon":140.83833,"lat":35.74271,"img":"megaphone.png"},{"id":"weathernews811","name":"断水。一心の窓ガラス割れ。向かい側の家の壁が崩れ落ちている。 03-12 04:37:06","text":"断水。一心の窓ガラス割れ。向かい側の家の壁が崩れ落ちている。 03-12 04:37:06","desc":"<p class=\"tweettext\">断水。一心の窓ガラス割れ。向かい側の家の壁が崩れ落ちている。</p><p class=\"time\">03-12 04:37:06</p>","lon":140.82664,"lat":35.73466,"img":"megaphone.png"},{"id":"weathernews839","name":"電気、水は止まったままです。道路もあちこち陥没しております。 03-12 04:41:39","text":"電気、水は止まったままです。道路もあちこち陥没しております。 03-12 04:41:39","desc":"<p class=\"tweettext\">電気、水は止まったままです。道路もあちこち陥没しております。</p><p class=\"time\">03-12 04:41:39</p>","lon":140.73222,"lat":35.75319,"img":"megaphone.png"},{"id":"weathernews1362","name":"まだ余震が残っている。漁港では大きな漁船が津波の影響で転覆、住宅街では一部停電、断水している。 03-12 06:36:21","text":"まだ余震が残っている。漁港では大きな漁船が津波の影響で転覆、住宅街では一部停電、断水している。 03-12 06:36:21","desc":"<p class=\"tweettext\">まだ余震が残っている。漁港では大きな漁船が津波の影響で転覆、住宅街では一部停電、断水している。</p><p class=\"time\">03-12 06:36:21</p>","lon":140.82414,"lat":35.75142,"img":"megaphone.png"},{"id":"weathernews1380","name":"瓦が落ちて食器がいくつか割れ縦つけクーラが倒れました 近くに住んでいる長男の家は古い住宅なので玄関風呂場台所 壁が落ちてしまいました 水道が止まってます 03-...","text":"瓦が落ちて食器がいくつか割れ縦つけクーラが倒れました 近くに住んでいる長男の家は古い住宅なので玄関風呂場台所 壁が落ちてしまいました 水道が止まってます 03-12 06:37:40","desc":"<p class=\"tweettext\">瓦が落ちて食器がいくつか割れ縦つけクーラが倒れました               近くに住んでいる長男の家は古い住宅なので玄関風呂場台所 壁が落ちてしまいました 水道が止まってます</p><p class=\"time\">03-12 06:37:40</p>","lon":140.65556,"lat":35.97528,"img":"megaphone.png"},{"id":"weathernews1581","name":"余震が一晩中断続的に続いています。地面のひび割れや歪み、電柱や看板の傾き、津波と水道管破裂のあとがあります。 03-12 06:56:59","text":"余震が一晩中断続的に続いています。地面のひび割れや歪み、電柱や看板の傾き、津波と水道管破裂のあとがあります。 03-12 06:56:59","desc":"<p class=\"tweettext\">余震が一晩中断続的に続いています。地面のひび割れや歪み、電柱や看板の傾き、津波と水道管破裂のあとがあります。</p><p class=\"time\">03-12 06:56:59</p>","lon":140.64156,"lat":35.90836,"img":"megaphone.png"},{"id":"weathernews1646","name":"昨日の、一番初めの長くて、大きな横揺れの地震で、会社の近くのお店や、建物の壁の一部が、崩れて、下に落ちてしまいました。 03-12 07:01:49","text":"昨日の、一番初めの長くて、大きな横揺れの地震で、会社の近くのお店や、建物の壁の一部が、崩れて、下に落ちてしまいました。 03-12 07:01:49","desc":"<p class=\"tweettext\">昨日の、一番初めの長くて、大きな横揺れの地震で、会社の近くのお店や、建物の壁の一部が、崩れて、下に落ちてしまいました。</p><p class=\"time\">03-12 07:01:49</p>","lon":140.8476,"lat":35.73075,"img":"megaphone.png"},{"id":"weathernews1762","name":"ここ周辺は、被害は少ないです 少し出ると塀が壊れたり断水・停電の所があります。 03-12 07:08:40","text":"ここ周辺は、被害は少ないです 少し出ると塀が壊れたり断水・停電の所があります。 03-12 07:08:40","desc":"<p class=\"tweettext\">ここ周辺は、被害は少ないです 少し出ると塀が壊れたり断水・停電の所があります。</p><p class=\"time\">03-12 07:08:40</p>","lon":140.65472,"lat":35.95194,"img":"megaphone.png"},{"id":"weathernews1822","name":"あちこちの道が隆起したりひび割れたりしてます 03-12 07:10:39","text":"あちこちの道が隆起したりひび割れたりしてます 03-12 07:10:39","desc":"<p class=\"tweettext\">あちこちの道が隆起したりひび割れたりしてます</p><p class=\"time\">03-12 07:10:39</p>","lon":140.66469,"lat":35.88999,"img":"megaphone.png"},{"id":"weathernews1876","name":"昨日からずっと余震に悩まされ、電気も水道もだめで家族で車で過ごしました。どこのコンビニやお店も食べ物もすでになく…昨日は余りのパンで過ごしました。 03-12 ...","text":"昨日からずっと余震に悩まされ、電気も水道もだめで家族で車で過ごしました。どこのコンビニやお店も食べ物もすでになく…昨日は余りのパンで過ごしました。 03-12 07:12:31","desc":"<p class=\"tweettext\">昨日からずっと余震に悩まされ、電気も水道もだめで家族で車で過ごしました。どこのコンビニやお店も食べ物もすでになく…昨日は余りのパンで過ごしました。</p><p class=\"time\">03-12 07:12:31</p>","lon":140.66313,"lat":35.72597,"img":"megaphone.png"},{"id":"weathernews1907","name":"自力で立っているのは困難な揺れ。平屋の福祉施設。建物損傷無し。ライフライン損傷無し。 03-12 07:13:46","text":"自力で立っているのは困難な揺れ。平屋の福祉施設。建物損傷無し。ライフライン損傷無し。 03-12 07:13:46","desc":"<p class=\"tweettext\">自力で立っているのは困難な揺れ。平屋の福祉施設。建物損傷無し。ライフライン損傷無し。</p><p class=\"time\">03-12 07:13:46</p>","lon":140.73222,"lat":35.75319,"img":"megaphone.png"},{"id":"weathernews2105","name":"昨日私は自家用車に乗り、茨城県神栖町の工場地帯を走行中地震遭遇致しました。地震の揺れかたとしては、60キロで走行中にも関わらず左右に揺らされ大変な状況でした 0...","text":"昨日私は自家用車に乗り、茨城県神栖町の工場地帯を走行中地震遭遇致しました。地震の揺れかたとしては、60キロで走行中にも関わらず左右に揺らされ大変な状況でした 03-12 07:21:07","desc":"<p class=\"tweettext\">昨日私は自家用車に乗り、茨城県神栖町の工場地帯を走行中地震遭遇致しました。地震の揺れかたとしては、60キロで走行中にも関わらず左右に揺らされ大変な状況でした</p><p class=\"time\">03-12 07:21:07</p>","lon":140.66469,"lat":35.88999,"img":"megaphone.png"},{"id":"weathernews2120","name":"揺れはある程度良くなりましたが、断水が続いています。 03-12 07:21:58","text":"揺れはある程度良くなりましたが、断水が続いています。 03-12 07:21:58","desc":"<p class=\"tweettext\">揺れはある程度良くなりましたが、断水が続いています。</p><p class=\"time\">03-12 07:21:58</p>","lon":140.63374,"lat":35.9909,"img":"megaphone.png"},{"id":"weathernews2297","name":"現在、断水中 03-12 07:29:01","text":"現在、断水中 03-12 07:29:01","desc":"<p class=\"tweettext\">現在、断水中</p><p class=\"time\">03-12 07:29:01</p>","lon":140.65514,"lat":35.97694,"img":"megaphone.png"},{"id":"weathernews2664","name":"道路が陥没してるところがあったり、水道が止まっています。 03-12 07:46:00","text":"道路が陥没してるところがあったり、水道が止まっています。 03-12 07:46:00","desc":"<p class=\"tweettext\">道路が陥没してるところがあったり、水道が止まっています。</p><p class=\"time\">03-12 07:46:00</p>","lon":140.66611,"lat":35.72167,"img":"megaphone.png"},{"id":"weathernews2743","name":"lt;茨城県鹿嶋市にいる両親に確認した被害状況をお伝えしますgt;3月11日14時46分、震度６弱。買い物から戻り、車のドアを閉めたら地震発生。家が左右に50 ...","text":"lt;茨城県鹿嶋市にいる両親に確認した被害状況をお伝えしますgt;3月11日14時46分、震度６弱。買い物から戻り、車のドアを閉めたら地震発生。家が左右に50 揺れた。立つことが出来ず、ハイハイの状態で移動。家の壁に亀裂。テレビやレンジなども落下。電気・ガス（プロパン）は使えるが、水を汲み上げるポンプが壊れ水道は使えず。ただ、畑の水道は大丈夫だったので、それを使用中。ケガせず無事で一安心しました。ただ、一睡も出来なかったようで、それが心配です。 03-12 07:49:46","desc":"<p class=\"tweettext\">lt;茨城県鹿嶋市にいる両親に確認した被害状況をお伝えしますgt;3月11日14時46分、震度６弱。買い物から戻り、車のドアを閉めたら地震発生。家が左右に50 揺れた。立つことが出来ず、ハイハイの状態で移動。家の壁に亀裂。テレビやレンジなども落下。電気・ガス（プロパン）は使えるが、水を汲み上げるポンプが壊れ水道は使えず。ただ、畑の水道は大丈夫だったので、それを使用中。ケガせず無事で一安心しました。ただ、一睡も出来なかったようで、それが心配です。</p><p class=\"time\">03-12 07:49:46</p>","lon":140.64493,"lat":35.96586,"img":"megaphone.png"},{"id":"weathernews2806","name":"地割れや地盤沈下と、水道管破裂で断水しています。地域によっては停電もしていて、ライフラインが閉ざえています。余震は大きいものから小さいものまで頻繁にあります。地...","text":"地割れや地盤沈下と、水道管破裂で断水しています。地域によっては停電もしていて、ライフラインが閉ざえています。余震は大きいものから小さいものまで頻繁にあります。地震や余震が来るときは、地鳴りがあります。地盤が弱いからでしょうか。 03-12 07:52:42","desc":"<p class=\"tweettext\">地割れや地盤沈下と、水道管破裂で断水しています。地域によっては停電もしていて、ライフラインが閉ざえています。余震は大きいものから小さいものまで頻繁にあります。地震や余震が来るときは、地鳴りがあります。地盤が弱いからでしょうか。</p><p class=\"time\">03-12 07:52:42</p>","lon":140.67667,"lat":35.71667,"img":"megaphone.png"},{"id":"weathernews2908","name":"ライフライン復旧せず、道路はあちこちが隆起、地割れ、水がたまってきています。津波か液状化現象か水道管破裂か、理由も解りません。対岸に見える鹿島臨海工業地帯のコン...","text":"ライフライン復旧せず、道路はあちこちが隆起、地割れ、水がたまってきています。津波か液状化現象か水道管破裂か、理由も解りません。対岸に見える鹿島臨海工業地帯のコンビナートはあちこちから炎と黒煙が立ち上ってます。 03-12 07:56:55","desc":"<p class=\"tweettext\">ライフライン復旧せず、道路はあちこちが隆起、地割れ、水がたまってきています。津波か液状化現象か水道管破裂か、理由も解りません。対岸に見える鹿島臨海工業地帯のコンビナートはあちこちから炎と黒煙が立ち上ってます。</p><p class=\"time\">03-12 07:56:55</p>","lon":140.66922,"lat":35.88758,"img":"megaphone.png"},{"id":"weathernews2923","name":"高校で被災しました(T_T)パソコン室にいたのですが、かなり揺れててモニターが落ちてきそうだったし、蛍光灯も点滅し始めて、怖かったです(´；ω；｀)道がぐにゃぐ...","text":"高校で被災しました(T_T)パソコン室にいたのですが、かなり揺れててモニターが落ちてきそうだったし、蛍光灯も点滅し始めて、怖かったです(´；ω；｀)道がぐにゃぐにゃに陥没してしまって、家に帰る事が自力では、無理でした(ﾟ〓ﾟ)でも、なんとか親が迎えにきてくれたので、家に帰ることができました(gt;_lt;) 03-12 07:57:28","desc":"<p class=\"tweettext\">高校で被災しました(T_T)パソコン室にいたのですが、かなり揺れててモニターが落ちてきそうだったし、蛍光灯も点滅し始めて、怖かったです(´；ω；｀)道がぐにゃぐにゃに陥没してしまって、家に帰る事が自力では、無理でした(ﾟ〓ﾟ)でも、なんとか親が迎えにきてくれたので、家に帰ることができました(gt;_lt;)</p><p class=\"time\">03-12 07:57:28</p>","lon":140.82472,"lat":35.71778,"img":"megaphone.png"},{"id":"weathernews3152","name":"断水が続いています。地区によっては家が傾いていたり、電柱が倒れてしまったりしています。旧飯岡町海岸近くはかなりの被害です！ 03-12 08:05:08","text":"断水が続いています。地区によっては家が傾いていたり、電柱が倒れてしまったりしています。旧飯岡町海岸近くはかなりの被害です！ 03-12 08:05:08","desc":"<p class=\"tweettext\">断水が続いています。地区によっては家が傾いていたり、電柱が倒れてしまったりしています。旧飯岡町海岸近くはかなりの被害です！</p><p class=\"time\">03-12 08:05:08</p>","lon":140.66313,"lat":35.72597,"img":"megaphone.png"},{"id":"weathernews3160","name":"断水、停電中です。家の屋根も崩れました。 03-12 08:05:20","text":"断水、停電中です。家の屋根も崩れました。 03-12 08:05:20","desc":"<p class=\"tweettext\">断水、停電中です。家の屋根も崩れました。</p><p class=\"time\">03-12 08:05:20</p>","lon":140.73978,"lat":35.74471,"img":"megaphone.png"},{"id":"weathernews3780","name":"まだまだ余震がつづいています。断水です。コンビニも棚が空っぽ。ガソリンスタンドも昨夜から行列でした。 03-12 08:43:42","text":"まだまだ余震がつづいています。断水です。コンビニも棚が空っぽ。ガソリンスタンドも昨夜から行列でした。 03-12 08:43:42","desc":"<p class=\"tweettext\">まだまだ余震がつづいています。断水です。コンビニも棚が空っぽ。ガソリンスタンドも昨夜から行列でした。</p><p class=\"time\">03-12 08:43:42</p>","lon":140.84995,"lat":35.73073,"img":"megaphone.png"},{"id":"weathernews3889","name":"建物の一部が倒壊しました。 03-12 08:52:08","text":"建物の一部が倒壊しました。 03-12 08:52:08","desc":"<p class=\"tweettext\">建物の一部が倒壊しました。</p><p class=\"time\">03-12 08:52:08</p>","lon":140.82562,"lat":35.73132,"img":"megaphone.png"},{"id":"weathernews3977","name":"最初の揺れの時に外に居ましたが、立ってるのが困難な位でした。家に戻ると、階段の途中の壁紙は継ぎ目から亀裂が走り、所々で中の石膏ボードがむき出しに。二階の方がひど...","text":"最初の揺れの時に外に居ましたが、立ってるのが困難な位でした。家に戻ると、階段の途中の壁紙は継ぎ目から亀裂が走り、所々で中の石膏ボードがむき出しに。二階の方がひどく、棚から落ちた物が散乱したり、食器棚の扉が開いていたり、鍵のかかっていない窓はみんな開いてました。昨日18時から断水復旧の見通しは今のところないみたいです。幸いな事に、トイレだけは地下水なので困りませんが、今日からお風呂は無理かもしれません…昨日は、スーパーや薬局が早仕舞いしたせいか、コンビニは見たこと無いくらいに混雑してました。停電してる地域もあり、信号機がダウンしている場所も。余震も頻繁で、大きな揺れもあります。とりあえず、早くにライフラインが回復してほしいです。 03-12 08:59:46","desc":"<p class=\"tweettext\">最初の揺れの時に外に居ましたが、立ってるのが困難な位でした。家に戻ると、階段の途中の壁紙は継ぎ目から亀裂が走り、所々で中の石膏ボードがむき出しに。二階の方がひどく、棚から落ちた物が散乱したり、食器棚の扉が開いていたり、鍵のかかっていない窓はみんな開いてました。昨日18時から断水復旧の見通しは今のところないみたいです。幸いな事に、トイレだけは地下水なので困りませんが、今日からお風呂は無理かもしれません…昨日は、スーパーや薬局が早仕舞いしたせいか、コンビニは見たこと無いくらいに混雑してました。停電してる地域もあり、信号機がダウンしている場所も。余震も頻繁で、大きな揺れもあります。とりあえず、早くにライフラインが回復してほしいです。</p><p class=\"time\">03-12 08:59:46</p>","lon":140.66306,"lat":35.7259,"img":"megaphone.png"},{"id":"weathernews3989","name":"海のすぐ近くなので 小学校のグランドに避難し 一晩車内で過ごしました。同じ鹿嶋で津波に車持ってかれた人もいて…余震もずっと続いてて怖いです 03-12 09:0...","text":"海のすぐ近くなので 小学校のグランドに避難し 一晩車内で過ごしました。同じ鹿嶋で津波に車持ってかれた人もいて…余震もずっと続いてて怖いです 03-12 09:01:01","desc":"<p class=\"tweettext\">海のすぐ近くなので 小学校のグランドに避難し 一晩車内で過ごしました。同じ鹿嶋で津波に車持ってかれた人もいて…余震もずっと続いてて怖いです</p><p class=\"time\">03-12 09:01:01</p>","lon":140.6575,"lat":35.97944,"img":"megaphone.png"},{"id":"weathernews4195","name":"アパートが地割れにて、水道管破裂保育園は陥没被害 03-12 09:23:11","text":"アパートが地割れにて、水道管破裂保育園は陥没被害 03-12 09:23:11","desc":"<p class=\"tweettext\">アパートが地割れにて、水道管破裂保育園は陥没被害</p><p class=\"time\">03-12 09:23:11</p>","lon":140.6834,"lat":35.70223,"img":"megaphone.png"},{"id":"weathernews4284","name":"木造家なので凄く揺れた。物が落ちて散乱し、足の踏み場もない。ピアノも５ 位斜めに動いた。テレビや重い物も動いた。グラス落ちて飛散。 03-12 09:33:42","text":"木造家なので凄く揺れた。物が落ちて散乱し、足の踏み場もない。ピアノも５ 位斜めに動いた。テレビや重い物も動いた。グラス落ちて飛散。 03-12 09:33:42","desc":"<p class=\"tweettext\">木造家なので凄く揺れた。物が落ちて散乱し、足の踏み場もない。ピアノも５ 位斜めに動いた。テレビや重い物も動いた。グラス落ちて飛散。</p><p class=\"time\">03-12 09:33:42</p>","lon":140.62639,"lat":35.96556,"img":"megaphone.png"},{"id":"weathernews4444","name":"旭市役所の海上支所周辺は電気は問題ありません。道路は一部陥没等しています。 水道は止まっています。旧飯岡地区は、海岸線から100m位まで１階程度まで水に浸かって...","text":"旭市役所の海上支所周辺は電気は問題ありません。道路は一部陥没等しています。 水道は止まっています。旧飯岡地区は、海岸線から100m位まで１階程度まで水に浸かっているようです。 03-12 09:50:04","desc":"<p class=\"tweettext\">旭市役所の海上支所周辺は電気は問題ありません。道路は一部陥没等しています。　水道は止まっています。旧飯岡地区は、海岸線から100m位まで１階程度まで水に浸かっているようです。</p><p class=\"time\">03-12 09:50:04</p>","lon":140.66891,"lat":35.73546,"img":"megaphone.png"},{"id":"weathernews4453","name":"地震当時、車中にいました。運転できず、車を停めました。地震直後から住友金属鹿島製鉄所から煙が上がりました。 03-12 09:50:54","text":"地震当時、車中にいました。運転できず、車を停めました。地震直後から住友金属鹿島製鉄所から煙が上がりました。 03-12 09:50:54","desc":"<p class=\"tweettext\">地震当時、車中にいました。運転できず、車を停めました。地震直後から住友金属鹿島製鉄所から煙が上がりました。</p><p class=\"time\">03-12 09:50:54</p>","lon":140.63889,"lat":35.89868,"img":"megaphone.png"},{"id":"weathernews4595","name":"一夜明けて職業迄車を取りに行く途中液状化した道で車が埋まったりしてました 03-12 10:08:28","text":"一夜明けて職業迄車を取りに行く途中液状化した道で車が埋まったりしてました 03-12 10:08:28","desc":"<p class=\"tweettext\">一夜明けて職業迄車を取りに行く途中液状化した道で車が埋まったりしてました</p><p class=\"time\">03-12 10:08:28</p>","lon":140.64493,"lat":35.96586,"img":"megaphone.png"},{"id":"weathernews4822","name":"未だに電気、水道が止まってる 復旧には時間がかかると市の放送が 店には長蛇の列 03-12 10:36:22","text":"未だに電気、水道が止まってる 復旧には時間がかかると市の放送が 店には長蛇の列 03-12 10:36:22","desc":"<p class=\"tweettext\">未だに電気、水道が止まってる 復旧には時間がかかると市の放送が 店には長蛇の列 </p><p class=\"time\">03-12 10:36:22</p>","lon":140.65742,"lat":35.89639,"img":"megaphone.png"},{"id":"weathernews4828","name":"水道、電気がとまっていてお店はコンビニ位しかあいてない。 03-12 10:37:08","text":"水道、電気がとまっていてお店はコンビニ位しかあいてない。 03-12 10:37:08","desc":"<p class=\"tweettext\">水道、電気がとまっていてお店はコンビニ位しかあいてない。</p><p class=\"time\">03-12 10:37:08</p>","lon":140.65018,"lat":35.72252,"img":"megaphone.png"},{"id":"weathernews4839","name":"３月１１日午後2時過ぎ〜部屋がひし形になって83才の母を玄関までようやく連れ出し座ったと同時に2度目は柱に掴まらないと立って居られない状態でした。昨夜は余震が何...","text":"３月１１日午後2時過ぎ〜部屋がひし形になって83才の母を玄関までようやく連れ出し座ったと同時に2度目は柱に掴まらないと立って居られない状態でした。昨夜は余震が何度もあり一睡も出来ませんでした。現在断水が続いています。 03-12 10:38:47","desc":"<p class=\"tweettext\">３月１１日午後2時過ぎ〜部屋がひし形になって83才の母を玄関までようやく連れ出し座ったと同時に2度目は柱に掴まらないと立って居られない状態でした。昨夜は余震が何度もあり一睡も出来ませんでした。現在断水が続いています。</p><p class=\"time\">03-12 10:38:47</p>","lon":140.79819,"lat":35.73285,"img":"megaphone.png"},{"id":"weathernews4897","name":"鹿島港も大変なことになっています。 03-12 10:48:45","text":"鹿島港も大変なことになっています。 03-12 10:48:45","desc":"<p class=\"tweettext\">鹿島港も大変なことになっています。</p><p class=\"time\">03-12 10:48:45</p>","lon":140.67841,"lat":35.87335,"img":"megaphone.png"},{"id":"weathernews5158","name":"言葉が出ない状況です。 03-12 11:30:31","text":"言葉が出ない状況です。 03-12 11:30:31","desc":"<p class=\"tweettext\">言葉が出ない状況です。</p><p class=\"time\">03-12 11:30:31</p>","lon":140.82414,"lat":35.75142,"img":"megaphone.png"},{"id":"weathernews5165","name":"弱い余震がつづいてます！！そんなに強くないです。でも2分に一回は揺れてるような気がします。小山に津波が来てやっとひきました！ひびも入っており車では行けない状態で...","text":"弱い余震がつづいてます！！そんなに強くないです。でも2分に一回は揺れてるような気がします。小山に津波が来てやっとひきました！ひびも入っており車では行けない状態です。じいちゃんの家は海が近く家が浮いたそうです。 03-12 11:32:01","desc":"<p class=\"tweettext\">弱い余震がつづいてます！！そんなに強くないです。でも2分に一回は揺れてるような気がします。小山に津波が来てやっとひきました！ひびも入っており車では行けない状態です。じいちゃんの家は海が近く家が浮いたそうです。</p><p class=\"time\">03-12 11:32:01</p>","lon":140.62836,"lat":36.01304,"img":"megaphone.png"},{"id":"weathernews5448","name":"昨晩、済生会病院付近に車中泊 鹿嶋に子供が学校泊だったので、朝イチでお迎えに行きましたが… とコンテナが124に散乱してました 家に戻りましたが余震が続き…船酔...","text":"昨晩、済生会病院付近に車中泊 鹿嶋に子供が学校泊だったので、朝イチでお迎えに行きましたが… とコンテナが124に散乱してました 家に戻りましたが余震が続き…船酔いしてる感じです ライフラインは× 街頭放送で、給水のアナウンスをしていますが、電気などの状況も放送して欲しいデス 03-12 12:23:42","desc":"<p class=\"tweettext\">昨晩、済生会病院付近に車中泊 鹿嶋に子供が学校泊だったので、朝イチでお迎えに行きましたが… とコンテナが124に散乱してました 家に戻りましたが余震が続き…船酔いしてる感じです ライフラインは× 街頭放送で、給水のアナウンスをしていますが、電気などの状況も放送して欲しいデス  </p><p class=\"time\">03-12 12:23:42</p>","lon":140.66341,"lat":35.8409,"img":"megaphone.png"},{"id":"weathernews5522","name":"家は、屋根瓦が落ちていて住金からはけむりが出てます。 03-12 12:39:17","text":"家は、屋根瓦が落ちていて住金からはけむりが出てます。 03-12 12:39:17","desc":"<p class=\"tweettext\">家は、屋根瓦が落ちていて住金からはけむりが出てます。</p><p class=\"time\">03-12 12:39:17</p>","lon":140.64174,"lat":35.97847,"img":"megaphone.png"},{"id":"weathernews5532","name":"屋根瓦が落ちていて住金からはけむりが出てます。 03-12 12:41:00","text":"屋根瓦が落ちていて住金からはけむりが出てます。 03-12 12:41:00","desc":"<p class=\"tweettext\">屋根瓦が落ちていて住金からはけむりが出てます。</p><p class=\"time\">03-12 12:41:00</p>","lon":140.64153,"lat":35.97844,"img":"megaphone.png"},{"id":"weathernews5812","name":"街頭放送の声が聞きづらく正確な情報がききとれません 03-12 13:16:37","text":"街頭放送の声が聞きづらく正確な情報がききとれません 03-12 13:16:37","desc":"<p class=\"tweettext\">街頭放送の声が聞きづらく正確な情報がききとれません</p><p class=\"time\">03-12 13:16:37</p>","lon":140.82628,"lat":35.73146,"img":"megaphone.png"},{"id":"weathernews5892","name":"皆さん、お怪我などございませんか？私は勤務中に地震に遭遇して、普段は1時間ほどの帰り道が6時間近くかかって午前0時に帰宅しました。明るくなってから御近所を観たの...","text":"皆さん、お怪我などございませんか？私は勤務中に地震に遭遇して、普段は1時間ほどの帰り道が6時間近くかかって午前0時に帰宅しました。明るくなってから御近所を観たのですが、液状化したのかﾏﾝﾎｰﾙが競り上がってたり、電柱は斜めになってたり。電気･水道の復旧には、相当の日数が掛かりそうです。 03-12 13:20:49","desc":"<p class=\"tweettext\">皆さん、お怪我などございませんか？私は勤務中に地震に遭遇して、普段は1時間ほどの帰り道が6時間近くかかって午前0時に帰宅しました。明るくなってから御近所を観たのですが、液状化したのかﾏﾝﾎｰﾙが競り上がってたり、電柱は斜めになってたり。電気･水道の復旧には、相当の日数が掛かりそうです。</p><p class=\"time\">03-12 13:20:49</p>","lon":140.64117,"lat":35.93701,"img":"megaphone.png"},{"id":"weathernews6091","name":"余震まだたまにあり海岸沿いは津波被害あり今は収まってきた方です道路に目立つ被害なし部屋のﾃﾚﾋﾞやPCなどは倒れなかった冷蔵庫は倒れそうだったが配置が良かったの...","text":"余震まだたまにあり海岸沿いは津波被害あり今は収まってきた方です道路に目立つ被害なし部屋のﾃﾚﾋﾞやPCなどは倒れなかった冷蔵庫は倒れそうだったが配置が良かったのか無事ここは鹿島からの電気なので停電なしガス大丈夫水道大丈夫 03-12 13:32:08","desc":"<p class=\"tweettext\">余震まだたまにあり海岸沿いは津波被害あり今は収まってきた方です道路に目立つ被害なし部屋のﾃﾚﾋﾞやPCなどは倒れなかった冷蔵庫は倒れそうだったが配置が良かったのか無事ここは鹿島からの電気なので停電なしガス大丈夫水道大丈夫</p><p class=\"time\">03-12 13:32:08</p>","lon":140.67639,"lat":35.71694,"img":"megaphone.png"},{"id":"weathernews6099","name":"アパートの駐車場は液状化のなごりと亀裂 03-12 13:32:33","text":"アパートの駐車場は液状化のなごりと亀裂 03-12 13:32:33","desc":"<p class=\"tweettext\">アパートの駐車場は液状化のなごりと亀裂 </p><p class=\"time\">03-12 13:32:33</p>","lon":140.71916,"lat":35.84125,"img":"megaphone.png"},{"id":"weathernews6105","name":"地震の第一波がきたとき、勤め先の老人ホームにいました。阪神淡路大震災と、全く違う揺れ方でした。阪神のときはドーンときた後、大きな揺れでした。今回は小さく小刻みに...","text":"地震の第一波がきたとき、勤め先の老人ホームにいました。阪神淡路大震災と、全く違う揺れ方でした。阪神のときはドーンときた後、大きな揺れでした。今回は小さく小刻みに揺れてから、大きく水平に揺れました。社宅に帰ると、物が落ちて散乱してました。たんすが5センチ以上前へ出てきてました。たんすと同じ向きにおまつりしたお札は、落ちもしませんでした。 03-12 13:32:47","desc":"<p class=\"tweettext\">地震の第一波がきたとき、勤め先の老人ホームにいました。阪神淡路大震災と、全く違う揺れ方でした。阪神のときはドーンときた後、大きな揺れでした。今回は小さく小刻みに揺れてから、大きく水平に揺れました。社宅に帰ると、物が落ちて散乱してました。たんすが5センチ以上前へ出てきてました。たんすと同じ向きにおまつりしたお札は、落ちもしませんでした。</p><p class=\"time\">03-12 13:32:47</p>","lon":140.64493,"lat":35.96586,"img":"megaphone.png"},{"id":"weathernews6349","name":"昨日ながいゆれのなか余震の不安、水道・信号電気はとまる大型スーパーもしまって買い物できず。予震がこわいので車で駐車場宿犬も不安泣きをずっとしているやっと電気は通...","text":"昨日ながいゆれのなか余震の不安、水道・信号電気はとまる大型スーパーもしまって買い物できず。予震がこわいので車で駐車場宿犬も不安泣きをずっとしているやっと電気は通じたが水は復旧のめどたたず明るい時間に役場や地域の井戸水をいただきにまわっている 03-12 13:47:54","desc":"<p class=\"tweettext\">昨日ながいゆれのなか余震の不安、水道・信号電気はとまる大型スーパーもしまって買い物できず。予震がこわいので車で駐車場宿犬も不安泣きをずっとしているやっと電気は通じたが水は復旧のめどたたず明るい時間に役場や地域の井戸水をいただきにまわっている</p><p class=\"time\">03-12 13:47:54</p>","lon":140.62689,"lat":35.84491,"img":"megaphone.png"},{"id":"weathernews6628","name":"１１日は、大きな横揺れ（回転性？）が２波 震度５強 ６弱。２波目は外にいても立ってるのがやっとな揺れ。他、数分置きに余震。被害は、停電・上水道の停止・棚の内容物...","text":"１１日は、大きな横揺れ（回転性？）が２波 震度５強 ６弱。２波目は外にいても立ってるのがやっとな揺れ。他、数分置きに余震。被害は、停電・上水道の停止・棚の内容物の落下など。旭市全域だと、それに加えて瓦の落下・道路のひび割れ・津波による倒壊や床上浸水など…避難者は３〜４千人、死者は５名くらいですが…もっと増えそうという話しです。 03-12 14:05:17","desc":"<p class=\"tweettext\">１１日は、大きな横揺れ（回転性？）が２波 震度５強 ６弱。２波目は外にいても立ってるのがやっとな揺れ。他、数分置きに余震。被害は、停電・上水道の停止・棚の内容物の落下など。旭市全域だと、それに加えて瓦の落下・道路のひび割れ・津波による倒壊や床上浸水など…避難者は３〜４千人、死者は５名くらいですが…もっと増えそうという話しです。</p><p class=\"time\">03-12 14:05:17</p>","lon":140.68167,"lat":35.72972,"img":"megaphone.png"},{"id":"weathernews6679","name":"沿岸部、道路一本で水は免れましたが農村部でもあるので農道は軒並みうねり電柱、家屋も場所によって傾いています。液状化もみられます 03-12 14:09:10","text":"沿岸部、道路一本で水は免れましたが農村部でもあるので農道は軒並みうねり電柱、家屋も場所によって傾いています。液状化もみられます 03-12 14:09:10","desc":"<p class=\"tweettext\">沿岸部、道路一本で水は免れましたが農村部でもあるので農道は軒並みうねり電柱、家屋も場所によって傾いています。液状化もみられます</p><p class=\"time\">03-12 14:09:10</p>","lon":140.66585,"lat":35.69428,"img":"megaphone.png"},{"id":"weathernews6709","name":"使いなれた道の様子が著しく変わりました。 03-12 14:11:04","text":"使いなれた道の様子が著しく変わりました。 03-12 14:11:04","desc":"<p class=\"tweettext\">使いなれた道の様子が著しく変わりました。</p><p class=\"time\">03-12 14:11:04</p>","lon":140.66028,"lat":35.91321,"img":"megaphone.png"},{"id":"weathernews6941","name":"めまいかと思うくらいのゆれ。最初は小刻みにそして長くて大きいゆれになりました。 03-12 14:26:25","text":"めまいかと思うくらいのゆれ。最初は小刻みにそして長くて大きいゆれになりました。 03-12 14:26:25","desc":"<p class=\"tweettext\">めまいかと思うくらいのゆれ。最初は小刻みにそして長くて大きいゆれになりました。</p><p class=\"time\">03-12 14:26:25</p>","lon":140.82404,"lat":35.72153,"img":"megaphone.png"},{"id":"weathernews7196","name":"12日15時前現在、千葉県旭市では市内全域で断水しています。東総広域水道企業団からの水の供給がないためで、復旧のメドが立っていません。市では容器を持参した人には...","text":"12日15時前現在、千葉県旭市では市内全域で断水しています。東総広域水道企業団からの水の供給がないためで、復旧のメドが立っていません。市では容器を持参した人には水を配布するようですが、差し当たって、トイレに水を流せないので困っています。 03-12 14:47:54","desc":"<p class=\"tweettext\">12日15時前現在、千葉県旭市では市内全域で断水しています。東総広域水道企業団からの水の供給がないためで、復旧のメドが立っていません。市では容器を持参した人には水を配布するようですが、差し当たって、トイレに水を流せないので困っています。</p><p class=\"time\">03-12 14:47:54</p>","lon":140.66086,"lat":35.72114,"img":"megaphone.png"},{"id":"weathernews7294","name":"まだ停電しています。市内は水道も使えないところが多いです大きな揺れは朝方はありましたが、今はほとんどありません 03-12 14:55:56","text":"まだ停電しています。市内は水道も使えないところが多いです大きな揺れは朝方はありましたが、今はほとんどありません 03-12 14:55:56","desc":"<p class=\"tweettext\">まだ停電しています。市内は水道も使えないところが多いです大きな揺れは朝方はありましたが、今はほとんどありません</p><p class=\"time\">03-12 14:55:56</p>","lon":140.6291,"lat":35.75713,"img":"megaphone.png"},{"id":"weathernews7448","name":"一部道路陥没あり。湖岸通りは波打ってるヶ所多数。 03-12 15:11:13","text":"一部道路陥没あり。湖岸通りは波打ってるヶ所多数。 03-12 15:11:13","desc":"<p class=\"tweettext\">一部道路陥没あり。湖岸通りは波打ってるヶ所多数。</p><p class=\"time\">03-12 15:11:13</p>","lon":140.65361,"lat":35.94917,"img":"megaphone.png"},{"id":"weathernews7617","name":"何故か、いつも鳴っている防災無線が何も鳴らずにテレビで津波の注意報を知る。凄い地震で立っているのも大変だった。今まで経験した事の無い長さと揺れでした。外の様子を...","text":"何故か、いつも鳴っている防災無線が何も鳴らずにテレビで津波の注意報を知る。凄い地震で立っているのも大変だった。今まで経験した事の無い長さと揺れでした。外の様子を見ると、雲が赤くなっていた、住友金属が爆発した様でその後黒い雲が夜遅くまで出ていた。お店のウインドウがぶつかった訳でも無いのに割れてしまう。物が落ちて飛び散る。携帯が一切通じない。子供は学校で避難しているのだろうが、緊急連絡のメールも無い。いつも利用している道路が津波の道になり車が流されて重なってる。道路がボコボコで所々波を打って通れない。幹線道路は渋滞。瓦や飾っていた鉢が道路に散乱している。庭は地割れで割れて先には粘土の様なグレーでビールの泡の様な気泡があり、ビニールの様に光って見える。家では、上に乗せて有る物が落ちてる。食器棚の中がぐちゃぐちゃになってて、開けたら物が飛び出して割れる。壁が割れて落ちてしまう。水が止まっている。給水車が来るのか、もらいに行く事になるのか、どうしたら良いのか分からない。夜中に何度か大きな地震があり、ほとんど安めない。ガソリンは売り切れ、ポリタンク、水、カップラーメン売り切れて中々買えない。 03-12 15:31:49","desc":"<p class=\"tweettext\">何故か、いつも鳴っている防災無線が何も鳴らずにテレビで津波の注意報を知る。凄い地震で立っているのも大変だった。今まで経験した事の無い長さと揺れでした。外の様子を見ると、雲が赤くなっていた、住友金属が爆発した様でその後黒い雲が夜遅くまで出ていた。お店のウインドウがぶつかった訳でも無いのに割れてしまう。物が落ちて飛び散る。携帯が一切通じない。子供は学校で避難しているのだろうが、緊急連絡のメールも無い。いつも利用している道路が津波の道になり車が流されて重なってる。道路がボコボコで所々波を打って通れない。幹線道路は渋滞。瓦や飾っていた鉢が道路に散乱している。庭は地割れで割れて先には粘土の様なグレーでビールの泡の様な気泡があり、ビニールの様に光って見える。家では、上に乗せて有る物が落ちてる。食器棚の中がぐちゃぐちゃになってて、開けたら物が飛び出して割れる。壁が割れて落ちてしまう。水が止まっている。給水車が来るのか、もらいに行く事になるのか、どうしたら良いのか分からない。夜中に何度か大きな地震があり、ほとんど安めない。ガソリンは売り切れ、ポリタンク、水、カップラーメン売り切れて中々買えない。</p><p class=\"time\">03-12 15:31:49</p>","lon":140.65527,"lat":35.97972,"img":"megaphone.png"},{"id":"weathernews7701","name":"千葉県旭市国道126号線沿い国道の信号は大丈夫水道は断水中、停電は回復地域が増えつつある道路は渋滞中 03-12 15:45:12","text":"千葉県旭市国道126号線沿い国道の信号は大丈夫水道は断水中、停電は回復地域が増えつつある道路は渋滞中 03-12 15:45:12","desc":"<p class=\"tweettext\">千葉県旭市国道126号線沿い国道の信号は大丈夫水道は断水中、停電は回復地域が増えつつある道路は渋滞中</p><p class=\"time\">03-12 15:45:12</p>","lon":140.6496,"lat":35.72472,"img":"megaphone.png"},{"id":"weathernews7849","name":"道路亀裂、陥没、隆起。至る所で液状化。余震まだまた続いています。 03-12 16:05:50","text":"道路亀裂、陥没、隆起。至る所で液状化。余震まだまた続いています。 03-12 16:05:50","desc":"<p class=\"tweettext\">道路亀裂、陥没、隆起。至る所で液状化。余震まだまた続いています。</p><p class=\"time\">03-12 16:05:50</p>","lon":140.64999,"lat":35.90917,"img":"megaphone.png"},{"id":"weathernews7916","name":"余震強め、頻発室内:棚に置いていた物が散乱水道の復旧見込み立たず商店は品不足電気は今のところ正常コミュニティFMにて情報提供あり瓦のずれている家がいくつか平井近...","text":"余震強め、頻発室内:棚に置いていた物が散乱水道の復旧見込み立たず商店は品不足電気は今のところ正常コミュニティFMにて情報提供あり瓦のずれている家がいくつか平井近辺道路ひび割れあり 03-12 16:15:25","desc":"<p class=\"tweettext\">余震強め、頻発室内:棚に置いていた物が散乱水道の復旧見込み立たず商店は品不足電気は今のところ正常コミュニティFMにて情報提供あり瓦のずれている家がいくつか平井近辺道路ひび割れあり</p><p class=\"time\">03-12 16:15:25</p>","lon":140.64027,"lat":35.96188,"img":"megaphone.png"},{"id":"weathernews8654","name":"だいぶ余震は少なくなりました。街は亀裂と液状化がすごいです。断水が復旧してくれると、いいのですが… 03-12 19:06:40","text":"だいぶ余震は少なくなりました。街は亀裂と液状化がすごいです。断水が復旧してくれると、いいのですが… 03-12 19:06:40","desc":"<p class=\"tweettext\">だいぶ余震は少なくなりました。街は亀裂と液状化がすごいです。断水が復旧してくれると、いいのですが…</p><p class=\"time\">03-12 19:06:40</p>","lon":140.64944,"lat":35.90677,"img":"megaphone.png"},{"id":"weathernews8742","name":"こちら知手中央のモノです 電気が復旧(・o・)ノだけど、ラジオで聞いてる限り一時的なものだど思うので、迷わず携帯充電中 余震の揺れは落ち着いてますが、津波警報は...","text":"こちら知手中央のモノです 電気が復旧(・o・)ノだけど、ラジオで聞いてる限り一時的なものだど思うので、迷わず携帯充電中 余震の揺れは落ち着いてますが、津波警報は解除されてません 地震の影響で少し平衡感覚が変ですが、とりあえずな状態です(￣∀￣)引き続き余震の注意を図ります 03-12 19:29:06","desc":"<p class=\"tweettext\">こちら知手中央のモノです 電気が復旧(・o・)ノだけど、ラジオで聞いてる限り一時的なものだど思うので、迷わず携帯充電中 余震の揺れは落ち着いてますが、津波警報は解除されてません 地震の影響で少し平衡感覚が変ですが、とりあえずな状態です(￣∀￣)引き続き余震の注意を図ります </p><p class=\"time\">03-12 19:29:06</p>","lon":140.71271,"lat":35.86764,"img":"megaphone.png"},{"id":"weathernews9069","name":"地震直後から断水。12日20:40分頃、茨城県神栖市神栖4丁目で火事発生。 03-12 20:52:34","text":"地震直後から断水。12日20:40分頃、茨城県神栖市神栖4丁目で火事発生。 03-12 20:52:34","desc":"<p class=\"tweettext\">地震直後から断水。12日20:40分頃、茨城県神栖市神栖4丁目で火事発生。</p><p class=\"time\">03-12 20:52:34</p>","lon":140.63889,"lat":35.89868,"img":"megaphone.png"},{"id":"weathernews9205","name":"波崎漁港地割れ、多数。漁船一艘転覆、一艘沈没 03-12 21:25:52","text":"波崎漁港地割れ、多数。漁船一艘転覆、一艘沈没 03-12 21:25:52","desc":"<p class=\"tweettext\">波崎漁港地割れ、多数。漁船一艘転覆、一艘沈没</p><p class=\"time\">03-12 21:25:52</p>","lon":140.82381,"lat":35.75283,"img":"megaphone.png"},{"id":"weathernews9483","name":"昨日の2時46分の地震から今でも横揺れの地震と余震が続いてます。今日の夕方まで停電と断水してました。停電の間、街の信号は全滅で道は大渋滞で、道路はあちこち陥没や...","text":"昨日の2時46分の地震から今でも横揺れの地震と余震が続いてます。今日の夕方まで停電と断水してました。停電の間、街の信号は全滅で道は大渋滞で、道路はあちこち陥没や液状化して通行止めの所が多く、浜の方は津波の被害もあり、家が倒壊したり、車が流されたりと街より被害が大きいです。 03-12 22:28:49","desc":"<p class=\"tweettext\">昨日の2時46分の地震から今でも横揺れの地震と余震が続いてます。今日の夕方まで停電と断水してました。停電の間、街の信号は全滅で道は大渋滞で、道路はあちこち陥没や液状化して通行止めの所が多く、浜の方は津波の被害もあり、家が倒壊したり、車が流されたりと街より被害が大きいです。</p><p class=\"time\">03-12 22:28:49</p>","lon":140.65097,"lat":35.68757,"img":"megaphone.png"},{"id":"weathernews9660","name":"家の中は食器が落ちた程度だったけど、外は液状化でマンホールが五十センチ程持ち上がってたり、看板や電柱が傾いてたり、映画のようでした。夕方一部電気復旧しました。 ...","text":"家の中は食器が落ちた程度だったけど、外は液状化でマンホールが五十センチ程持ち上がってたり、看板や電柱が傾いてたり、映画のようでした。夕方一部電気復旧しました。 03-12 23:05:16","desc":"<p class=\"tweettext\">家の中は食器が落ちた程度だったけど、外は液状化でマンホールが五十センチ程持ち上がってたり、看板や電柱が傾いてたり、映画のようでした。夕方一部電気復旧しました。</p><p class=\"time\">03-12 23:05:16</p>","lon":140.66469,"lat":35.88999,"img":"megaphone.png"},{"id":"weathernews9673","name":"余震が続き、家と避難所の往復を繰り返しています。道路が所々隆起しており、通行止めがあるため、街のあちこちで車の渋滞が 。これからどうなるやら、、。心配です 。 ...","text":"余震が続き、家と避難所の往復を繰り返しています。道路が所々隆起しており、通行止めがあるため、街のあちこちで車の渋滞が 。これからどうなるやら、、。心配です 。 03-12 23:11:07","desc":"<p class=\"tweettext\">余震が続き、家と避難所の往復を繰り返しています。道路が所々隆起しており、通行止めがあるため、街のあちこちで車の渋滞が 。これからどうなるやら、、。心配です 。</p><p class=\"time\">03-12 23:11:07</p>","lon":140.66112,"lat":35.94687,"img":"megaphone.png"},{"id":"weathernews9676","name":"あちこち地割れしてます。中学校の校庭がまっぷたつです。長栖や谷原のひとは、津波が腰まできたらしいです。 03-12 23:11:34","text":"あちこち地割れしてます。中学校の校庭がまっぷたつです。長栖や谷原のひとは、津波が腰まできたらしいです。 03-12 23:11:34","desc":"<p class=\"tweettext\">あちこち地割れしてます。中学校の校庭がまっぷたつです。長栖や谷原のひとは、津波が腰まできたらしいです。</p><p class=\"time\">03-12 23:11:34</p>","lon":140.64493,"lat":35.96586,"img":"megaphone.png"},{"id":"weathernews9758","name":"震度3の余震が続いて落ち着かないと家族と で、話をしました。断水で困っている。送りたくても輸送手段がない 03-12 23:28:31","text":"震度3の余震が続いて落ち着かないと家族と で、話をしました。断水で困っている。送りたくても輸送手段がない 03-12 23:28:31","desc":"<p class=\"tweettext\">震度3の余震が続いて落ち着かないと家族と で、話をしました。断水で困っている。送りたくても輸送手段がない </p><p class=\"time\">03-12 23:28:31</p>","lon":140.64661,"lat":35.72072,"img":"megaphone.png"},{"id":"weathernews9781","name":"震度3の余震が、続き家に帰っても落ち着かない。身体が揺れている感じがする避難場所も人が多く精神的に疲れていると家族から聞きました。断水も続いている 03-12 ...","text":"震度3の余震が、続き家に帰っても落ち着かない。身体が揺れている感じがする避難場所も人が多く精神的に疲れていると家族から聞きました。断水も続いている 03-12 23:36:02","desc":"<p class=\"tweettext\">震度3の余震が、続き家に帰っても落ち着かない。身体が揺れている感じがする避難場所も人が多く精神的に疲れていると家族から聞きました。断水も続いている</p><p class=\"time\">03-12 23:36:02</p>","lon":140.64661,"lat":35.72072,"img":"megaphone.png"}]}