{"version":1,"tile":"9/455/193","count":31,"reports":[{"id":"weathernews550","name":"今日の午後3時前から今だに停電。8時から9時にかけて体で感じる地震が２度きました。 03-12 03:31:17","text":"今日の午後3時前から今だに停電。8時から9時にかけて体で感じる地震が２度きました。 03-12 03:31:17","label":"今日の午後3時前から今だに停電。8時から9時にかけて体で感じる地震が２度きました...","desc":"<p class=\"tweettext\">今日の午後3時前から今だに停電。8時から9時にかけて体で感じる地震が２度きました。</p><p class=\"time\">03-12 03:31:17</p>","lon":140.03719,"lat":40.22542,"img":"megaphone.png"},{"id":"weathernews666","name":"今また余震がありました 03-12 04:06:48","text":"今また余震がありました 03-12 04:06:48","label":"今また余震がありました 03-12 04:06:48","desc":"<p class=\"tweettext\">今また余震がありました</p><p class=\"time\">03-12 04:06:48</p>","lon":140.03719,"lat":40.22542,"img":"megaphone.png"},{"id":"weathernews982","name":"余震が断続的に続いてるのに加え、地震発生から停電中で復旧のメドはなし。例年に比べこの時期にしては雪が降り積もり、寒いファンヒーターしかないから暖の取りようがない...","text":"余震が断続的に続いてるのに加え、地震発生から停電中で復旧のメドはなし。例年に比べこの時期にしては雪が降り積もり、寒いファンヒーターしかないから暖の取りようがない 03-12 05:24:40","label":"余震が断続的に続いてるのに加え、地震発生から停電中で復旧のメドはなし。例年に比べ...","desc":"<p class=\"tweettext\">余震が断続的に続いてるのに加え、地震発生から停電中で復旧のメドはなし。例年に比べこの時期にしては雪が降り積もり、寒いファンヒーターしかないから暖の取りようがない</p><p class=\"time\">03-12 05:24:40</p>","lon":140.55556,"lat":40.27867,"img":"megaphone.png"},{"id":"weathernews1080","name":"私は祖父母の家に居ますが昨日は全く電気が付かず不安な夜を過ごしました。復旧の目処は立っていません。今日の夜も電気が付かないのはとても不安です。ただ家族の安全は確...","text":"私は祖父母の家に居ますが昨日は全く電気が付かず不安な夜を過ごしました。復旧の目処は立っていません。今日の夜も電気が付かないのはとても不安です。ただ家族の安全は確保されているのでそれはよかったと思います。まだまだ大変な日々は続きますが一緒に頑張りましょう。 03-12 06:09:52","label":"私は祖父母の家に居ますが昨日は全く電気が付かず不安な夜を過ごしました。復旧の目処...","desc":"<p class=\"tweettext\">私は祖父母の家に居ますが昨日は全く電気が付かず不安な夜を過ごしました。復旧の目処は立っていません。今日の夜も電気が付かないのはとても不安です。ただ家族の安全は確保されているのでそれはよかったと思います。まだまだ大変な日々は続きますが一緒に頑張りましょう。</p><p class=\"time\">03-12 06:09:52</p>","lon":140.59189,"lat":40.22461,"img":"megaphone.png"},{"id":"weathernews1313","name":"停電中で信号機も止まったままです。雪が降って路面も凍結してますので昼間点灯をしたほうがいいと思います。 03-12 06:30:58","text":"停電中で信号機も止まったままです。雪が降って路面も凍結してますので昼間点灯をしたほうがいいと思います。 03-12 06:30:58","label":"停電中で信号機も止まったままです。雪が降って路面も凍結してますので昼間点灯をした...","desc":"<p class=\"tweettext\">停電中で信号機も止まったままです。雪が降って路面も凍結してますので昼間点灯をしたほうがいいと思います。</p><p class=\"time\">03-12 06:30:58</p>","lon":140.0338,"lat":40.20493,"img":"megaphone.png"},{"id":"weathernews1434","name":"昨日の午後2時46分の地震では、横揺れがしばらく続きました。段々、揺れが強くなり立っていられずよろめきました 被害はないのですが、停電が続き不便です ケータイの...","text":"昨日の午後2時46分の地震では、横揺れがしばらく続きました。段々、揺れが強くなり立っていられずよろめきました 被害はないのですが、停電が続き不便です ケータイの充電も出来ず、連絡手段が…電池無くなればアウトだ〜 鷹巣のマックスバリュの方々、寒い中、食料や飲み水など売って下さり有り難うございました 鷹巣のローソンの方々、暗い中での作業、ご苦労様でした 03-12 06:42:47","label":"昨日の午後2時46分の地震では、横揺れがしばらく続きました。段々、揺れが強くなり...","desc":"<p class=\"tweettext\">昨日の午後2時46分の地震では、横揺れがしばらく続きました。段々、揺れが強くなり立っていられずよろめきました 被害はないのですが、停電が続き不便です ケータイの充電も出来ず、連絡手段が…電池無くなればアウトだ〜 鷹巣のマックスバリュの方々、寒い中、食料や飲み水など売って下さり有り難うございました 鷹巣のローソンの方々、暗い中での作業、ご苦労様でした </p><p class=\"time\">03-12 06:42:47</p>","lon":140.32089,"lat":40.18567,"img":"megaphone.png"},{"id":"weathernews1834","name":"昨日の夕方地震があってからずっと停電しています。1時間のうちに小さい地震が数回おきます。電気以外は使えるので食べたりなど生活出来ますが、昨日から夜中ずっと雪が降...","text":"昨日の夕方地震があってからずっと停電しています。1時間のうちに小さい地震が数回おきます。電気以外は使えるので食べたりなど生活出来ますが、昨日から夜中ずっと雪が降っていて寒さが厳しいです。それでも日本海側で津波の被害がないのでまだましかも知れません。 03-12 07:10:56","label":"昨日の夕方地震があってからずっと停電しています。1時間のうちに小さい地震が数回お...","desc":"<p class=\"tweettext\">昨日の夕方地震があってからずっと停電しています。1時間のうちに小さい地震が数回おきます。電気以外は使えるので食べたりなど生活出来ますが、昨日から夜中ずっと雪が降っていて寒さが厳しいです。それでも日本海側で津波の被害がないのでまだましかも知れません。</p><p class=\"time\">03-12 07:10:56</p>","lon":140.09792,"lat":39.94029,"img":"megaphone.png"},{"id":"weathernews1892","name":"2時間に1回は余震があります。電力は復旧の目処がたたないようで、IHも水道も使えず、食事にも困っています。店は開いてるところがなく、今後の生活に危機感が…信号は...","text":"2時間に1回は余震があります。電力は復旧の目処がたたないようで、IHも水道も使えず、食事にも困っています。店は開いてるところがなく、今後の生活に危機感が…信号は一部ついています。元々車どおりの少ない地域なので渋滞や事故は少ないです。ただ、雪が結構降っていて、暖をとれないのがちょっと辛いです 03-12 07:13:10","label":"2時間に1回は余震があります。電力は復旧の目処がたたないようで、IHも水道も使え...","desc":"<p class=\"tweettext\">2時間に1回は余震があります。電力は復旧の目処がたたないようで、IHも水道も使えず、食事にも困っています。店は開いてるところがなく、今後の生活に危機感が…信号は一部ついています。元々車どおりの少ない地域なので渋滞や事故は少ないです。ただ、雪が結構降っていて、暖をとれないのがちょっと辛いです </p><p class=\"time\">03-12 07:13:10</p>","lon":140.57217,"lat":40.27138,"img":"megaphone.png"},{"id":"weathernews3261","name":"長い横揺れが今日の早朝にまたありました 昨日の午後３時前から停電のままです コンビニやスーパー等すべての店舗で休業状態です 食料や飲料水等を備蓄してなかったせい...","text":"長い横揺れが今日の早朝にまたありました 昨日の午後３時前から停電のままです コンビニやスーパー等すべての店舗で休業状態です 食料や飲料水等を備蓄してなかったせいもあり困ってます そんなに被害が起きなかった地域でも俺と同じ境遇の人達も沢山います 被災した方々は俺よりもっと大変で辛い時間を過ごしてると思うのですが、俺みたいな人達も沢山いるという事も知っていただきたいと思ってます 03-12 08:10:16","label":"長い横揺れが今日の早朝にまたありました 昨日の午後３時前から停電のままです コン...","desc":"<p class=\"tweettext\">長い横揺れが今日の早朝にまたありました 昨日の午後３時前から停電のままです コンビニやスーパー等すべての店舗で休業状態です 食料や飲料水等を備蓄してなかったせいもあり困ってます そんなに被害が起きなかった地域でも俺と同じ境遇の人達も沢山います 被災した方々は俺よりもっと大変で辛い時間を過ごしてると思うのですが、俺みたいな人達も沢山いるという事も知っていただきたいと思ってます </p><p class=\"time\">03-12 08:10:16</p>","lon":140.0625,"lat":40.18917,"img":"megaphone.png"},{"id":"weathernews4160","name":"余震は弱まりましたが、停電、断水、食品買いだめに出る人多いです 03-12 09:18:45","text":"余震は弱まりましたが、停電、断水、食品買いだめに出る人多いです 03-12 09:18:45","label":"余震は弱まりましたが、停電、断水、食品買いだめに出る人多いです 03-12 09...","desc":"<p class=\"tweettext\">余震は弱まりましたが、停電、断水、食品買いだめに出る人多いです</p><p class=\"time\">03-12 09:18:45</p>","lon":140.57726,"lat":40.24909,"img":"megaphone.png"},{"id":"weathernews4693","name":"20分頃前に電気が通りました しかし若干の揺れを感じることがまれにあります まだ油断できませんが、一段落つきました災害地の皆さん周りの人などと協力して頑張ってく...","text":"20分頃前に電気が通りました しかし若干の揺れを感じることがまれにあります まだ油断できませんが、一段落つきました災害地の皆さん周りの人などと協力して頑張ってください 03-12 10:18:54","label":"20分頃前に電気が通りました しかし若干の揺れを感じることがまれにあります まだ...","desc":"<p class=\"tweettext\">20分頃前に電気が通りました しかし若干の揺れを感じることがまれにあります まだ油断できませんが、一段落つきました災害地の皆さん周りの人などと協力して頑張ってください</p><p class=\"time\">03-12 10:18:54</p>","lon":140.23964,"lat":40.21348,"img":"megaphone.png"},{"id":"weathernews4721","name":"まだ停電中ですが、先程給水に行ったところ、役場は電気が復旧、信号も復旧しました。 03-12 10:22:42","text":"まだ停電中ですが、先程給水に行ったところ、役場は電気が復旧、信号も復旧しました。 03-12 10:22:42","label":"まだ停電中ですが、先程給水に行ったところ、役場は電気が復旧、信号も復旧しました。...","desc":"<p class=\"tweettext\">まだ停電中ですが、先程給水に行ったところ、役場は電気が復旧、信号も復旧しました。</p><p class=\"time\">03-12 10:22:42</p>","lon":140.23775,"lat":40.20476,"img":"megaphone.png"},{"id":"weathernews5113","name":"九時半に、大町付近は電気復旧。御成町付近も復旧したもよう。桂変電所までの範囲で市役所と市立病院付近から復旧開始したようだ。電気の復旧とともに断水も解消。中央公民...","text":"九時半に、大町付近は電気復旧。御成町付近も復旧したもよう。桂変電所までの範囲で市役所と市立病院付近から復旧開始したようだ。電気の復旧とともに断水も解消。中央公民館に給水車出てます。赤館から東台方面の電気はまだ。 03-12 11:21:00","label":"九時半に、大町付近は電気復旧。御成町付近も復旧したもよう。桂変電所までの範囲で市...","desc":"<p class=\"tweettext\">九時半に、大町付近は電気復旧。御成町付近も復旧したもよう。桂変電所までの範囲で市役所と市立病院付近から復旧開始したようだ。電気の復旧とともに断水も解消。中央公民館に給水車出てます。赤館から東台方面の電気はまだ。</p><p class=\"time\">03-12 11:21:00</p>","lon":140.57114,"lat":40.27029,"img":"megaphone.png"},{"id":"weathernews5125","name":"電気ようやく復旧しました。コンビニやガソリンスタンドまだ行列できてます。また何が起きるかわかりませんから。今日は中学校の卒業式ですが、延期の所もあります。 03...","text":"電気ようやく復旧しました。コンビニやガソリンスタンドまだ行列できてます。また何が起きるかわかりませんから。今日は中学校の卒業式ですが、延期の所もあります。 03-12 11:23:38","label":"電気ようやく復旧しました。コンビニやガソリンスタンドまだ行列できてます。また何が...","desc":"<p class=\"tweettext\">電気ようやく復旧しました。コンビニやガソリンスタンドまだ行列できてます。また何が起きるかわかりませんから。今日は中学校の卒業式ですが、延期の所もあります。</p><p class=\"time\">03-12 11:23:38</p>","lon":140.01764,"lat":40.19516,"img":"megaphone.png"},{"id":"weathernews5242","name":"震度2〜3くらいの地震がまだ小刻みにきています。携帯電話の電波が不安定で、しばらく圏外になったり、電波0〜3までを頻繁にいったりきたりしています。停電が一部でし...","text":"震度2〜3くらいの地震がまだ小刻みにきています。携帯電話の電波が不安定で、しばらく圏外になったり、電波0〜3までを頻繁にいったりきたりしています。停電が一部でしか復旧しておらず、水道やガスも止まったままのようです。ｽｰﾊﾟｰ等の食品･電池を扱う店やｶﾞｿﾘﾝｽﾀﾝﾄﾞには人が殺到し、どこも混み合っていて長蛇の列です。 03-12 11:45:32","label":"震度2〜3くらいの地震がまだ小刻みにきています。携帯電話の電波が不安定で、しばら...","desc":"<p class=\"tweettext\">震度2〜3くらいの地震がまだ小刻みにきています。携帯電話の電波が不安定で、しばらく圏外になったり、電波0〜3までを頻繁にいったりきたりしています。停電が一部でしか復旧しておらず、水道やガスも止まったままのようです。ｽｰﾊﾟｰ等の食品･電池を扱う店やｶﾞｿﾘﾝｽﾀﾝﾄﾞには人が殺到し、どこも混み合っていて長蛇の列です。</p><p class=\"time\">03-12 11:45:32</p>","lon":140.57693,"lat":40.28694,"img":"megaphone.png"},{"id":"weathernews5336","name":"昨日から続いた揺れも、AM4:00前後の大きな揺れから大分落ち着いたような気がします。ほとんど眠れない夜を過ごしましたが、私の所は電気が点かない程度で近所でも大...","text":"昨日から続いた揺れも、AM4:00前後の大きな揺れから大分落ち着いたような気がします。ほとんど眠れない夜を過ごしましたが、私の所は電気が点かない程度で近所でも大きな被害が無かった事にホッとしています。停電が長引く事も想定し、市内のスーパーに買い出しに行って来ましたが、スーパー･コンビニ･個人商店など何処も長蛇の列で半分パニック状態になっておりました。秋田市内では電気が復旧し始めたようなので、少し安心しています。震源に近い地域の被害状況は凄まじいですが、必ず乗り越えられます！(私もS56.5.26の日本海中部地震で被災しました)最後に亡くなられた方のご冥福をお祈りすると共に、行方不明になっている方々が一人でも多く無事救出される事お祈り申し上げます。 03-12 12:03:09","label":"昨日から続いた揺れも、AM4:00前後の大きな揺れから大分落ち着いたような気がし...","desc":"<p class=\"tweettext\">昨日から続いた揺れも、AM4:00前後の大きな揺れから大分落ち着いたような気がします。ほとんど眠れない夜を過ごしましたが、私の所は電気が点かない程度で近所でも大きな被害が無かった事にホッとしています。停電が長引く事も想定し、市内のスーパーに買い出しに行って来ましたが、スーパー･コンビニ･個人商店など何処も長蛇の列で半分パニック状態になっておりました。秋田市内では電気が復旧し始めたようなので、少し安心しています。震源に近い地域の被害状況は凄まじいですが、必ず乗り越えられます！(私もS56.5.26の日本海中部地震で被災しました)最後に亡くなられた方のご冥福をお祈りすると共に、行方不明になっている方々が一人でも多く無事救出される事お祈り申し上げます。</p><p class=\"time\">03-12 12:03:09</p>","lon":139.93005,"lat":40.01229,"img":"megaphone.png"},{"id":"weathernews5661","name":"現在は余震等体感無く、停電中。発電機により地下水は利用可能。被災者の方々には心よりお見舞い申し上げます。 03-12 13:04:23","text":"現在は余震等体感無く、停電中。発電機により地下水は利用可能。被災者の方々には心よりお見舞い申し上げます。 03-12 13:04:23","label":"現在は余震等体感無く、停電中。発電機により地下水は利用可能。被災者の方々には心よ...","desc":"<p class=\"tweettext\">現在は余震等体感無く、停電中。発電機により地下水は利用可能。被災者の方々には心よりお見舞い申し上げます。</p><p class=\"time\">03-12 13:04:23</p>","lon":140.39607,"lat":40.31268,"img":"megaphone.png"},{"id":"weathernews6929","name":"地震の影響で停電している為電気もなくて怖いし、家にぃてもぃつ大きい地震が来るのか怖くてゆっくり寝れる状態ぢゃぁりません 03-12 14:25:29","text":"地震の影響で停電している為電気もなくて怖いし、家にぃてもぃつ大きい地震が来るのか怖くてゆっくり寝れる状態ぢゃぁりません 03-12 14:25:29","label":"地震の影響で停電している為電気もなくて怖いし、家にぃてもぃつ大きい地震が来るのか...","desc":"<p class=\"tweettext\">地震の影響で停電している為電気もなくて怖いし、家にぃてもぃつ大きい地震が来るのか怖くてゆっくり寝れる状態ぢゃぁりません  </p><p class=\"time\">03-12 14:25:29</p>","lon":140.56525,"lat":40.26592,"img":"megaphone.png"},{"id":"weathernews8017","name":"まだ停電。復旧の見込みがたたない。暖房器具がないと寒くてたまらない 03-12 16:35:25","text":"まだ停電。復旧の見込みがたたない。暖房器具がないと寒くてたまらない 03-12 16:35:25","label":"まだ停電。復旧の見込みがたたない。暖房器具がないと寒くてたまらない 03-12 ...","desc":"<p class=\"tweettext\">まだ停電。復旧の見込みがたたない。暖房器具がないと寒くてたまらない</p><p class=\"time\">03-12 16:35:25</p>","lon":140.59158,"lat":40.29886,"img":"megaphone.png"},{"id":"weathernews8117","name":"停電は現在も続いています。復旧の目処は立っていないとのこと。ｹｰﾀｲの充電手段が無いのであまり使わないようにしています。 03-12 16:53:56","text":"停電は現在も続いています。復旧の目処は立っていないとのこと。ｹｰﾀｲの充電手段が無いのであまり使わないようにしています。 03-12 16:53:56","label":"停電は現在も続いています。復旧の目処は立っていないとのこと。ｹｰﾀｲの充電手段が...","desc":"<p class=\"tweettext\">停電は現在も続いています。復旧の目処は立っていないとのこと。ｹｰﾀｲの充電手段が無いのであまり使わないようにしています。</p><p class=\"time\">03-12 16:53:56</p>","lon":140.03632,"lat":40.22236,"img":"megaphone.png"},{"id":"weathernews8213","name":"電気は一部復旧しましたが停電中です。復旧の見通したたないので市の広報車が近くの小学校に避難してもいいと周っています。 03-12 17:09:52","text":"電気は一部復旧しましたが停電中です。復旧の見通したたないので市の広報車が近くの小学校に避難してもいいと周っています。 03-12 17:09:52","label":"電気は一部復旧しましたが停電中です。復旧の見通したたないので市の広報車が近くの小...","desc":"<p class=\"tweettext\">電気は一部復旧しましたが停電中です。復旧の見通したたないので市の広報車が近くの小学校に避難してもいいと周っています。</p><p class=\"time\">03-12 17:09:52</p>","lon":140.0338,"lat":40.20493,"img":"megaphone.png"},{"id":"weathernews8538","name":"１６:２５の福島沖地震微弱ながらグラッとした体感ありまだ油断できない 03-12 18:34:50","text":"１６:２５の福島沖地震微弱ながらグラッとした体感ありまだ油断できない 03-12 18:34:50","label":"１６:２５の福島沖地震微弱ながらグラッとした体感ありまだ油断できない 03-12...","desc":"<p class=\"tweettext\">１６:２５の福島沖地震微弱ながらグラッとした体感ありまだ油断できない</p><p class=\"time\">03-12 18:34:50</p>","lon":140.03368,"lat":40.20813,"img":"megaphone.png"},{"id":"weathernews8543","name":"昨日、仕事中に携帯の地震アラームの後揺れて全ての電気が止まり、昨夜はランタンで灯りを灯し反射ストーブで寒さをしのいでました、朝１０時ころ電気も復旧しました、 0...","text":"昨日、仕事中に携帯の地震アラームの後揺れて全ての電気が止まり、昨夜はランタンで灯りを灯し反射ストーブで寒さをしのいでました、朝１０時ころ電気も復旧しました、 03-12 18:35:43","label":"昨日、仕事中に携帯の地震アラームの後揺れて全ての電気が止まり、昨夜はランタンで灯...","desc":"<p class=\"tweettext\">昨日、仕事中に携帯の地震アラームの後揺れて全ての電気が止まり、昨夜はランタンで灯りを灯し反射ストーブで寒さをしのいでました、朝１０時ころ電気も復旧しました、</p><p class=\"time\">03-12 18:35:43</p>","lon":140.07674,"lat":39.98958,"img":"megaphone.png"},{"id":"weathernews8633","name":"やっとケータイが使えました。11日の地震から停電になり、19時間後に電気復活。ケータイも圏外になっていました。大館市でも道路に亀裂が入ったり、断水の所があるよう...","text":"やっとケータイが使えました。11日の地震から停電になり、19時間後に電気復活。ケータイも圏外になっていました。大館市でも道路に亀裂が入ったり、断水の所があるようで、いまだ停電の所があるみたいです。 03-12 19:02:33","label":"やっとケータイが使えました。11日の地震から停電になり、19時間後に電気復活。ケ...","desc":"<p class=\"tweettext\">やっとケータイが使えました。11日の地震から停電になり、19時間後に電気復活。ケータイも圏外になっていました。大館市でも道路に亀裂が入ったり、断水の所があるようで、いまだ停電の所があるみたいです。</p><p class=\"time\">03-12 19:02:33</p>","lon":140.53792,"lat":40.27125,"img":"megaphone.png"},{"id":"weathernews9117","name":"地震後からずっと停電でさっき8時頃復旧した 03-12 21:05:07","text":"地震後からずっと停電でさっき8時頃復旧した 03-12 21:05:07","label":"地震後からずっと停電でさっき8時頃復旧した 03-12 21:05:07","desc":"<p class=\"tweettext\">地震後からずっと停電でさっき8時頃復旧した</p><p class=\"time\">03-12 21:05:07</p>","lon":140.54082,"lat":40.28582,"img":"megaphone.png"},{"id":"weathernews9235","name":"ライフラインはほぼ復旧しました電気が復旧しましたので、いままで断水だった地域でも徐々に上下水道が使えるようになっています。 03-12 21:34:53","text":"ライフラインはほぼ復旧しました電気が復旧しましたので、いままで断水だった地域でも徐々に上下水道が使えるようになっています。 03-12 21:34:53","label":"ライフラインはほぼ復旧しました電気が復旧しましたので、いままで断水だった地域でも...","desc":"<p class=\"tweettext\">ライフラインはほぼ復旧しました電気が復旧しましたので、いままで断水だった地域でも徐々に上下水道が使えるようになっています。</p><p class=\"time\">03-12 21:34:53</p>","lon":140.57436,"lat":40.21651,"img":"megaphone.png"},{"id":"weathernews9432","name":"電気は復旧しましたけど､余震が続いてまた寝れない夜が続きます。 03-12 22:22:23","text":"電気は復旧しましたけど､余震が続いてまた寝れない夜が続きます。 03-12 22:22:23","label":"電気は復旧しましたけど､余震が続いてまた寝れない夜が続きます。 03-12 22...","desc":"<p class=\"tweettext\">電気は復旧しましたけど､余震が続いてまた寝れない夜が続きます。</p><p class=\"time\">03-12 22:22:23</p>","lon":140.57318,"lat":40.26847,"img":"megaphone.png"},{"id":"weathernews9605","name":"17時すぎに、電気が復旧しました。15分ほど前にも、体に感じる弱い揺れがありました。 03-12 22:50:18","text":"17時すぎに、電気が復旧しました。15分ほど前にも、体に感じる弱い揺れがありました。 03-12 22:50:18","label":"17時すぎに、電気が復旧しました。15分ほど前にも、体に感じる弱い揺れがありまし...","desc":"<p class=\"tweettext\">17時すぎに、電気が復旧しました。15分ほど前にも、体に感じる弱い揺れがありました。</p><p class=\"time\">03-12 22:50:18</p>","lon":140.57225,"lat":40.28082,"img":"megaphone.png"},{"id":"weathernews9835","name":"揺れました。 蛍光灯が揺れ、窓がカタカタなりました。 03-12 23:48:43","text":"揺れました。 蛍光灯が揺れ、窓がカタカタなりました。 03-12 23:48:43","label":"揺れました。 蛍光灯が揺れ、窓がカタカタなりました。 03-12 23:48:4...","desc":"<p class=\"tweettext\">揺れました。 蛍光灯が揺れ、窓がカタカタなりました。</p><p class=\"time\">03-12 23:48:43</p>","lon":140.47041,"lat":40.2716,"img":"megaphone.png"},{"id":"weathernews9838","name":"少し強い地震だった。 03-12 23:48:59","text":"少し強い地震だった。 03-12 23:48:59","label":"少し強い地震だった。 03-12 23:48:59","desc":"<p class=\"tweettext\">少し強い地震だった。</p><p class=\"time\">03-12 23:48:59</p>","lon":140.55594,"lat":40.21594,"img":"megaphone.png"},{"id":"weathernews9867","name":"１１日午後３時前に、船に乗っているような大きな横揺れが数分続いた。１１日は地震の影響で停電しました。１２日朝には復旧するも、今度は午前１０時頃から断水。午後９時...","text":"１１日午後３時前に、船に乗っているような大きな横揺れが数分続いた。１１日は地震の影響で停電しました。１２日朝には復旧するも、今度は午前１０時頃から断水。午後９時頃に復旧。１２日早朝４時３０分頃にも大きな揺れ。 03-12 23:56:04","label":"１１日午後３時前に、船に乗っているような大きな横揺れが数分続いた。１１日は地震の...","desc":"<p class=\"tweettext\">１１日午後３時前に、船に乗っているような大きな横揺れが数分続いた。１１日は地震の影響で停電しました。１２日朝には復旧するも、今度は午前１０時頃から断水。午後９時頃に復旧。１２日早朝４時３０分頃にも大きな揺れ。</p><p class=\"time\">03-12 23:56:04</p>","lon":140.09111,"lat":40.08486,"img":"megaphone.png"}]}