{"version":1,"tile":"9/455/194","count":66,"reports":[{"id":"weathernews566","name":"始めは弱い横揺れ、約30秒後に強い横揺れ。３分以上揺れていた。家の中はフロッピーが落ちただけ。周囲は甚大な被害見られず。 03-12 03:37:14","text":"始めは弱い横揺れ、約30秒後に強い横揺れ。３分以上揺れていた。家の中はフロッピーが落ちただけ。周囲は甚大な被害見られず。 03-12 03:37:14","desc":"<p class=\"tweettext\">始めは弱い横揺れ、約30秒後に強い横揺れ。３分以上揺れていた。家の中はフロッピーが落ちただけ。周囲は甚大な被害見られず。</p><p class=\"time\">03-12 03:37:14</p>","lon":140.13057,"lat":39.679,"img":"megaphone.png"},{"id":"weathernews745","name":"今も余震があり、時々強いのがきます。ずっと停電中です。 03-12 04:23:37","text":"今も余震があり、時々強いのがきます。ずっと停電中です。 03-12 04:23:37","desc":"<p class=\"tweettext\">今も余震があり、時々強いのがきます。ずっと停電中です。</p><p class=\"time\">03-12 04:23:37</p>","lon":140.47569,"lat":39.45318,"img":"megaphone.png"},{"id":"weathernews1071","name":"だいぶ、明るくなってはきましたが、電気がないので困る 03-12 06:08:36","text":"だいぶ、明るくなってはきましたが、電気がないので困る 03-12 06:08:36","desc":"<p class=\"tweettext\">だいぶ、明るくなってはきましたが、電気がないので困る</p><p class=\"time\">03-12 06:08:36</p>","lon":140.10352,"lat":39.73528,"img":"megaphone.png"},{"id":"weathernews1194","name":"今朝は三月中旬とは思えない寒さです −2〜3℃くらいでしょうか 四時四十分過ぎの地震は大きくて たいへんでしたが 新聞が届いたのでびっくり(魁新聞) 配達のおじ...","text":"今朝は三月中旬とは思えない寒さです −2〜3℃くらいでしょうか 四時四十分過ぎの地震は大きくて たいへんでしたが 新聞が届いたのでびっくり(魁新聞) 配達のおじさんに思わずお礼を言いました 紙面写真でたいへんな被害状況だったことをしりました ラジオは耳からの情報なので実際の映像はショックでした 被害にあわれた方 頑張ってください まだまだ終わりではないでしょうが 心がおれないように声を出していきましょう 秋田は雪の被害からようやく脱出しかけた所ですが夕べからまた雪が降って少し積もっています 寒いけれどがんばります 03-12 06:18:35","desc":"<p class=\"tweettext\">今朝は三月中旬とは思えない寒さです  −2〜3℃くらいでしょうか  四時四十分過ぎの地震は大きくて たいへんでしたが 新聞が届いたのでびっくり(魁新聞) 配達のおじさんに思わずお礼を言いました  紙面写真でたいへんな被害状況だったことをしりました ラジオは耳からの情報なので実際の映像はショックでした  被害にあわれた方  頑張ってください  まだまだ終わりではないでしょうが 心がおれないように声を出していきましょう  秋田は雪の被害からようやく脱出しかけた所ですが夕べからまた雪が降って少し積もっています   寒いけれどがんばります</p><p class=\"time\">03-12 06:18:35</p>","lon":140.0761,"lat":39.67516,"img":"megaphone.png"},{"id":"weathernews1268","name":"昨日の２時４６分の地震発生から電気ストップまぁ、すぐ復旧するだろうと思ってましたが…夜になっても…翌朝になっても…電気ストップ いまだに…余震が続きよく眠れず…...","text":"昨日の２時４６分の地震発生から電気ストップまぁ、すぐ復旧するだろうと思ってましたが…夜になっても…翌朝になっても…電気ストップ いまだに…余震が続きよく眠れず…結構電気に頼ってる我が暮らし…昨夜は夜中１２時より断水倉庫より、昔のストーブを出しました(反射式)ろうそくの灯りと電池のありがたみを感じてます。 03-12 06:26:03","desc":"<p class=\"tweettext\">昨日の２時４６分の地震発生から電気ストップまぁ、すぐ復旧するだろうと思ってましたが…夜になっても…翌朝になっても…電気ストップ いまだに…余震が続きよく眠れず…結構電気に頼ってる我が暮らし…昨夜は夜中１２時より断水倉庫より、昔のストーブを出しました(反射式)ろうそくの灯りと電池のありがたみを感じてます。</p><p class=\"time\">03-12 06:26:03</p>","lon":140.47816,"lat":39.45069,"img":"megaphone.png"},{"id":"weathernews1508","name":"停電による影響が大きいです。集合住宅では水道が出ない状況が続いています。私はいつでも避難できるように準備しておき、寒いので沢山着込んで、スキーウエアなどを準備し...","text":"停電による影響が大きいです。集合住宅では水道が出ない状況が続いています。私はいつでも避難できるように準備しておき、寒いので沢山着込んで、スキーウエアなどを準備して、布団に入っています。情報源が手回し発電ラジオと携帯電話。携帯電話は電池が切れかかっています。秋田市ではいくつか避難所が設置されたらしいです。その情報は携帯電話のワンセグで得ました。電池が無いためずっとは見られません。 03-12 06:51:09","desc":"<p class=\"tweettext\">停電による影響が大きいです。集合住宅では水道が出ない状況が続いています。私はいつでも避難できるように準備しておき、寒いので沢山着込んで、スキーウエアなどを準備して、布団に入っています。情報源が手回し発電ラジオと携帯電話。携帯電話は電池が切れかかっています。秋田市ではいくつか避難所が設置されたらしいです。その情報は携帯電話のワンセグで得ました。電池が無いためずっとは見られません。</p><p class=\"time\">03-12 06:51:09</p>","lon":140.13268,"lat":39.72458,"img":"megaphone.png"},{"id":"weathernews1846","name":"昨日からずっと余震が続き、電気水がストップ。キャンプ用のランタンを3個出し、これで灯りは十分です。水も断水前に鍋・ヤカンのほか、浴槽、キャンプ用の水汲みジャグに...","text":"昨日からずっと余震が続き、電気水がストップ。キャンプ用のランタンを3個出し、これで灯りは十分です。水も断水前に鍋・ヤカンのほか、浴槽、キャンプ用の水汲みジャグにありったけキープしています。もちろん飯盒もあるし、何日かかるかわかりませんが日頃のサバイバル生活が役に立ちます 03-12 07:11:29","desc":"<p class=\"tweettext\">昨日からずっと余震が続き、電気水がストップ。キャンプ用のランタンを3個出し、これで灯りは十分です。水も断水前に鍋・ヤカンのほか、浴槽、キャンプ用の水汲みジャグにありったけキープしています。もちろん飯盒もあるし、何日かかるかわかりませんが日頃のサバイバル生活が役に立ちます</p><p class=\"time\">03-12 07:11:29</p>","lon":140.47797,"lat":39.45577,"img":"megaphone.png"},{"id":"weathernews1950","name":"昨日の地震のときは大学病院にいました。大きく揺れてまっすぐ歩けずこわかったです。病院は自家発電で動くと言っていましたが電力が不足しそうだとのことです。その後はず...","text":"昨日の地震のときは大学病院にいました。大きく揺れてまっすぐ歩けずこわかったです。病院は自家発電で動くと言っていましたが電力が不足しそうだとのことです。その後はずっと余震が続き、停電も続いているので不安です。ガス・水道は大丈夫です。コンビニもスーパーもどこも閉まっています。朝になって明るくなったのでホッとしています。連絡がとれるうちにマメに家族と連絡をとりたいと思います。早く復旧しますように。 03-12 07:15:16","desc":"<p class=\"tweettext\">昨日の地震のときは大学病院にいました。大きく揺れてまっすぐ歩けずこわかったです。病院は自家発電で動くと言っていましたが電力が不足しそうだとのことです。その後はずっと余震が続き、停電も続いているので不安です。ガス・水道は大丈夫です。コンビニもスーパーもどこも閉まっています。朝になって明るくなったのでホッとしています。連絡がとれるうちにマメに家族と連絡をとりたいと思います。早く復旧しますように。</p><p class=\"time\">03-12 07:15:16</p>","lon":140.1451,"lat":39.72836,"img":"megaphone.png"},{"id":"weathernews2000","name":"昨日の地震直後から停電 深夜０時から断水です｡皆さん精神的に疲れてるかとは思いますが頑張りましょう 03-12 07:17:05","text":"昨日の地震直後から停電 深夜０時から断水です｡皆さん精神的に疲れてるかとは思いますが頑張りましょう 03-12 07:17:05","desc":"<p class=\"tweettext\">昨日の地震直後から停電 深夜０時から断水です｡皆さん精神的に疲れてるかとは思いますが頑張りましょう</p><p class=\"time\">03-12 07:17:05</p>","lon":140.47623,"lat":39.44552,"img":"megaphone.png"},{"id":"weathernews2154","name":"時おり揺れがありますが電気が以前停止している状態です．また水道とガスは使用できますが寒いし雪が降っています 03-12 07:23:10","text":"時おり揺れがありますが電気が以前停止している状態です．また水道とガスは使用できますが寒いし雪が降っています 03-12 07:23:10","desc":"<p class=\"tweettext\">時おり揺れがありますが電気が以前停止している状態です．また水道とガスは使用できますが寒いし雪が降っています</p><p class=\"time\">03-12 07:23:10</p>","lon":140.09029,"lat":39.75889,"img":"megaphone.png"},{"id":"weathernews2187","name":"昨日から大小合わせて、数十回の体感があります。今日の朝方からはおさまっています。昨日の午後2時半の一番ひどかった地震の後から、電話が全く通じませんでした。停電も...","text":"昨日から大小合わせて、数十回の体感があります。今日の朝方からはおさまっています。昨日の午後2時半の一番ひどかった地震の後から、電話が全く通じませんでした。停電も現在まで続いています。ほぼ信号機が全滅で交通渋滞がおきています。すぐ近くの町内では水道管破裂がおきて、断水の地域もあります。コンビニやスーパーでは買い物の長い行列が出来ていました。 03-12 07:24:30","desc":"<p class=\"tweettext\">昨日から大小合わせて、数十回の体感があります。今日の朝方からはおさまっています。昨日の午後2時半の一番ひどかった地震の後から、電話が全く通じませんでした。停電も現在まで続いています。ほぼ信号機が全滅で交通渋滞がおきています。すぐ近くの町内では水道管破裂がおきて、断水の地域もあります。コンビニやスーパーでは買い物の長い行列が出来ていました。</p><p class=\"time\">03-12 07:24:30</p>","lon":140.10239,"lat":39.71991,"img":"megaphone.png"},{"id":"weathernews2331","name":"11日の最初の揺れの直後から停電。先ほど（７時）回復しました今のところ自宅の建物に被害はなさそうです 03-12 07:30:36","text":"11日の最初の揺れの直後から停電。先ほど（７時）回復しました今のところ自宅の建物に被害はなさそうです 03-12 07:30:36","desc":"<p class=\"tweettext\">11日の最初の揺れの直後から停電。先ほど（７時）回復しました今のところ自宅の建物に被害はなさそうです</p><p class=\"time\">03-12 07:30:36</p>","lon":140.03908,"lat":39.38842,"img":"megaphone.png"},{"id":"weathernews2796","name":"今朝になって起きたところです。すごく寒いです。停電も続いてるしボクの には水もきていません。だれも外にはいません遠くでサイレン聞こえた程度です。 03-12 0...","text":"今朝になって起きたところです。すごく寒いです。停電も続いてるしボクの には水もきていません。だれも外にはいません遠くでサイレン聞こえた程度です。 03-12 07:52:15","desc":"<p class=\"tweettext\">今朝になって起きたところです。すごく寒いです。停電も続いてるしボクの には水もきていません。だれも外にはいません遠くでサイレン聞こえた程度です。</p><p class=\"time\">03-12 07:52:15</p>","lon":140.05513,"lat":39.39092,"img":"megaphone.png"},{"id":"weathernews2956","name":"小さい揺れは幾度となくありますが、大きい揺れは14時16時朝5時台の3回です。朝の揺れが一番大きかったですが物が多少倒れた程度です。ガス水道は使えますが、停電で...","text":"小さい揺れは幾度となくありますが、大きい揺れは14時16時朝5時台の3回です。朝の揺れが一番大きかったですが物が多少倒れた程度です。ガス水道は使えますが、停電です。復旧の見込みはたっていないそうです。道路も走れる状態ですが、大きい道路の信号機以外はつかないので注意が必要。潟上は放送が流れるのでまだ安心します。 03-12 07:58:49","desc":"<p class=\"tweettext\">小さい揺れは幾度となくありますが、大きい揺れは14時16時朝5時台の3回です。朝の揺れが一番大きかったですが物が多少倒れた程度です。ガス水道は使えますが、停電です。復旧の見込みはたっていないそうです。道路も走れる状態ですが、大きい道路の信号機以外はつかないので注意が必要。潟上は放送が流れるのでまだ安心します。</p><p class=\"time\">03-12 07:58:49</p>","lon":140.06029,"lat":39.80611,"img":"megaphone.png"},{"id":"weathernews3066","name":"昨日より停電中、時々ゆれもあります。国道7号線は普通に車が通っています。 03-12 08:02:16","text":"昨日より停電中、時々ゆれもあります。国道7号線は普通に車が通っています。 03-12 08:02:16","desc":"<p class=\"tweettext\">昨日より停電中、時々ゆれもあります。国道7号線は普通に車が通っています。</p><p class=\"time\">03-12 08:02:16</p>","lon":140.03168,"lat":39.38777,"img":"megaphone.png"},{"id":"weathernews4143","name":"停電 03-12 09:17:15","text":"停電 03-12 09:17:15","desc":"<p class=\"tweettext\">停電</p><p class=\"time\">03-12 09:17:15</p>","lon":140.0489,"lat":39.82018,"img":"megaphone.png"},{"id":"weathernews4277","name":"揺れはやや収まりつつあるが今も停電中である。 03-12 09:32:51","text":"揺れはやや収まりつつあるが今も停電中である。 03-12 09:32:51","desc":"<p class=\"tweettext\">揺れはやや収まりつつあるが今も停電中である。</p><p class=\"time\">03-12 09:32:51</p>","lon":140.48444,"lat":39.48361,"img":"megaphone.png"},{"id":"weathernews4428","name":"4時間に1回程度にすごく揺れる状態。停電はまだ続いています 03-12 09:48:34","text":"4時間に1回程度にすごく揺れる状態。停電はまだ続いています 03-12 09:48:34","desc":"<p class=\"tweettext\">4時間に1回程度にすごく揺れる状態。停電はまだ続いています</p><p class=\"time\">03-12 09:48:34</p>","lon":139.95279,"lat":39.90528,"img":"megaphone.png"},{"id":"weathernews4518","name":"たった今、電気通りました＼(^O^)／何にもできない、今日はずって寝てるだけかと落ち込んでいました。昨日からずっとグラグラ揺れっぱなし、水道ガスは出たのでカップ...","text":"たった今、電気通りました＼(^O^)／何にもできない、今日はずって寝てるだけかと落ち込んでいました。昨日からずっとグラグラ揺れっぱなし、水道ガスは出たのでカップラーメンをたべて、ストーブも付かないので家族全員早く寝床につきました。夜中も次から次と地震、真っ暗な中で不安になりながらラジオを付けっ放しで寝ましたが、熟睡できず明るい朝が来て、ホッとしていた所に電気が通ってようやくストーブ付いて部屋が暖かくなり、電気通った ＼(^O^)／ と叫んでいる私が居ました。災害の酷い地域の方々、本当に早くライフライン復旧する事祈ります。そして、早く皆さんが普通の生活に戻れる事お祈りいたします。 03-12 09:57:29","desc":"<p class=\"tweettext\">たった今、電気通りました＼(^O^)／何にもできない、今日はずって寝てるだけかと落ち込んでいました。昨日からずっとグラグラ揺れっぱなし、水道ガスは出たのでカップラーメンをたべて、ストーブも付かないので家族全員早く寝床につきました。夜中も次から次と地震、真っ暗な中で不安になりながらラジオを付けっ放しで寝ましたが、熟睡できず明るい朝が来て、ホッとしていた所に電気が通ってようやくストーブ付いて部屋が暖かくなり、電気通った ＼(^O^)／ と叫んでいる私が居ました。災害の酷い地域の方々、本当に早くライフライン復旧する事祈ります。そして、早く皆さんが普通の生活に戻れる事お祈りいたします。</p><p class=\"time\">03-12 09:57:29</p>","lon":140.10451,"lat":39.69777,"img":"megaphone.png"},{"id":"weathernews4523","name":"停電中、復旧見込不明 03-12 09:58:47","text":"停電中、復旧見込不明 03-12 09:58:47","desc":"<p class=\"tweettext\">停電中、復旧見込不明</p><p class=\"time\">03-12 09:58:47</p>","lon":140.41499,"lat":39.49694,"img":"megaphone.png"},{"id":"weathernews4585","name":"地震直後からの停電は、いまだに続いていますが、みなと病院近辺は信号機が作動していました。携帯から携帯は非常につながりにくいですが、携帯から固定電話は一応つながり...","text":"地震直後からの停電は、いまだに続いていますが、みなと病院近辺は信号機が作動していました。携帯から携帯は非常につながりにくいですが、携帯から固定電話は一応つながりました。ただ固定電話も不通の所があるようです。 03-12 10:07:07","desc":"<p class=\"tweettext\">地震直後からの停電は、いまだに続いていますが、みなと病院近辺は信号機が作動していました。携帯から携帯は非常につながりにくいですが、携帯から固定電話は一応つながりました。ただ固定電話も不通の所があるようです。</p><p class=\"time\">03-12 10:07:07</p>","lon":139.9483,"lat":39.9042,"img":"megaphone.png"},{"id":"weathernews4643","name":"電気はまだついていません 余震が続いてます スーパーはどこも開店前から長い行列ができています ガスや水道が使えるので食事の支度はできますが ATMが使えないのと...","text":"電気はまだついていません 余震が続いてます スーパーはどこも開店前から長い行列ができています ガスや水道が使えるので食事の支度はできますが ATMが使えないのとガソリンスタンドがあいてないので困っています 銀行が九時から一部営業するようで助かりますが 我が家の灯油とガソリンはなくなりそうです 道路に雪がなくて凍ってなければ自転車が使えるのですが まだ滑る状態です 寒いので灯油はまだまだ必要です 03-12 10:14:46","desc":"<p class=\"tweettext\">電気はまだついていません 余震が続いてます スーパーはどこも開店前から長い行列ができています ガスや水道が使えるので食事の支度はできますが ATMが使えないのとガソリンスタンドがあいてないので困っています 銀行が九時から一部営業するようで助かりますが 我が家の灯油とガソリンはなくなりそうです 道路に雪がなくて凍ってなければ自転車が使えるのですが まだ滑る状態です 寒いので灯油はまだまだ必要です</p><p class=\"time\">03-12 10:14:46</p>","lon":140.09167,"lat":39.67426,"img":"megaphone.png"},{"id":"weathernews4741","name":"昨日の午後の大きな揺れから停電が続いています。電話も通じません。ショッピングセンターやホームセンターは朝から食料や水、電池やタンク、カセットコンロのガスなど買い...","text":"昨日の午後の大きな揺れから停電が続いています。電話も通じません。ショッピングセンターやホームセンターは朝から食料や水、電池やタンク、カセットコンロのガスなど買い求めるお客様で、ごった返していました。 03-12 10:26:00","desc":"<p class=\"tweettext\">昨日の午後の大きな揺れから停電が続いています。電話も通じません。ショッピングセンターやホームセンターは朝から食料や水、電池やタンク、カセットコンロのガスなど買い求めるお客様で、ごった返していました。\n   </p><p class=\"time\">03-12 10:26:00</p>","lon":140.47569,"lat":39.45318,"img":"megaphone.png"},{"id":"weathernews4917","name":"停電していたが復旧。物が壊れたりはしていないがまだたまに揺れている 03-12 10:51:20","text":"停電していたが復旧。物が壊れたりはしていないがまだたまに揺れている 03-12 10:51:20","desc":"<p class=\"tweettext\">停電していたが復旧。物が壊れたりはしていないがまだたまに揺れている</p><p class=\"time\">03-12 10:51:20</p>","lon":140.61028,"lat":39.57694,"img":"megaphone.png"},{"id":"weathernews5281","name":"余震がたびたび来ています｡時々揺れがおおきかったりしますがだいぶ落ち着いてきた気がします!油断は禁物ですが‥電気まだ復旧してません 復旧してるとこはしてるみたい...","text":"余震がたびたび来ています｡時々揺れがおおきかったりしますがだいぶ落ち着いてきた気がします!油断は禁物ですが‥電気まだ復旧してません 復旧してるとこはしてるみたい 03-12 11:52:21","desc":"<p class=\"tweettext\">余震がたびたび来ています｡時々揺れがおおきかったりしますがだいぶ落ち着いてきた気がします!油断は禁物ですが‥電気まだ復旧してません 復旧してるとこはしてるみたい </p><p class=\"time\">03-12 11:52:21</p>","lon":140.57211,"lat":39.64362,"img":"megaphone.png"},{"id":"weathernews5414","name":"大きく揺れたが、物が倒れてきたり、家屋の損傷はなし。ただ、翌朝まで電気がこなかったのが厳しかった。 03-12 12:16:15","text":"大きく揺れたが、物が倒れてきたり、家屋の損傷はなし。ただ、翌朝まで電気がこなかったのが厳しかった。 03-12 12:16:15","desc":"<p class=\"tweettext\">大きく揺れたが、物が倒れてきたり、家屋の損傷はなし。ただ、翌朝まで電気がこなかったのが厳しかった。</p><p class=\"time\">03-12 12:16:15</p>","lon":140.09787,"lat":39.71586,"img":"megaphone.png"},{"id":"weathernews5458","name":"１０時すぎに電気が復旧しました。 03-12 12:25:38","text":"１０時すぎに電気が復旧しました。 03-12 12:25:38","desc":"<p class=\"tweettext\">１０時すぎに電気が復旧しました。</p><p class=\"time\">03-12 12:25:38</p>","lon":140.56367,"lat":39.59746,"img":"megaphone.png"},{"id":"weathernews5654","name":"余震が続いていますし、現在も停電中です。近隣スーパー、コンビニは入店規制をしつつ販売を継続していますが、乾電池、ローソク等は品切れが出ています。食料品はまだある...","text":"余震が続いていますし、現在も停電中です。近隣スーパー、コンビニは入店規制をしつつ販売を継続していますが、乾電池、ローソク等は品切れが出ています。食料品はまだあるようです。スーパーでは一部医薬品も販売しています。在庫がなくなる、もしくは暗くなるまでは営業するとのことです。ガソリンスタンドは停電のため給油ができない、もしくは緊急車両優先のところが多いようです。 03-12 13:03:09","desc":"<p class=\"tweettext\">余震が続いていますし、現在も停電中です。近隣スーパー、コンビニは入店規制をしつつ販売を継続していますが、乾電池、ローソク等は品切れが出ています。食料品はまだあるようです。スーパーでは一部医薬品も販売しています。在庫がなくなる、もしくは暗くなるまでは営業するとのことです。ガソリンスタンドは停電のため給油ができない、もしくは緊急車両優先のところが多いようです。</p><p class=\"time\">03-12 13:03:09</p>","lon":140.09084,"lat":39.70639,"img":"megaphone.png"},{"id":"weathernews5759","name":"今揺れています。結構強めでした 電気こないからファミリーで車の中に、居ます。電気こないから、水が出ない 03-12 13:12:49","text":"今揺れています。結構強めでした 電気こないからファミリーで車の中に、居ます。電気こないから、水が出ない 03-12 13:12:49","desc":"<p class=\"tweettext\">今揺れています。結構強めでした 電気こないからファミリーで車の中に、居ます。電気こないから、水が出ない </p><p class=\"time\">03-12 13:12:49</p>","lon":140.58749,"lat":39.55583,"img":"megaphone.png"},{"id":"weathernews5910","name":"水道、ガス来てますが、電気はきてません。秋田市内で電気来てるとこもあるようですね。早く電気来て欲しいです。ローソン、ファミマ、コメリは行列並んでて人いっぱいで電...","text":"水道、ガス来てますが、電気はきてません。秋田市内で電気来てるとこもあるようですね。早く電気来て欲しいです。ローソン、ファミマ、コメリは行列並んでて人いっぱいで電池、ライト、携帯充電器なくなりそうです。映画のような事が現実に起きて信じられません。早く復帰する事を願います。 03-12 13:21:49","desc":"<p class=\"tweettext\">水道、ガス来てますが、電気はきてません。秋田市内で電気来てるとこもあるようですね。早く電気来て欲しいです。ローソン、ファミマ、コメリは行列並んでて人いっぱいで電池、ライト、携帯充電器なくなりそうです。映画のような事が現実に起きて信じられません。早く復帰する事を願います。</p><p class=\"time\">03-12 13:21:49</p>","lon":140.06833,"lat":39.80472,"img":"megaphone.png"},{"id":"weathernews6296","name":"地震発生後にスーパーに行きましたがまさに戦争でした！これからの食べ物をどうしようかと思ってた所電気がつきました！よかった…(;_;)秋田は被害が少ないのですが、...","text":"地震発生後にスーパーに行きましたがまさに戦争でした！これからの食べ物をどうしようかと思ってた所電気がつきました！よかった…(;_;)秋田は被害が少ないのですが、仙台に親戚がいますので心配してます 03-12 13:45:06","desc":"<p class=\"tweettext\">地震発生後にスーパーに行きましたがまさに戦争でした！これからの食べ物をどうしようかと思ってた所電気がつきました！よかった…(;_;)秋田は被害が少ないのですが、仙台に親戚がいますので心配してます</p><p class=\"time\">03-12 13:45:06</p>","lon":140.10239,"lat":39.71991,"img":"megaphone.png"},{"id":"weathernews6323","name":"11日14時45分頃の揺れはじめより、断続的に揺れています。大揺れは始めだけでしたが、ものが落ちない程度に家の揺れる地震は何度も。ほぼ一日たったいまでも揺れがあ...","text":"11日14時45分頃の揺れはじめより、断続的に揺れています。大揺れは始めだけでしたが、ものが落ちない程度に家の揺れる地震は何度も。ほぼ一日たったいまでも揺れがあります。停電は11日15時頃より12日9時頃まで続きました。 03-12 13:46:28","desc":"<p class=\"tweettext\">11日14時45分頃の揺れはじめより、断続的に揺れています。大揺れは始めだけでしたが、ものが落ちない程度に家の揺れる地震は何度も。ほぼ一日たったいまでも揺れがあります。停電は11日15時頃より12日9時頃まで続きました。</p><p class=\"time\">03-12 13:46:28</p>","lon":140.09528,"lat":39.44306,"img":"megaphone.png"},{"id":"weathernews6391","name":"一晩停電しましたが、今朝九時に電気が復旧しました。でも秋田市や能代市では、まだのようです。地区全域に防災無線があるので、停電中もいくらか情報が入りました。今は物...","text":"一晩停電しましたが、今朝九時に電気が復旧しました。でも秋田市や能代市では、まだのようです。地区全域に防災無線があるので、停電中もいくらか情報が入りました。今は物資がないことが一番です。地震発生時は職場のある秋田市にいました。横揺れが強く、船に乗っているようでした。地震直後から停電になりました。 03-12 13:50:34","desc":"<p class=\"tweettext\">一晩停電しましたが、今朝九時に電気が復旧しました。でも秋田市や能代市では、まだのようです。地区全域に防災無線があるので、停電中もいくらか情報が入りました。今は物資がないことが一番です。地震発生時は職場のある秋田市にいました。横揺れが強く、船に乗っているようでした。地震直後から停電になりました。</p><p class=\"time\">03-12 13:50:34</p>","lon":140.09167,"lat":39.55194,"img":"megaphone.png"},{"id":"weathernews6491","name":"昨日の地震発生から、停電が続き、暖房も取れずラジオを聞きながら湯タンポを抱いて過ごしました。街の灯も消え、三日月とオリオンたちの星の輝きがいつもより明るく見えま...","text":"昨日の地震発生から、停電が続き、暖房も取れずラジオを聞きながら湯タンポを抱いて過ごしました。街の灯も消え、三日月とオリオンたちの星の輝きがいつもより明るく見えました。今朝8時前に電気が復旧し、いつも通りの生活に戻り有り難さでいっぱいです。ようやく見ることができたテレビの画面に愕然し涙がでました。 03-12 13:55:43","desc":"<p class=\"tweettext\">昨日の地震発生から、停電が続き、暖房も取れずラジオを聞きながら湯タンポを抱いて過ごしました。街の灯も消え、三日月とオリオンたちの星の輝きがいつもより明るく見えました。今朝8時前に電気が復旧し、いつも通りの生活に戻り有り難さでいっぱいです。ようやく見ることができたテレビの画面に愕然し涙がでました。</p><p class=\"time\">03-12 13:55:43</p>","lon":140.04832,"lat":39.38472,"img":"megaphone.png"},{"id":"weathernews6892","name":"まだまだ大小の余震が度々起こります。電気は午前１０時前に復旧しました。 03-12 14:23:25","text":"まだまだ大小の余震が度々起こります。電気は午前１０時前に復旧しました。 03-12 14:23:25","desc":"<p class=\"tweettext\">まだまだ大小の余震が度々起こります。電気は午前１０時前に復旧しました。</p><p class=\"time\">03-12 14:23:25</p>","lon":140.56029,"lat":39.58944,"img":"megaphone.png"},{"id":"weathernews7140","name":"(03/12、14:30現在)※時間は目安です14:45：横揺れ発生、徐々に大きくなり、２分程揺れる。14:50：大仙市で震度５強観測。後、停電しばらくして救急...","text":"(03/12、14:30現在)※時間は目安です14:45：横揺れ発生、徐々に大きくなり、２分程揺れる。14:50：大仙市で震度５強観測。後、停電しばらくして救急車両のサイレンの音が頻繁に鳴り響く24:00：大仙市で断水翌日09:00：一部スーパーなどで臨時営業。100人以上の人が物資に殺到。奪い合い。同時に街の各地で渋滞発生10:00：駅前など一部で信号が復旧現在に至ります。大仙市はまだましな方であると思います。被災地の皆様の無事を願ってやみません。 03-12 14:42:22","desc":"<p class=\"tweettext\">(03/12、14:30現在)※時間は目安です14:45：横揺れ発生、徐々に大きくなり、２分程揺れる。14:50：大仙市で震度５強観測。後、停電しばらくして救急車両のサイレンの音が頻繁に鳴り響く24:00：大仙市で断水翌日09:00：一部スーパーなどで臨時営業。100人以上の人が物資に殺到。奪い合い。同時に街の各地で渋滞発生10:00：駅前など一部で信号が復旧現在に至ります。大仙市はまだましな方であると思います。被災地の皆様の無事を願ってやみません。</p><p class=\"time\">03-12 14:42:22</p>","lon":140.4761,"lat":39.44167,"img":"megaphone.png"},{"id":"weathernews7248","name":"まずは、甚大な災害に遭われた皆さんにお見舞い申し上げます。今いる秋田市山手台は現在は電気が通電していない状況です。市内でも部分的に通電しているみたいです。 03...","text":"まずは、甚大な災害に遭われた皆さんにお見舞い申し上げます。今いる秋田市山手台は現在は電気が通電していない状況です。市内でも部分的に通電しているみたいです。 03-12 14:52:10","desc":"<p class=\"tweettext\">まずは、甚大な災害に遭われた皆さんにお見舞い申し上げます。今いる秋田市山手台は現在は電気が通電していない状況です。市内でも部分的に通電しているみたいです。</p><p class=\"time\">03-12 14:52:10</p>","lon":140.1505,"lat":39.69487,"img":"megaphone.png"},{"id":"weathernews7282","name":"地震発生から停電、深夜に断水しました 大仙市役所(大曲)周辺と大曲中学校周辺、仙北組合病院周辺では電気が復旧しました うちはまだ電気がつかず、厚着しています。水...","text":"地震発生から停電、深夜に断水しました 大仙市役所(大曲)周辺と大曲中学校周辺、仙北組合病院周辺では電気が復旧しました うちはまだ電気がつかず、厚着しています。水は少し出るようになりましたが余震はまだ時々起きます 情報はラジオ、ケータイ、カーナビのテレビのみです。店も食料、電池、ガソリン確保でマヒしています 天気がいいのが救いです。会社は何もできないので休みになりました 03-12 14:54:46","desc":"<p class=\"tweettext\">地震発生から停電、深夜に断水しました 大仙市役所(大曲)周辺と大曲中学校周辺、仙北組合病院周辺では電気が復旧しました うちはまだ電気がつかず、厚着しています。水は少し出るようになりましたが余震はまだ時々起きます 情報はラジオ、ケータイ、カーナビのテレビのみです。店も食料、電池、ガソリン確保でマヒしています 天気がいいのが救いです。会社は何もできないので休みになりました </p><p class=\"time\">03-12 14:54:46</p>","lon":140.49333,"lat":39.45889,"img":"megaphone.png"},{"id":"weathernews7465","name":"まだ停電中 03-12 15:12:25","text":"まだ停電中 03-12 15:12:25","desc":"<p class=\"tweettext\">まだ停電中</p><p class=\"time\">03-12 15:12:25</p>","lon":139.98392,"lat":39.89513,"img":"megaphone.png"},{"id":"weathernews7510","name":"やはり電気、水道が止まっていてとても不安です 03-12 15:17:04","text":"やはり電気、水道が止まっていてとても不安です 03-12 15:17:04","desc":"<p class=\"tweettext\">やはり電気、水道が止まっていてとても不安です</p><p class=\"time\">03-12 15:17:04</p>","lon":140.48083,"lat":39.45139,"img":"megaphone.png"},{"id":"weathernews7525","name":"電気が止まっている。 03-12 15:18:56","text":"電気が止まっている。 03-12 15:18:56","desc":"<p class=\"tweettext\">電気が止まっている。</p><p class=\"time\">03-12 15:18:56</p>","lon":140.09167,"lat":39.73139,"img":"megaphone.png"},{"id":"weathernews7545","name":"今日は大学の後期試験 秋田大学と県立大学は予定通り実施 試験の最中も余震あり気もそぞろ でも面接管はやさしかったような気がしました 帰りは家まで10キロほど歩い...","text":"今日は大学の後期試験 秋田大学と県立大学は予定通り実施 試験の最中も余震あり気もそぞろ でも面接管はやさしかったような気がしました 帰りは家まで10キロほど歩いてきたら途中茨島は電気がついてたけど 橋をこえたら まだでした 今夜もろうそくかも 余震 今 大きい揺れがありました 03-12 15:21:13","desc":"<p class=\"tweettext\">今日は大学の後期試験  秋田大学と県立大学は予定通り実施    試験の最中も余震あり気もそぞろ  でも面接管はやさしかったような気がしました   帰りは家まで10キロほど歩いてきたら途中茨島は電気がついてたけど 橋をこえたら まだでした  今夜もろうそくかも    余震  今 大きい揺れがありました</p><p class=\"time\">03-12 15:21:13</p>","lon":140.08447,"lat":39.67777,"img":"megaphone.png"},{"id":"weathernews7644","name":"四ｯ小屋は午前10時前に電気はつきました。 隣のおのばあたりはまだ停電中みたいです。 スーパーもばらじまあたりはぐちゃぐちゃらしいですが御所野イオンやｼﾞｪｲﾏ...","text":"四ｯ小屋は午前10時前に電気はつきました。 隣のおのばあたりはまだ停電中みたいです。 スーパーもばらじまあたりはぐちゃぐちゃらしいですが御所野イオンやｼﾞｪｲﾏﾙｴｰあたりは入店規制があるものの買物はできます。 03-12 15:35:30","desc":"<p class=\"tweettext\">四ｯ小屋は午前10時前に電気はつきました。　隣のおのばあたりはまだ停電中みたいです。　スーパーもばらじまあたりはぐちゃぐちゃらしいですが御所野イオンやｼﾞｪｲﾏﾙｴｰあたりは入店規制があるものの買物はできます。</p><p class=\"time\">03-12 15:35:30</p>","lon":140.13026,"lat":39.65563,"img":"megaphone.png"},{"id":"weathernews7821","name":"停電が復旧しました。余震は続いてる状況です。 03-12 16:02:26","text":"停電が復旧しました。余震は続いてる状況です。 03-12 16:02:26","desc":"<p class=\"tweettext\">停電が復旧しました。余震は続いてる状況です。</p><p class=\"time\">03-12 16:02:26</p>","lon":140.13472,"lat":39.71833,"img":"megaphone.png"},{"id":"weathernews7826","name":"ドーミーインは電気、水とも不通です 03-12 16:02:54","text":"ドーミーインは電気、水とも不通です 03-12 16:02:54","desc":"<p class=\"tweettext\">ドーミーインは電気、水とも不通です</p><p class=\"time\">03-12 16:02:54</p>","lon":140.12389,"lat":39.71528,"img":"megaphone.png"},{"id":"weathernews8316","name":"とても強い揺れが何度も繰り返し来ました。地震が起きてからすぐに停電になりテレビもパソコンも見られず大変でした。携帯も繋がらない状態が続き充電器がないと電源がなく...","text":"とても強い揺れが何度も繰り返し来ました。地震が起きてからすぐに停電になりテレビもパソコンも見られず大変でした。携帯も繋がらない状態が続き充電器がないと電源がなく何もできませんでした。避難は家が倒れた人優先でそれ以外の人は周りの人達で集まって足りない物を補いながら過ごしました。オール電化の家は暖房もないので寒いです。今やっと秋田市は電気が復旧しました。でも一にみんなが使うとまたパンクするのでまだまだみんなで協力する必要があると思います。 03-12 17:32:20","desc":"<p class=\"tweettext\">とても強い揺れが何度も繰り返し来ました。地震が起きてからすぐに停電になりテレビもパソコンも見られず大変でした。携帯も繋がらない状態が続き充電器がないと電源がなく何もできませんでした。避難は家が倒れた人優先でそれ以外の人は周りの人達で集まって足りない物を補いながら過ごしました。オール電化の家は暖房もないので寒いです。今やっと秋田市は電気が復旧しました。でも一にみんなが使うとまたパンクするのでまだまだみんなで協力する必要があると思います。</p><p class=\"time\">03-12 17:32:20</p>","lon":140.12306,"lat":39.72917,"img":"megaphone.png"},{"id":"weathernews8393","name":"14半頃強い横揺れに私は部屋の机の下に隠れました。揺れは、中々止まず…家が潰れるのではないかと？恐怖を覚えました。暫くし揺れが止むのを待ちテレビの地震速報を見よ...","text":"14半頃強い横揺れに私は部屋の机の下に隠れました。揺れは、中々止まず…家が潰れるのではないかと？恐怖を覚えました。暫くし揺れが止むのを待ちテレビの地震速報を見ようかと思いましたが、テレビは映らず、家中の家電が止まっている事に気づきました。携帯も繋がらず、情報が入ってこない恐ろしさを感じました。幸いラジオがあり 宮城で地震があったのだと、わかりました。そしてまた、幸いな事にガスと水道が通じており、暗くなる前に夕食をすませる事が、出来ました。私は石油ストーブを使っており何とか暖を取ることが出来ましたが、街中の灯りが消えておりそれにくわえ強い余震が一晩中続いており眠る事が出来ませんでした…今も余震は続いております翌朝電気が復旧しテレビを見て、宮城県民の皆様の現状を垣間見てショックを受けました…私は無力ですが、震災にあわれた全ての方の安否と復興を願います。自分でもできることを探します。 03-12 17:50:03","desc":"<p class=\"tweettext\">14半頃強い横揺れに私は部屋の机の下に隠れました。揺れは、中々止まず…家が潰れるのではないかと？恐怖を覚えました。暫くし揺れが止むのを待ちテレビの地震速報を見ようかと思いましたが、テレビは映らず、家中の家電が止まっている事に気づきました。携帯も繋がらず、情報が入ってこない恐ろしさを感じました。幸いラジオがあり 宮城で地震があったのだと、わかりました。そしてまた、幸いな事にガスと水道が通じており、暗くなる前に夕食をすませる事が、出来ました。私は石油ストーブを使っており何とか暖を取ることが出来ましたが、街中の灯りが消えておりそれにくわえ強い余震が一晩中続いており眠る事が出来ませんでした…今も余震は続いております翌朝電気が復旧しテレビを見て、宮城県民の皆様の現状を垣間見てショックを受けました…私は無力ですが、震災にあわれた全ての方の安否と復興を願います。自分でもできることを探します。</p><p class=\"time\">03-12 17:50:03</p>","lon":140.04883,"lat":39.38588,"img":"megaphone.png"},{"id":"weathernews8406","name":"電気復旧しました！なんとかみんな早くライフライン復旧しますように。 03-12 17:55:21","text":"電気復旧しました！なんとかみんな早くライフライン復旧しますように。 03-12 17:55:21","desc":"<p class=\"tweettext\">電気復旧しました！なんとかみんな早くライフライン復旧しますように。</p><p class=\"time\">03-12 17:55:21</p>","lon":140.1451,"lat":39.72836,"img":"megaphone.png"},{"id":"weathernews8478","name":"まだ電気が復旧しておらず暖がとれない方は近くの会館に避難しています。 03-12 18:17:04","text":"まだ電気が復旧しておらず暖がとれない方は近くの会館に避難しています。 03-12 18:17:04","desc":"<p class=\"tweettext\">まだ電気が復旧しておらず暖がとれない方は近くの会館に避難しています。</p><p class=\"time\">03-12 18:17:04</p>","lon":140.09094,"lat":39.90234,"img":"megaphone.png"},{"id":"weathernews8568","name":"停電状態のまま 2日目の夜を迎えます ろうそくのあかりと 暖房のない夜です 真冬でないのが幸いです 03-12 18:42:59","text":"停電状態のまま 2日目の夜を迎えます ろうそくのあかりと 暖房のない夜です 真冬でないのが幸いです 03-12 18:42:59","desc":"<p class=\"tweettext\">停電状態のまま 2日目の夜を迎えます   ろうそくのあかりと 暖房のない夜です  真冬でないのが幸いです</p><p class=\"time\">03-12 18:42:59</p>","lon":140.62221,"lat":39.61205,"img":"megaphone.png"},{"id":"weathernews8658","name":"被災された方にお見舞い申し上げます。ゆっくりした強い揺れてした。被害は停電で、職場のパソコンのダウン、帰り道の信号が消え横断できず、何より情報がほとんど入らない...","text":"被災された方にお見舞い申し上げます。ゆっくりした強い揺れてした。被害は停電で、職場のパソコンのダウン、帰り道の信号が消え横断できず、何より情報がほとんど入らない状態が続きました。手回しラジオが役立ちました。 03-12 19:08:01","desc":"<p class=\"tweettext\">被災された方にお見舞い申し上げます。ゆっくりした強い揺れてした。被害は停電で、職場のパソコンのダウン、帰り道の信号が消え横断できず、何より情報がほとんど入らない状態が続きました。手回しラジオが役立ちました。</p><p class=\"time\">03-12 19:08:01</p>","lon":140.11542,"lat":39.73528,"img":"megaphone.png"},{"id":"weathernews8715","name":"時々揺れているようなきがします。12日午後７時まだ停電している地区もありますが、午前７時頃から、少しずつ電気が復旧してきているようです 03-12 19:21:...","text":"時々揺れているようなきがします。12日午後７時まだ停電している地区もありますが、午前７時頃から、少しずつ電気が復旧してきているようです 03-12 19:21:42","desc":"<p class=\"tweettext\">時々揺れているようなきがします。12日午後７時まだ停電している地区もありますが、午前７時頃から、少しずつ電気が復旧してきているようです</p><p class=\"time\">03-12 19:21:42</p>","lon":140.55917,"lat":39.60024,"img":"megaphone.png"},{"id":"weathernews8746","name":"ずっと続いていた停電が復旧｡昨日は の中で地震に遭い が止まり電車も止まった｡ 03-12 19:30:03","text":"ずっと続いていた停電が復旧｡昨日は の中で地震に遭い が止まり電車も止まった｡ 03-12 19:30:03","desc":"<p class=\"tweettext\">ずっと続いていた停電が復旧｡昨日は の中で地震に遭い が止まり電車も止まった｡</p><p class=\"time\">03-12 19:30:03</p>","lon":140.09201,"lat":39.67688,"img":"megaphone.png"},{"id":"weathernews8791","name":"3月11日､地震が起こってから､翌日の19時まで停電していました｡余震や､誘発された地震も起こり､とても怖いです｡ 03-12 19:44:14","text":"3月11日､地震が起こってから､翌日の19時まで停電していました｡余震や､誘発された地震も起こり､とても怖いです｡ 03-12 19:44:14","desc":"<p class=\"tweettext\">3月11日､地震が起こってから､翌日の19時まで停電していました｡余震や､誘発された地震も起こり､とても怖いです｡</p><p class=\"time\">03-12 19:44:14</p>","lon":140.12729,"lat":39.69778,"img":"megaphone.png"},{"id":"weathernews8835","name":"電気普及いたしました皆さん電気供給量が充分ではありませんので節電にご協力願いますまだ、停電中の方々頑張りましょうただいま、やや強い揺れがありました皆さん落ち着い...","text":"電気普及いたしました皆さん電気供給量が充分ではありませんので節電にご協力願いますまだ、停電中の方々頑張りましょうただいま、やや強い揺れがありました皆さん落ち着いてください 03-12 19:57:46","desc":"<p class=\"tweettext\">電気普及いたしました皆さん電気供給量が充分ではありませんので節電にご協力願いますまだ、停電中の方々頑張りましょうただいま、やや強い揺れがありました皆さん落ち着いてください</p><p class=\"time\">03-12 19:57:46</p>","lon":140.53552,"lat":39.42126,"img":"megaphone.png"},{"id":"weathernews8946","name":"本荘市全域かは不明ですが、朝9時頃に停電が復旧したそうです。同じく西目は午後6時頃復旧したそうです。潟上市天王は午後8時頃復旧したそうです。男鹿市の男鹿中の一部...","text":"本荘市全域かは不明ですが、朝9時頃に停電が復旧したそうです。同じく西目は午後6時頃復旧したそうです。潟上市天王は午後8時頃復旧したそうです。男鹿市の男鹿中の一部も午後5時頃復旧したそうです。とりあえず分かる範囲で。どんどん停電復旧しています。 03-12 20:24:17","desc":"<p class=\"tweettext\">本荘市全域かは不明ですが、朝9時頃に停電が復旧したそうです。同じく西目は午後6時頃復旧したそうです。潟上市天王は午後8時頃復旧したそうです。男鹿市の男鹿中の一部も午後5時頃復旧したそうです。とりあえず分かる範囲で。どんどん停電復旧しています。</p><p class=\"time\">03-12 20:24:17</p>","lon":140.03416,"lat":39.41565,"img":"megaphone.png"},{"id":"weathernews8974","name":"やっと電気回復しました。ですがいぜんとして余震は続いています。皆さん気を付けて安全でいることを願いこれからも気をつけましょう。 03-12 20:29:15","text":"やっと電気回復しました。ですがいぜんとして余震は続いています。皆さん気を付けて安全でいることを願いこれからも気をつけましょう。 03-12 20:29:15","desc":"<p class=\"tweettext\">やっと電気回復しました。ですがいぜんとして余震は続いています。皆さん気を付けて安全でいることを願いこれからも気をつけましょう。</p><p class=\"time\">03-12 20:29:15</p>","lon":139.95279,"lat":39.90528,"img":"megaphone.png"},{"id":"weathernews8994","name":"8時前に少し揺れました。短い時間。電気は回復。隣近所は明るい。今のうちに非常用品をすぐ出せるよう準備万端にする 03-12 20:35:41","text":"8時前に少し揺れました。短い時間。電気は回復。隣近所は明るい。今のうちに非常用品をすぐ出せるよう準備万端にする 03-12 20:35:41","desc":"<p class=\"tweettext\">8時前に少し揺れました。短い時間。電気は回復。隣近所は明るい。今のうちに非常用品をすぐ出せるよう準備万端にする</p><p class=\"time\">03-12 20:35:41</p>","lon":140.0529,"lat":39.81207,"img":"megaphone.png"},{"id":"weathernews9067","name":"余震は時折あるが、物が落ちるなどの被害はない。乾電池、食料、ガスボンベ類は店ではほぼ売切れ状態。 03-12 20:52:22","text":"余震は時折あるが、物が落ちるなどの被害はない。乾電池、食料、ガスボンベ類は店ではほぼ売切れ状態。 03-12 20:52:22","desc":"<p class=\"tweettext\">余震は時折あるが、物が落ちるなどの被害はない。乾電池、食料、ガスボンベ類は店ではほぼ売切れ状態。</p><p class=\"time\">03-12 20:52:22</p>","lon":140.06917,"lat":39.79799,"img":"megaphone.png"},{"id":"weathernews9075","name":"すべてのライフライン復旧しました。 03-12 20:54:18","text":"すべてのライフライン復旧しました。 03-12 20:54:18","desc":"<p class=\"tweettext\">すべてのライフライン復旧しました。</p><p class=\"time\">03-12 20:54:18</p>","lon":140.47412,"lat":39.4725,"img":"megaphone.png"},{"id":"weathernews9250","name":"電気もついてテレビも見れます 安心しました 03-12 21:41:09","text":"電気もついてテレビも見れます 安心しました 03-12 21:41:09","desc":"<p class=\"tweettext\">電気もついてテレビも見れます 安心しました </p><p class=\"time\">03-12 21:41:09</p>","lon":140.04883,"lat":39.38588,"img":"megaphone.png"},{"id":"weathernews9253","name":"電気もついてテレビも見れます 安心しました 03-12 21:41:32","text":"電気もついてテレビも見れます 安心しました 03-12 21:41:32","desc":"<p class=\"tweettext\">電気もついてテレビも見れます 安心しました </p><p class=\"time\">03-12 21:41:32</p>","lon":140.04883,"lat":39.38588,"img":"megaphone.png"},{"id":"weathernews9308","name":"時々余震はありますが、５時に電気が開通してからはずっと を見て、改めて被害の大きさに驚いてます。眠れない寒い暗い不安な一日を過ごし、朝は早く起きてコンビニへ並ん...","text":"時々余震はありますが、５時に電気が開通してからはずっと を見て、改めて被害の大きさに驚いてます。眠れない寒い暗い不安な一日を過ごし、朝は早く起きてコンビニへ並んで食料調達。怖かった 今回の地震で被災に遭われた方、お見舞い申し上げます。 03-12 21:54:37","desc":"<p class=\"tweettext\">時々余震はありますが、５時に電気が開通してからはずっと を見て、改めて被害の大きさに驚いてます。眠れない寒い暗い不安な一日を過ごし、朝は早く起きてコンビニへ並んで食料調達。怖かった 今回の地震で被災に遭われた方、お見舞い申し上げます。</p><p class=\"time\">03-12 21:54:37</p>","lon":140.10329,"lat":39.71437,"img":"megaphone.png"},{"id":"weathernews9488","name":"地震発生20分後から停電していたのですが、12日昼前一部回復しましたが‥まだ全域ではありません。電話は依然繋がりにくいです。メールは送受信可能になりました。コン...","text":"地震発生20分後から停電していたのですが、12日昼前一部回復しましたが‥まだ全域ではありません。電話は依然繋がりにくいです。メールは送受信可能になりました。コンビニ・スーパーは品薄。ガソリンスタンドは稼動していません。 03-12 22:30:07","desc":"<p class=\"tweettext\">地震発生20分後から停電していたのですが、12日昼前一部回復しましたが‥まだ全域ではありません。電話は依然繋がりにくいです。メールは送受信可能になりました。コンビニ・スーパーは品薄。ガソリンスタンドは稼動していません。</p><p class=\"time\">03-12 22:30:07</p>","lon":140.21883,"lat":39.51465,"img":"megaphone.png"},{"id":"weathernews9722","name":"秋田美郷町では火災停電による交通事故や断水米屋の倉庫一部損壊などまだ状況ですが、一部電気回復中 03-12 23:20:49","text":"秋田美郷町では火災停電による交通事故や断水米屋の倉庫一部損壊などまだ状況ですが、一部電気回復中 03-12 23:20:49","desc":"<p class=\"tweettext\">秋田美郷町では火災停電による交通事故や断水米屋の倉庫一部損壊などまだ状況ですが、一部電気回復中</p><p class=\"time\">03-12 23:20:49</p>","lon":140.54845,"lat":39.3983,"img":"megaphone.png"},{"id":"weathernews9861","name":"11日の地震から電気・水道が止まる。12日の夕方から水道、夜には電気も復旧。ライフラインは確保。今だ余震が続く。 03-12 23:54:30","text":"11日の地震から電気・水道が止まる。12日の夕方から水道、夜には電気も復旧。ライフラインは確保。今だ余震が続く。 03-12 23:54:30","desc":"<p class=\"tweettext\">11日の地震から電気・水道が止まる。12日の夕方から水道、夜には電気も復旧。ライフラインは確保。今だ余震が続く。</p><p class=\"time\">03-12 23:54:30</p>","lon":140.44528,"lat":39.38944,"img":"megaphone.png"}]}